[{"type":"Feature","id":"5132dd6ca288f42e67353795","properties":{"_id":"5132dd6ca288f42e67353795","PROVIDER NPI":1730194119,"PROVIDER NAME":"Abramov, Boris","PROVIDER STATE":"Maryland","PROVIDER CITY":"Baltimore","PROVIDER  ADDRESS":"4005 7 Mile Ln Ste E","PROVIDER ZIP 5 CD":21208,"PROVIDER ZIP 4 CD":6125,"PROVIDER PHONE NUM":4438727052,"PROVIDER PHONE EXT":"","PROGRAM YEAR":2011},"geometry":{"type":"Point","coordinates":[-76.631131,39.242899]}},{"type":"Feature","id":"5132dd6ca288f42e67353796","properties":{"_id":"5132dd6ca288f42e67353796","PROVIDER NPI":1255388690,"PROVIDER NAME":"Abramowitz, Leslie","PROVIDER STATE":"Maryland","PROVIDER CITY":"Owings Mills","PROVIDER  ADDRESS":"21 Crossroads Dr, Suite 450","PROVIDER ZIP 5 CD":21117,"PROVIDER ZIP 4 CD":5441,"PROVIDER PHONE NUM":4105811600,"PROVIDER PHONE EXT":"","PROGRAM YEAR":2011},"geometry":{"type":"Point","coordinates":[-76.752846,39.398054]}},{"type":"Feature","id":"5132dd6ca288f42e67353797","properties":{"_id":"5132dd6ca288f42e67353797","PROVIDER NPI":1912086794,"PROVIDER NAME":"Adams, Gillian","PROVIDER STATE":"Maryland","PROVIDER CITY":"Bel Air","PROVIDER  ADDRESS":"104 Plumtree Rd","PROVIDER ZIP 5 CD":21015,"PROVIDER ZIP 4 CD":6095,"PROVIDER PHONE NUM":4105694224,"PROVIDER PHONE EXT":"","PROGRAM YEAR":2011},"geometry":{"type":"Point","coordinates":[-76.326959,39.502582]}},{"type":"Feature","id":"5132dd6ca288f42e67353798","properties":{"_id":"5132dd6ca288f42e67353798","PROVIDER NPI":1447241872,"PROVIDER NAME":"Addala, Srinivas","PROVIDER STATE":"Maryland","PROVIDER CITY":"Clinton","PROVIDER  ADDRESS":"9135 Piscataway Rd Ste 210","PROVIDER ZIP 5 CD":20735,"PROVIDER ZIP 4 CD":3358,"PROVIDER PHONE NUM":3018681380,"PROVIDER PHONE EXT":"","PROGRAM YEAR":2011},"geometry":{"type":"Point","coordinates":[-76.906149,38.763891]}},{"type":"Feature","id":"5132dd6ca288f42e67353799","properties":{"_id":"5132dd6ca288f42e67353799","PROVIDER NPI":1235216334,"PROVIDER NAME":"Adejumo, Khadijah","PROVIDER STATE":"Maryland","PROVIDER CITY":"Clinton","PROVIDER  ADDRESS":"10403 Hospital Dr, Suite 103","PROVIDER ZIP 5 CD":20735,"PROVIDER ZIP 4 CD":3134,"PROVIDER PHONE NUM":3018568990,"PROVIDER PHONE EXT":"","PROGRAM YEAR":2011},"geometry":{"type":"Point","coordinates":[-76.877328,38.748956]}},{"type":"Feature","id":"5132dd6ca288f42e6735379a","properties":{"_id":"5132dd6ca288f42e6735379a","PROVIDER NPI":1487638854,"PROVIDER NAME":"adetunji, ademuyiwa","PROVIDER STATE":"Maryland","PROVIDER CITY":"Largo","PROVIDER  ADDRESS":"1450 Mercantile Ln, ste 151","PROVIDER ZIP 5 CD":20774,"PROVIDER ZIP 4 CD":5376,"PROVIDER PHONE NUM":3013865453,"PROVIDER PHONE EXT":"","PROGRAM YEAR":2011},"geometry":{"type":"Point","coordinates":[-76.784155,38.873379]}},{"type":"Feature","id":"5132dd6ca288f42e6735379b","properties":{"_id":"5132dd6ca288f42e6735379b","PROVIDER NPI":1669464798,"PROVIDER NAME":"Aiello, David","PROVIDER STATE":"Maryland","PROVIDER CITY":"Glen Burnie","PROVIDER  ADDRESS":"1417 Madison Park Dr","PROVIDER ZIP 5 CD":21061,"PROVIDER ZIP 4 CD":5613,"PROVIDER PHONE NUM":4107686600,"PROVIDER PHONE EXT":"","PROGRAM YEAR":2011},"geometry":{"type":"Point","coordinates":[-76.631521,39.149573]}},{"type":"Feature","id":"5132dd6ca288f42e6735379c","properties":{"_id":"5132dd6ca288f42e6735379c","PROVIDER NPI":1528063179,"PROVIDER NAME":"Aiken, Maurice","PROVIDER STATE":"Maryland","PROVIDER CITY":"Baltimore","PROVIDER  ADDRESS":"1838 Greene Tree Rd, Ste 430","PROVIDER ZIP 5 CD":21208,"PROVIDER ZIP 4 CD":7103,"PROVIDER PHONE NUM":4106028637,"PROVIDER PHONE EXT":"","PROGRAM YEAR":2011},"geometry":{"type":"Point","coordinates":[-76.7359,39.38731]}},{"type":"Feature","id":"5132dd6ca288f42e6735379d","properties":{"_id":"5132dd6ca288f42e6735379d","PROVIDER NPI":1104877984,"PROVIDER NAME":"Ajayi, Adebowale","PROVIDER STATE":"Maryland","PROVIDER CITY":"College Park","PROVIDER  ADDRESS":"6201 Greenbelt Rd, Suite M-18","PROVIDER ZIP 5 CD":20740,"PROVIDER ZIP 4 CD":2354,"PROVIDER PHONE NUM":"","PROVIDER PHONE EXT":"","PROGRAM YEAR":2011},"geometry":{"type":"Point","coordinates":[-76.90709,38.997042]}},{"type":"Feature","id":"5132dd6ca288f42e6735379e","properties":{"_id":"5132dd6ca288f42e6735379e","PROVIDER NPI":1831155761,"PROVIDER NAME":"Akan, Gloria","PROVIDER STATE":"Maryland","PROVIDER CITY":"Glen Burnie","PROVIDER  ADDRESS":"203 Hospital Dr, Suite 200","PROVIDER ZIP 5 CD":21061,"PROVIDER ZIP 4 CD":6904,"PROVIDER PHONE NUM":4107608840,"PROVIDER PHONE EXT":"","PROGRAM YEAR":2011},"geometry":{"type":"Point","coordinates":[-76.632038,39.141925]}},{"type":"Feature","id":"5132dd6ca288f42e6735379f","properties":{"_id":"5132dd6ca288f42e6735379f","PROVIDER NPI":1164614764,"PROVIDER NAME":"Akhtar, Haroon","PROVIDER STATE":"Maryland","PROVIDER CITY":"Brunswick","PROVIDER  ADDRESS":"610 9th Ave","PROVIDER ZIP 5 CD":21716,"PROVIDER ZIP 4 CD":1828,"PROVIDER PHONE NUM":3018347188,"PROVIDER PHONE EXT":"","PROGRAM YEAR":2011},"geometry":{"type":"Point","coordinates":[-77.611832,39.316836]}},{"type":"Feature","id":"5132dd6ca288f42e673537a0","properties":{"_id":"5132dd6ca288f42e673537a0","PROVIDER NPI":1255413969,"PROVIDER NAME":"Akinkunmi, Lanre","PROVIDER STATE":"Maryland","PROVIDER CITY":"Elkton","PROVIDER  ADDRESS":"111 W High St, suite 314","PROVIDER ZIP 5 CD":21921,"PROVIDER ZIP 4 CD":5529,"PROVIDER PHONE NUM":4103984679,"PROVIDER PHONE EXT":"","PROGRAM YEAR":2011},"geometry":{"type":"Point","coordinates":[-75.831786,39.609202]}},{"type":"Feature","id":"5132dd6ca288f42e673537a1","properties":{"_id":"5132dd6ca288f42e673537a1","PROVIDER NPI":1689669616,"PROVIDER NAME":"Akmal, Mohammad","PROVIDER STATE":"Maryland","PROVIDER CITY":"Hagerstown","PROVIDER  ADDRESS":"12821 Oak Hill Ave, Suite 2","PROVIDER ZIP 5 CD":21742,"PROVIDER ZIP 4 CD":2940,"PROVIDER PHONE NUM":2403130171,"PROVIDER PHONE EXT":"","PROGRAM YEAR":2011},"geometry":{"type":"Point","coordinates":[-77.702129,39.665569]}},{"type":"Feature","id":"5132dd6ca288f42e673537a2","properties":{"_id":"5132dd6ca288f42e673537a2","PROVIDER NPI":1952503864,"PROVIDER NAME":"Albeiruti, Eiyass","PROVIDER STATE":"Maryland","PROVIDER CITY":"Baltimore","PROVIDER  ADDRESS":"600 N Wolfe St","PROVIDER ZIP 5 CD":21287,"PROVIDER ZIP 4 CD":5,"PROVIDER PHONE NUM":4109556052,"PROVIDER PHONE EXT":"","PROGRAM YEAR":2011},"geometry":{"type":"Point","coordinates":[-76.590725,39.294683]}},{"type":"Feature","id":"5132dd6ca288f42e673537a3","properties":{"_id":"5132dd6ca288f42e673537a3","PROVIDER NPI":1841301132,"PROVIDER NAME":"Albiol, Loreto","PROVIDER STATE":"Maryland","PROVIDER CITY":"Bethesda","PROVIDER  ADDRESS":"8218 Wisconsin Avenue, Suite #305","PROVIDER ZIP 5 CD":20814,"PROVIDER ZIP 4 CD":"","PROVIDER PHONE NUM":3016524887,"PROVIDER PHONE EXT":"","PROGRAM YEAR":2011},"geometry":{"type":"Point","coordinates":[-77.095939,38.992045]}},{"type":"Feature","id":"5132dd6ca288f42e673537a4","properties":{"_id":"5132dd6ca288f42e673537a4","PROVIDER NPI":1285668343,"PROVIDER NAME":"Albrecht, Larry","PROVIDER STATE":"Maryland","PROVIDER CITY":"Easton","PROVIDER  ADDRESS":"8579 Commerce Dr, Suite 100","PROVIDER ZIP 5 CD":21601,"PROVIDER ZIP 4 CD":7491,"PROVIDER PHONE NUM":4108220645,"PROVIDER PHONE EXT":"","PROGRAM YEAR":2011},"geometry":{"type":"Point","coordinates":[-76.08305,38.784953]}},{"type":"Feature","id":"5132dd6ca288f42e673537a5","properties":{"_id":"5132dd6ca288f42e673537a5","PROVIDER NPI":1609874718,"PROVIDER NAME":"Aldana, Erwin","PROVIDER STATE":"Maryland","PROVIDER CITY":"Pikesville","PROVIDER  ADDRESS":"1860 Reisterstown Rd, Suite A","PROVIDER ZIP 5 CD":21208,"PROVIDER ZIP 4 CD":1335,"PROVIDER PHONE NUM":4104844044,"PROVIDER PHONE EXT":"","PROGRAM YEAR":2011},"geometry":{"type":"Point","coordinates":[-76.740262,39.389949]}},{"type":"Feature","id":"5132dd6ca288f42e673537a6","properties":{"_id":"5132dd6ca288f42e673537a6","PROVIDER NPI":1154376325,"PROVIDER NAME":"Alevizatos, Christen","PROVIDER STATE":"Maryland","PROVIDER CITY":"Baltimore","PROVIDER  ADDRESS":"5601 Loch Raven Blvd, Suite 307","PROVIDER ZIP 5 CD":21239,"PROVIDER ZIP 4 CD":2905,"PROVIDER PHONE NUM":4104337303,"PROVIDER PHONE EXT":"","PROGRAM YEAR":2011},"geometry":{"type":"Point","coordinates":[-76.588851,39.358914]}},{"type":"Feature","id":"5132dd6ca288f42e673537a7","properties":{"_id":"5132dd6ca288f42e673537a7","PROVIDER NPI":1316996481,"PROVIDER NAME":"Alexion, Rachelle","PROVIDER STATE":"Maryland","PROVIDER CITY":"Silver Spring","PROVIDER  ADDRESS":"3110 Gracefield Rd","PROVIDER ZIP 5 CD":20904,"PROVIDER ZIP 4 CD":1820,"PROVIDER PHONE NUM":3015728340,"PROVIDER PHONE EXT":"","PROGRAM YEAR":2011},"geometry":{"type":"Point","coordinates":[-76.950767,39.055976]}},{"type":"Feature","id":"5132dd6ca288f42e673537a8","properties":{"_id":"5132dd6ca288f42e673537a8","PROVIDER NPI":1386750057,"PROVIDER NAME":"Allaway, Matthew","PROVIDER STATE":"Maryland","PROVIDER CITY":"Cumberland","PROVIDER  ADDRESS":"12234 Willliams Road","PROVIDER ZIP 5 CD":21502,"PROVIDER ZIP 4 CD":"","PROVIDER PHONE NUM":3017240132,"PROVIDER PHONE EXT":"","PROGRAM YEAR":2011},"geometry":{"type":"Point","coordinates":[-78.734181,39.64223]}},{"type":"Feature","id":"5132dd6ca288f42e673537a9","properties":{"_id":"5132dd6ca288f42e673537a9","PROVIDER NPI":1407876360,"PROVIDER NAME":"Allen, Shannen","PROVIDER STATE":"Maryland","PROVIDER CITY":"Rockville","PROVIDER  ADDRESS":"15005 Shady Grove Rd., Ste 100","PROVIDER ZIP 5 CD":20850,"PROVIDER ZIP 4 CD":6341,"PROVIDER PHONE NUM":3012799696,"PROVIDER PHONE EXT":"","PROGRAM YEAR":2011},"geometry":{"type":"Point","coordinates":[-77.191457,39.101741]}},{"type":"Feature","id":"5132dd6ca288f42e673537aa","properties":{"_id":"5132dd6ca288f42e673537aa","PROVIDER NPI":1689611881,"PROVIDER NAME":"ALMARIO, JOSE","PROVIDER STATE":"Maryland","PROVIDER CITY":"Baltimore","PROVIDER  ADDRESS":"200 E 33rd St, SUITE 523","PROVIDER ZIP 5 CD":21218,"PROVIDER ZIP 4 CD":3322,"PROVIDER PHONE NUM":4102359382,"PROVIDER PHONE EXT":"","PROGRAM YEAR":2011},"geometry":{"type":"Point","coordinates":[-76.614918,39.328365]}},{"type":"Feature","id":"5132dd6ca288f42e673537ab","properties":{"_id":"5132dd6ca288f42e673537ab","PROVIDER NPI":1841336039,"PROVIDER NAME":"Alonso, Carolyn","PROVIDER STATE":"Maryland","PROVIDER CITY":"Baltimore","PROVIDER  ADDRESS":"1830 E Monument St Fl 4","PROVIDER ZIP 5 CD":21287,"PROVIDER ZIP 4 CD":20,"PROVIDER PHONE NUM":4109557963,"PROVIDER PHONE EXT":"","PROGRAM YEAR":2011},"geometry":{"type":"Point","coordinates":[-76.588713,39.298612]}},{"type":"Feature","id":"5132dd6ca288f42e673537ac","properties":{"_id":"5132dd6ca288f42e673537ac","PROVIDER NPI":1619192028,"PROVIDER NAME":"Alt, Lillian","PROVIDER STATE":"Maryland","PROVIDER CITY":"Baltimore","PROVIDER  ADDRESS":"9100 Franklin Square Dr, 2nd Floor Main Building","PROVIDER ZIP 5 CD":21237,"PROVIDER ZIP 4 CD":5344,"PROVIDER PHONE NUM":4437772021,"PROVIDER PHONE EXT":"","PROGRAM YEAR":2011},"geometry":{"type":"Point","coordinates":[-76.478715,39.350421]}},{"type":"Feature","id":"5132dd6ca288f42e673537ad","properties":{"_id":"5132dd6ca288f42e673537ad","PROVIDER NPI":1912981929,"PROVIDER NAME":"Amerena, James","PROVIDER STATE":"Maryland","PROVIDER CITY":"Frederick","PROVIDER  ADDRESS":"9093 Ridgefield Dr, Suite 104","PROVIDER ZIP 5 CD":21701,"PROVIDER ZIP 4 CD":6710,"PROVIDER PHONE NUM":3016824100,"PROVIDER PHONE EXT":"","PROGRAM YEAR":2011},"geometry":{"type":"Point","coordinates":[-77.34518,39.401088]}},{"type":"Feature","id":"5132dd6ca288f42e673537ae","properties":{"_id":"5132dd6ca288f42e673537ae","PROVIDER NPI":1508971920,"PROVIDER NAME":"AMIR, MURTAZA","PROVIDER STATE":"Maryland","PROVIDER CITY":"Cumberland","PROVIDER  ADDRESS":"625 Kent Ave, SUITE 302","PROVIDER ZIP 5 CD":21502,"PROVIDER ZIP 4 CD":3794,"PROVIDER PHONE NUM":3017771930,"PROVIDER PHONE EXT":"","PROGRAM YEAR":2011},"geometry":{"type":"Point","coordinates":[-78.753029,39.64166]}},{"type":"Feature","id":"5132dd6ca288f42e673537af","properties":{"_id":"5132dd6ca288f42e673537af","PROVIDER NPI":1255334454,"PROVIDER NAME":"Anderson, Jeffrey","PROVIDER STATE":"Maryland","PROVIDER CITY":"Salisbury","PROVIDER  ADDRESS":"100 E Carroll St, #400","PROVIDER ZIP 5 CD":21801,"PROVIDER ZIP 4 CD":5422,"PROVIDER PHONE NUM":4105437530,"PROVIDER PHONE EXT":3832,"PROGRAM YEAR":2011},"geometry":{"type":"Point","coordinates":[-75.597748,38.363138]}},{"type":"Feature","id":"5132dd6ca288f42e673537b0","properties":{"_id":"5132dd6ca288f42e673537b0","PROVIDER NPI":1164579785,"PROVIDER NAME":"Andrew, Clifford","PROVIDER STATE":"Maryland","PROVIDER CITY":"Severna Park","PROVIDER  ADDRESS":"645 Baltimore Annapolis Blvd, Suite 105","PROVIDER ZIP 5 CD":21146,"PROVIDER ZIP 4 CD":3931,"PROVIDER PHONE NUM":4106475000,"PROVIDER PHONE EXT":"","PROGRAM YEAR":2011},"geometry":{"type":"Point","coordinates":[-76.544137,39.068878]}},{"type":"Feature","id":"5132dd6ca288f42e673537b1","properties":{"_id":"5132dd6ca288f42e673537b1","PROVIDER NPI":1669440681,"PROVIDER NAME":"Appiott, John","PROVIDER STATE":"Maryland","PROVIDER CITY":"Federalsburg","PROVIDER  ADDRESS":"3304 Hayman Dr","PROVIDER ZIP 5 CD":21632,"PROVIDER ZIP 4 CD":2626,"PROVIDER PHONE NUM":4107542440,"PROVIDER PHONE EXT":"","PROGRAM YEAR":2011},"geometry":{"type":"Point","coordinates":[-75.787847,38.69934]}},{"type":"Feature","id":"5132dd6ca288f42e673537b2","properties":{"_id":"5132dd6ca288f42e673537b2","PROVIDER NPI":1609805571,"PROVIDER NAME":"Araujo, Roberto","PROVIDER STATE":"Maryland","PROVIDER CITY":"Silver Spring","PROVIDER  ADDRESS":"3110 Gracefield Rd","PROVIDER ZIP 5 CD":20904,"PROVIDER ZIP 4 CD":1820,"PROVIDER PHONE NUM":3015728340,"PROVIDER PHONE EXT":"","PROGRAM YEAR":2011},"geometry":{"type":"Point","coordinates":[-76.950767,39.055976]}},{"type":"Feature","id":"5132dd6ca288f42e673537b3","properties":{"_id":"5132dd6ca288f42e673537b3","PROVIDER NPI":1093781155,"PROVIDER NAME":"Argento, Nicholas","PROVIDER STATE":"Maryland","PROVIDER CITY":"Laurel","PROVIDER  ADDRESS":"14201 Laurel Park Dr, Suite 214","PROVIDER ZIP 5 CD":20707,"PROVIDER ZIP 4 CD":5203,"PROVIDER PHONE NUM":3019532080,"PROVIDER PHONE EXT":"","PROGRAM YEAR":2011},"geometry":{"type":"Point","coordinates":[-76.856959,39.104951]}},{"type":"Feature","id":"5132dd6ca288f42e673537b4","properties":{"_id":"5132dd6ca288f42e673537b4","PROVIDER NPI":1699727370,"PROVIDER NAME":"Arrison, Daniel","PROVIDER STATE":"Maryland","PROVIDER CITY":"Owings Mills","PROVIDER  ADDRESS":"25 Crossroads Dr, Suite 306","PROVIDER ZIP 5 CD":21117,"PROVIDER ZIP 4 CD":5421,"PROVIDER PHONE NUM":4108020251,"PROVIDER PHONE EXT":"","PROGRAM YEAR":2011},"geometry":{"type":"Point","coordinates":[-76.752774,39.397979]}},{"type":"Feature","id":"5132dd6ca288f42e673537b5","properties":{"_id":"5132dd6ca288f42e673537b5","PROVIDER NPI":1851393565,"PROVIDER NAME":"arrisueno, juan","PROVIDER STATE":"Maryland","PROVIDER CITY":"Cumberland","PROVIDER  ADDRESS":"12502 Willowbrook Rd, 670","PROVIDER ZIP 5 CD":21502,"PROVIDER ZIP 4 CD":1873,"PROVIDER PHONE NUM":3017775338,"PROVIDER PHONE EXT":"","PROGRAM YEAR":2011},"geometry":{"type":"Point","coordinates":[-78.731598,39.655185]}},{"type":"Feature","id":"5132dd6ca288f42e673537b6","properties":{"_id":"5132dd6ca288f42e673537b6","PROVIDER NPI":1265448062,"PROVIDER NAME":"Asad, Syed","PROVIDER STATE":"Maryland","PROVIDER CITY":"Greenbelt","PROVIDER  ADDRESS":"7500 Hanover Pkwy, Suite 201","PROVIDER ZIP 5 CD":20770,"PROVIDER ZIP 4 CD":2010,"PROVIDER PHONE NUM":3019827944,"PROVIDER PHONE EXT":"","PROGRAM YEAR":2011},"geometry":{"type":"Point","coordinates":[-76.916021,38.971152]}},{"type":"Feature","id":"5132dd6ca288f42e673537b7","properties":{"_id":"5132dd6ca288f42e673537b7","PROVIDER NPI":1053591032,"PROVIDER NAME":"Asar, Firdous","PROVIDER STATE":"Maryland","PROVIDER CITY":"Clinton","PROVIDER  ADDRESS":"10403 Hospital Dr, Suite G-4","PROVIDER ZIP 5 CD":20735,"PROVIDER ZIP 4 CD":3134,"PROVIDER PHONE NUM":3018430222,"PROVIDER PHONE EXT":"","PROGRAM YEAR":2011},"geometry":{"type":"Point","coordinates":[-76.877328,38.748956]}},{"type":"Feature","id":"5132dd6ca288f42e673537b8","properties":{"_id":"5132dd6ca288f42e673537b8","PROVIDER NPI":1912986035,"PROVIDER NAME":"Ashai, Khalid","PROVIDER STATE":"Maryland","PROVIDER CITY":"Greenbelt","PROVIDER  ADDRESS":"7525 Greenway center drive, suite 313","PROVIDER ZIP 5 CD":20770,"PROVIDER ZIP 4 CD":"","PROVIDER PHONE NUM":3013454100,"PROVIDER PHONE EXT":"","PROGRAM YEAR":2011},"geometry":{"type":"Point","coordinates":[-76.87956,38.991546]}},{"type":"Feature","id":"5132dd6ca288f42e673537b9","properties":{"_id":"5132dd6ca288f42e673537b9","PROVIDER NPI":1659326429,"PROVIDER NAME":"Ashai, Neelam","PROVIDER STATE":"Maryland","PROVIDER CITY":"Landover Hills","PROVIDER  ADDRESS":"4410 74th Ave","PROVIDER ZIP 5 CD":20784,"PROVIDER ZIP 4 CD":2222,"PROVIDER PHONE NUM":3015779393,"PROVIDER PHONE EXT":"","PROGRAM YEAR":2011},"geometry":{"type":"Point","coordinates":[-76.88824,38.945994]}},{"type":"Feature","id":"5132dd6ca288f42e673537ba","properties":{"_id":"5132dd6ca288f42e673537ba","PROVIDER NPI":1982688487,"PROVIDER NAME":"Ashe, Gene","PROVIDER STATE":"Maryland","PROVIDER CITY":"Woodsboro","PROVIDER  ADDRESS":"10200 Coppermine Road","PROVIDER ZIP 5 CD":21798,"PROVIDER ZIP 4 CD":"","PROVIDER PHONE NUM":3018456322,"PROVIDER PHONE EXT":"","PROGRAM YEAR":2011},"geometry":{"type":"Point","coordinates":[-77.308409,39.537635]}},{"type":"Feature","id":"5132dd6ca288f42e673537bb","properties":{"_id":"5132dd6ca288f42e673537bb","PROVIDER NPI":1508840026,"PROVIDER NAME":"Ashwal, Joseph","PROVIDER STATE":"Maryland","PROVIDER CITY":"Frederick","PROVIDER  ADDRESS":"56 Thomas Johnson Dr","PROVIDER ZIP 5 CD":21702,"PROVIDER ZIP 4 CD":4599,"PROVIDER PHONE NUM":3016943111,"PROVIDER PHONE EXT":"","PROGRAM YEAR":2011},"geometry":{"type":"Point","coordinates":[-77.405049,39.447882]}},{"type":"Feature","id":"5132dd6ca288f42e673537bc","properties":{"_id":"5132dd6ca288f42e673537bc","PROVIDER NPI":1902821838,"PROVIDER NAME":"Atcherson, Ray","PROVIDER STATE":"Maryland","PROVIDER CITY":"Arnold","PROVIDER  ADDRESS":"1294 Bay Dale Drive","PROVIDER ZIP 5 CD":21012,"PROVIDER ZIP 4 CD":2325,"PROVIDER PHONE NUM":4107571350,"PROVIDER PHONE EXT":"","PROGRAM YEAR":2011},"geometry":{"type":"Point","coordinates":[-76.479404,39.039797]}},{"type":"Feature","id":"5132dd6ca288f42e673537bd","properties":{"_id":"5132dd6ca288f42e673537bd","PROVIDER NPI":1790754539,"PROVIDER NAME":"Atluri, Kalpana","PROVIDER STATE":"Maryland","PROVIDER CITY":"Baltimore","PROVIDER  ADDRESS":"3001 S Hanover St, suite 412","PROVIDER ZIP 5 CD":21225,"PROVIDER ZIP 4 CD":1233,"PROVIDER PHONE NUM":4103508222,"PROVIDER PHONE EXT":"","PROGRAM YEAR":2011},"geometry":{"type":"Point","coordinates":[-76.643421,39.214422]}},{"type":"Feature","id":"5132dd6ca288f42e673537be","properties":{"_id":"5132dd6ca288f42e673537be","PROVIDER NPI":1639108145,"PROVIDER NAME":"Ayala, Tomas","PROVIDER STATE":"Maryland","PROVIDER CITY":"Glen Burnie","PROVIDER  ADDRESS":"1417 Madison Park Dr","PROVIDER ZIP 5 CD":21061,"PROVIDER ZIP 4 CD":5613,"PROVIDER PHONE NUM":4107686600,"PROVIDER PHONE EXT":"","PROGRAM YEAR":2011},"geometry":{"type":"Point","coordinates":[-76.631521,39.149573]}},{"type":"Feature","id":"5132dd6ca288f42e673537bf","properties":{"_id":"5132dd6ca288f42e673537bf","PROVIDER NPI":1285603498,"PROVIDER NAME":"Ayash, Raja","PROVIDER STATE":"Maryland","PROVIDER CITY":"Baltimore","PROVIDER  ADDRESS":"3333 N. Calvert St, Suite 650","PROVIDER ZIP 5 CD":21218,"PROVIDER ZIP 4 CD":6514,"PROVIDER PHONE NUM":4104674470,"PROVIDER PHONE EXT":"","PROGRAM YEAR":2011},"geometry":{"type":"Point","coordinates":[-76.613518,39.329554]}},{"type":"Feature","id":"5132dd6ca288f42e673537c0","properties":{"_id":"5132dd6ca288f42e673537c0","PROVIDER NPI":1326299744,"PROVIDER NAME":"Ayoub, Joanna","PROVIDER STATE":"Maryland","PROVIDER CITY":"Kensington","PROVIDER  ADDRESS":"10901 Connecticut Ave, Suite 300","PROVIDER ZIP 5 CD":20895,"PROVIDER ZIP 4 CD":1645,"PROVIDER PHONE NUM":3019337133,"PROVIDER PHONE EXT":"","PROGRAM YEAR":2011},"geometry":{"type":"Point","coordinates":[-77.075042,39.03479]}},{"type":"Feature","id":"5132dd6ca288f42e673537c1","properties":{"_id":"5132dd6ca288f42e673537c1","PROVIDER NPI":1609834654,"PROVIDER NAME":"Bahn, Charles","PROVIDER STATE":"Maryland","PROVIDER CITY":"Bethesda","PROVIDER  ADDRESS":"4848 Battery Ln, Suite 102","PROVIDER ZIP 5 CD":20814,"PROVIDER ZIP 4 CD":2709,"PROVIDER PHONE NUM":3016573022,"PROVIDER PHONE EXT":"","PROGRAM YEAR":2011},"geometry":{"type":"Point","coordinates":[-77.096828,38.99258]}},{"type":"Feature","id":"5132dd6ca288f42e673537c2","properties":{"_id":"5132dd6ca288f42e673537c2","PROVIDER NPI":1730349101,"PROVIDER NAME":"Baig, Kamakshi","PROVIDER STATE":"Maryland","PROVIDER CITY":"LA Plata","PROVIDER  ADDRESS":"6620 Crain Hwy, Ste 102","PROVIDER ZIP 5 CD":20646,"PROVIDER ZIP 4 CD":5204,"PROVIDER PHONE NUM":3013929505,"PROVIDER PHONE EXT":"","PROGRAM YEAR":2011},"geometry":{"type":"Point","coordinates":[-76.991601,38.479028]}},{"type":"Feature","id":"5132dd6ca288f42e673537c3","properties":{"_id":"5132dd6ca288f42e673537c3","PROVIDER NPI":1497754550,"PROVIDER NAME":"Baig, Khadar","PROVIDER STATE":"Maryland","PROVIDER CITY":"Waldorf","PROVIDER  ADDRESS":"12070 Old Line Ctr, Ste 200","PROVIDER ZIP 5 CD":20602,"PROVIDER ZIP 4 CD":2503,"PROVIDER PHONE NUM":3016458035,"PROVIDER PHONE EXT":"","PROGRAM YEAR":2011},"geometry":{"type":"Point","coordinates":[-76.888915,38.61671]}},{"type":"Feature","id":"5132dd6ca288f42e673537c4","properties":{"_id":"5132dd6ca288f42e673537c4","PROVIDER NPI":1346246782,"PROVIDER NAME":"BAKKER, KONRAD","PROVIDER STATE":"Maryland","PROVIDER CITY":"Frederick","PROVIDER  ADDRESS":"172 Thomas Johnson Dr, Ste 100","PROVIDER ZIP 5 CD":21702,"PROVIDER ZIP 4 CD":4405,"PROVIDER PHONE NUM":3016940900,"PROVIDER PHONE EXT":223,"PROGRAM YEAR":2011},"geometry":{"type":"Point","coordinates":[-77.445838,39.426196]}},{"type":"Feature","id":"5132dd6ca288f42e673537c5","properties":{"_id":"5132dd6ca288f42e673537c5","PROVIDER NPI":1740396092,"PROVIDER NAME":"BAKSH, HUSNA","PROVIDER STATE":"Maryland","PROVIDER CITY":"Silver Spring","PROVIDER  ADDRESS":"10801 Lockwood Dr Ste 170","PROVIDER ZIP 5 CD":20901,"PROVIDER ZIP 4 CD":1559,"PROVIDER PHONE NUM":3015936072,"PROVIDER PHONE EXT":"","PROGRAM YEAR":2011},"geometry":{"type":"Point","coordinates":[-77.003135,39.032893]}},{"type":"Feature","id":"5132dd6ca288f42e673537c6","properties":{"_id":"5132dd6ca288f42e673537c6","PROVIDER NPI":1952366056,"PROVIDER NAME":"Balasubramanian, Sriram","PROVIDER STATE":"Maryland","PROVIDER CITY":"Bel Air","PROVIDER  ADDRESS":"2021B Emmorton Road, Suite 210","PROVIDER ZIP 5 CD":21015,"PROVIDER ZIP 4 CD":"","PROVIDER PHONE NUM":4105691001,"PROVIDER PHONE EXT":"","PROGRAM YEAR":2011},"geometry":{"type":"Point","coordinates":[-76.325517,39.499664]}},{"type":"Feature","id":"5132dd6ca288f42e673537c7","properties":{"_id":"5132dd6ca288f42e673537c7","PROVIDER NPI":1417168675,"PROVIDER NAME":"BANGORIA, KAMAL","PROVIDER STATE":"Maryland","PROVIDER CITY":"Parkville","PROVIDER  ADDRESS":"2314 E Joppa Rd, Suite 1","PROVIDER ZIP 5 CD":21234,"PROVIDER ZIP 4 CD":2846,"PROVIDER PHONE NUM":4106658692,"PROVIDER PHONE EXT":"","PROGRAM YEAR":2011},"geometry":{"type":"Point","coordinates":[-76.557048,39.377628]}},{"type":"Feature","id":"5132dd6ca288f42e673537c8","properties":{"_id":"5132dd6ca288f42e673537c8","PROVIDER NPI":1003916164,"PROVIDER NAME":"BARBER, MITCHELL","PROVIDER STATE":"Maryland","PROVIDER CITY":"Laurel","PROVIDER  ADDRESS":"7350 Van Dusen Rd, SUITE 310","PROVIDER ZIP 5 CD":20707,"PROVIDER ZIP 4 CD":5264,"PROVIDER PHONE NUM":3014902216,"PROVIDER PHONE EXT":"","PROGRAM YEAR":2011},"geometry":{"type":"Point","coordinates":[-76.882709,39.084294]}},{"type":"Feature","id":"5132dd6ca288f42e673537c9","properties":{"_id":"5132dd6ca288f42e673537c9","PROVIDER NPI":1326045220,"PROVIDER NAME":"Barbour, Deborah","PROVIDER STATE":"Maryland","PROVIDER CITY":"Chevy Chase","PROVIDER  ADDRESS":"5454 Wisconsin Ave, Suite 925","PROVIDER ZIP 5 CD":20815,"PROVIDER ZIP 4 CD":6901,"PROVIDER PHONE NUM":3016571682,"PROVIDER PHONE EXT":"","PROGRAM YEAR":2011},"geometry":{"type":"Point","coordinates":[-77.086534,38.961902]}},{"type":"Feature","id":"5132dd6ca288f42e673537ca","properties":{"_id":"5132dd6ca288f42e673537ca","PROVIDER NPI":1629033212,"PROVIDER NAME":"Barr, Linda","PROVIDER STATE":"Maryland","PROVIDER CITY":"Towson","PROVIDER  ADDRESS":"7505 Osler Drive, Suite 409","PROVIDER ZIP 5 CD":21204,"PROVIDER ZIP 4 CD":"","PROVIDER PHONE NUM":4103215651,"PROVIDER PHONE EXT":"","PROGRAM YEAR":2011},"geometry":{"type":"Point","coordinates":[-76.613742,39.391856]}},{"type":"Feature","id":"5132dd6ca288f42e673537cb","properties":{"_id":"5132dd6ca288f42e673537cb","PROVIDER NPI":1871622936,"PROVIDER NAME":"Barter, James","PROVIDER STATE":"Maryland","PROVIDER CITY":"Rockville","PROVIDER  ADDRESS":"6301 Executive Blvd","PROVIDER ZIP 5 CD":20852,"PROVIDER ZIP 4 CD":3905,"PROVIDER PHONE NUM":3017704967,"PROVIDER PHONE EXT":"","PROGRAM YEAR":2011},"geometry":{"type":"Point","coordinates":[-77.123433,39.048736]}},{"type":"Feature","id":"5132dd6ca288f42e673537cc","properties":{"_id":"5132dd6ca288f42e673537cc","PROVIDER NPI":1932181450,"PROVIDER NAME":"Bartkovich, John","PROVIDER STATE":"Maryland","PROVIDER CITY":"Salisbury","PROVIDER  ADDRESS":"145 East Carroll Street","PROVIDER ZIP 5 CD":21801,"PROVIDER ZIP 4 CD":5454,"PROVIDER PHONE NUM":4105482600,"PROVIDER PHONE EXT":"","PROGRAM YEAR":2011},"geometry":{"type":"Point","coordinates":[-75.597748,38.363138]}},{"type":"Feature","id":"5132dd6ca288f42e673537cd","properties":{"_id":"5132dd6ca288f42e673537cd","PROVIDER NPI":1134190069,"PROVIDER NAME":"Beach, Denise","PROVIDER STATE":"Maryland","PROVIDER CITY":"Baltimore","PROVIDER  ADDRESS":"2200 Garrison Blvd, Suite 203","PROVIDER ZIP 5 CD":21216,"PROVIDER ZIP 4 CD":2619,"PROVIDER PHONE NUM":4109455400,"PROVIDER PHONE EXT":"","PROGRAM YEAR":2011},"geometry":{"type":"Point","coordinates":[-76.67605,39.313047]}},{"type":"Feature","id":"5132dd6ca288f42e673537ce","properties":{"_id":"5132dd6ca288f42e673537ce","PROVIDER NPI":1912938481,"PROVIDER NAME":"Beck, Holly","PROVIDER STATE":"Maryland","PROVIDER CITY":"Beltsville","PROVIDER  ADDRESS":"10720 Baltimore Ave","PROVIDER ZIP 5 CD":20705,"PROVIDER ZIP 4 CD":2138,"PROVIDER PHONE NUM":3019375666,"PROVIDER PHONE EXT":"","PROGRAM YEAR":2011},"geometry":{"type":"Point","coordinates":[-76.913793,39.030662]}},{"type":"Feature","id":"5132dd6ca288f42e673537cf","properties":{"_id":"5132dd6ca288f42e673537cf","PROVIDER NPI":1629007075,"PROVIDER NAME":"Becker, Kerry","PROVIDER STATE":"Maryland","PROVIDER CITY":"Kensington","PROVIDER  ADDRESS":"10901 Connecticut Avenue","PROVIDER ZIP 5 CD":20895,"PROVIDER ZIP 4 CD":1645,"PROVIDER PHONE NUM":3019337133,"PROVIDER PHONE EXT":"","PROGRAM YEAR":2011},"geometry":{"type":"Point","coordinates":[-77.075042,39.03479]}},{"type":"Feature","id":"5132dd6ca288f42e673537d0","properties":{"_id":"5132dd6ca288f42e673537d0","PROVIDER NPI":1902992845,"PROVIDER NAME":"BEHARI, AJAY","PROVIDER STATE":"Maryland","PROVIDER CITY":"Baltimore","PROVIDER  ADDRESS":"9103 Franklin Square Dr, 300","PROVIDER ZIP 5 CD":21237,"PROVIDER ZIP 4 CD":3900,"PROVIDER PHONE NUM":4106285282,"PROVIDER PHONE EXT":"","PROGRAM YEAR":2011},"geometry":{"type":"Point","coordinates":[-76.478682,39.350354]}},{"type":"Feature","id":"5132dd6ca288f42e673537d1","properties":{"_id":"5132dd6ca288f42e673537d1","PROVIDER NPI":1104893395,"PROVIDER NAME":"bellantoni, marie","PROVIDER STATE":"Maryland","PROVIDER CITY":"Baltimore","PROVIDER  ADDRESS":"9101 Franklin Square Dr, Suite 214","PROVIDER ZIP 5 CD":21237,"PROVIDER ZIP 4 CD":3930,"PROVIDER PHONE NUM":4437772021,"PROVIDER PHONE EXT":"","PROGRAM YEAR":2011},"geometry":{"type":"Point","coordinates":[-76.478715,39.350421]}},{"type":"Feature","id":"5132dd6ca288f42e673537d2","properties":{"_id":"5132dd6ca288f42e673537d2","PROVIDER NPI":1184691586,"PROVIDER NAME":"BELLARY, SOMASHEKHAR","PROVIDER STATE":"Maryland","PROVIDER CITY":"Cumberland","PROVIDER  ADDRESS":"921 Seton Dr, Suite 2-H","PROVIDER ZIP 5 CD":21502,"PROVIDER ZIP 4 CD":1852,"PROVIDER PHONE NUM":3017249100,"PROVIDER PHONE EXT":"","PROGRAM YEAR":2011},"geometry":{"type":"Point","coordinates":[-78.798441,39.651523]}},{"type":"Feature","id":"5132dd6ca288f42e673537d3","properties":{"_id":"5132dd6ca288f42e673537d3","PROVIDER NPI":1356428171,"PROVIDER NAME":"BENDER, CHRYSSA","PROVIDER STATE":"Maryland","PROVIDER CITY":"Mount Airy","PROVIDER  ADDRESS":"1517 Ridgeside Dr","PROVIDER ZIP 5 CD":21771,"PROVIDER ZIP 4 CD":5285,"PROVIDER PHONE NUM":3018292221,"PROVIDER PHONE EXT":"","PROGRAM YEAR":2011},"geometry":{"type":"Point","coordinates":[-77.162065,39.363668]}},{"type":"Feature","id":"5132dd6ca288f42e673537d4","properties":{"_id":"5132dd6ca288f42e673537d4","PROVIDER NPI":1750386124,"PROVIDER NAME":"Benesh, Samuel","PROVIDER STATE":"Maryland","PROVIDER CITY":"Baltimore","PROVIDER  ADDRESS":"2700 Quarry Lake Drive, Suite 350","PROVIDER ZIP 5 CD":21209,"PROVIDER ZIP 4 CD":0,"PROVIDER PHONE NUM":4109989955,"PROVIDER PHONE EXT":"","PROGRAM YEAR":2011},"geometry":{"type":"Point","coordinates":[-76.649131,39.373231]}},{"type":"Feature","id":"5132dd6ca288f42e673537d5","properties":{"_id":"5132dd6ca288f42e673537d5","PROVIDER NPI":1427038520,"PROVIDER NAME":"Beningfield, Alec","PROVIDER STATE":"Maryland","PROVIDER CITY":"Glen Burnie","PROVIDER  ADDRESS":"203 Hospital Drive, Suite 200","PROVIDER ZIP 5 CD":21061,"PROVIDER ZIP 4 CD":6905,"PROVIDER PHONE NUM":4107608840,"PROVIDER PHONE EXT":"","PROGRAM YEAR":2011},"geometry":{"type":"Point","coordinates":[-76.632038,39.141925]}},{"type":"Feature","id":"5132dd6ca288f42e673537d6","properties":{"_id":"5132dd6ca288f42e673537d6","PROVIDER NPI":1558573477,"PROVIDER NAME":"Benjamin, Akil","PROVIDER STATE":"Maryland","PROVIDER CITY":"Westminster","PROVIDER  ADDRESS":"826 Washington Rd, #112","PROVIDER ZIP 5 CD":21157,"PROVIDER ZIP 4 CD":"","PROVIDER PHONE NUM":4436050500,"PROVIDER PHONE EXT":"","PROGRAM YEAR":2011},"geometry":{"type":"Point","coordinates":[-76.990675,39.551532]}},{"type":"Feature","id":"5132dd6ca288f42e673537d7","properties":{"_id":"5132dd6ca288f42e673537d7","PROVIDER NPI":1114956968,"PROVIDER NAME":"Bensinger, Irma","PROVIDER STATE":"Maryland","PROVIDER CITY":"Columbia","PROVIDER  ADDRESS":"5450 Knoll North Dr, Suite 250","PROVIDER ZIP 5 CD":21045,"PROVIDER ZIP 4 CD":2300,"PROVIDER PHONE NUM":4109646200,"PROVIDER PHONE EXT":"","PROGRAM YEAR":2011},"geometry":{"type":"Point","coordinates":[-76.841234,39.224474]}},{"type":"Feature","id":"5132dd6ca288f42e673537d8","properties":{"_id":"5132dd6ca288f42e673537d8","PROVIDER NPI":1366459877,"PROVIDER NAME":"Berard, Michael","PROVIDER STATE":"Maryland","PROVIDER CITY":"College Park","PROVIDER  ADDRESS":"7305 Baltimore Ave, #107","PROVIDER ZIP 5 CD":20740,"PROVIDER ZIP 4 CD":"","PROVIDER PHONE NUM":3018642100,"PROVIDER PHONE EXT":"","PROGRAM YEAR":2011},"geometry":{"type":"Point","coordinates":[-76.937756,38.979022]}},{"type":"Feature","id":"5132dd6ca288f42e673537d9","properties":{"_id":"5132dd6ca288f42e673537d9","PROVIDER NPI":1558324657,"PROVIDER NAME":"BERGER, BRUCE","PROVIDER STATE":"Maryland","PROVIDER CITY":"Owings Mills","PROVIDER  ADDRESS":"25 Crossroads Dr, Ste 306","PROVIDER ZIP 5 CD":21117,"PROVIDER ZIP 4 CD":"","PROVIDER PHONE NUM":4105811600,"PROVIDER PHONE EXT":"","PROGRAM YEAR":2011},"geometry":{"type":"Point","coordinates":[-76.752774,39.397979]}},{"type":"Feature","id":"5132dd6ca288f42e673537da","properties":{"_id":"5132dd6ca288f42e673537da","PROVIDER NPI":1013913284,"PROVIDER NAME":"Berger, Ira","PROVIDER STATE":"Maryland","PROVIDER CITY":"Rockville","PROVIDER  ADDRESS":"1201 Seven Locks Rd, Ste 111","PROVIDER ZIP 5 CD":20854,"PROVIDER ZIP 4 CD":2957,"PROVIDER PHONE NUM":3017625020,"PROVIDER PHONE EXT":"","PROGRAM YEAR":2011},"geometry":{"type":"Point","coordinates":[-77.160838,39.063809]}},{"type":"Feature","id":"5132dd6ca288f42e673537db","properties":{"_id":"5132dd6ca288f42e673537db","PROVIDER NPI":1528261906,"PROVIDER NAME":"Bhatnagar, Richa","PROVIDER STATE":"Maryland","PROVIDER CITY":"Olney","PROVIDER  ADDRESS":"2901 Olney Sandy Spring Rd","PROVIDER ZIP 5 CD":20832,"PROVIDER ZIP 4 CD":1521,"PROVIDER PHONE NUM":3017746655,"PROVIDER PHONE EXT":"","PROGRAM YEAR":2011},"geometry":{"type":"Point","coordinates":[-77.057898,39.149771]}},{"type":"Feature","id":"5132dd6ca288f42e673537dc","properties":{"_id":"5132dd6ca288f42e673537dc","PROVIDER NPI":1477596039,"PROVIDER NAME":"BILLET, STEVEN","PROVIDER STATE":"Maryland","PROVIDER CITY":"Eldersburg","PROVIDER  ADDRESS":"6190 Georgetown Blvd, Suite 109","PROVIDER ZIP 5 CD":21784,"PROVIDER ZIP 4 CD":6460,"PROVIDER PHONE NUM":4107950929,"PROVIDER PHONE EXT":"","PROGRAM YEAR":2011},"geometry":{"type":"Point","coordinates":[-76.945012,39.40188]}},{"type":"Feature","id":"5132dd6ca288f42e673537dd","properties":{"_id":"5132dd6ca288f42e673537dd","PROVIDER NPI":1679501316,"PROVIDER NAME":"Birely, Brent","PROVIDER STATE":"Maryland","PROVIDER CITY":"Lutherville","PROVIDER  ADDRESS":"1300 York Rd, Building A, Suite 100","PROVIDER ZIP 5 CD":21093,"PROVIDER ZIP 4 CD":6016,"PROVIDER PHONE NUM":4108289570,"PROVIDER PHONE EXT":"","PROGRAM YEAR":2011},"geometry":{"type":"Point","coordinates":[-76.615006,39.417355]}},{"type":"Feature","id":"5132dd6ca288f42e673537de","properties":{"_id":"5132dd6ca288f42e673537de","PROVIDER NPI":1669420634,"PROVIDER NAME":"Birk, Peter","PROVIDER STATE":"Maryland","PROVIDER CITY":"Kensington","PROVIDER  ADDRESS":"10901 Connecticut Ave, # 302","PROVIDER ZIP 5 CD":20895,"PROVIDER ZIP 4 CD":1645,"PROVIDER PHONE NUM":3019426577,"PROVIDER PHONE EXT":"","PROGRAM YEAR":2011},"geometry":{"type":"Point","coordinates":[-77.075042,39.03479]}},{"type":"Feature","id":"5132dd6ca288f42e673537df","properties":{"_id":"5132dd6ca288f42e673537df","PROVIDER NPI":1992891899,"PROVIDER NAME":"Birnbaum, Jason","PROVIDER STATE":"Maryland","PROVIDER CITY":"Bel Air","PROVIDER  ADDRESS":"602 S Atwood Rd, Suite 206","PROVIDER ZIP 5 CD":21014,"PROVIDER ZIP 4 CD":4172,"PROVIDER PHONE NUM":4106387544,"PROVIDER PHONE EXT":"","PROGRAM YEAR":2011},"geometry":{"type":"Point","coordinates":[-76.347678,39.52624]}},{"type":"Feature","id":"5132dd6ca288f42e673537e0","properties":{"_id":"5132dd6ca288f42e673537e0","PROVIDER NPI":1437137924,"PROVIDER NAME":"Bishop, Alan","PROVIDER STATE":"Maryland","PROVIDER CITY":"Easton","PROVIDER  ADDRESS":"210 Marlboro Ave, Suite 31","PROVIDER ZIP 5 CD":21601,"PROVIDER ZIP 4 CD":2765,"PROVIDER PHONE NUM":4108223937,"PROVIDER PHONE EXT":"","PROGRAM YEAR":2011},"geometry":{"type":"Point","coordinates":[-76.079785,38.780269]}},{"type":"Feature","id":"5132dd6ca288f42e673537e1","properties":{"_id":"5132dd6ca288f42e673537e1","PROVIDER NPI":1033117221,"PROVIDER NAME":"Bissell, Robin","PROVIDER STATE":"Maryland","PROVIDER CITY":"Grantsville","PROVIDER  ADDRESS":"124 Miller St","PROVIDER ZIP 5 CD":21536,"PROVIDER ZIP 4 CD":"","PROVIDER PHONE NUM":3018454270,"PROVIDER PHONE EXT":"","PROGRAM YEAR":2011},"geometry":{"type":"Point","coordinates":[-79.152777,39.69723]}},{"type":"Feature","id":"5132dd6ca288f42e673537e2","properties":{"_id":"5132dd6ca288f42e673537e2","PROVIDER NPI":1902992985,"PROVIDER NAME":"Biswas, Kunda","PROVIDER STATE":"Maryland","PROVIDER CITY":"Bethesda","PROVIDER  ADDRESS":"10215 Fernwood Rd, Ste 303","PROVIDER ZIP 5 CD":20817,"PROVIDER ZIP 4 CD":"","PROVIDER PHONE NUM":3012702844,"PROVIDER PHONE EXT":"","PROGRAM YEAR":2011},"geometry":{"type":"Point","coordinates":[-77.12651,39.022632]}},{"type":"Feature","id":"5132dd6ca288f42e673537e3","properties":{"_id":"5132dd6ca288f42e673537e3","PROVIDER NPI":1760452171,"PROVIDER NAME":"Bittar, George","PROVIDER STATE":"Maryland","PROVIDER CITY":"Baltimore","PROVIDER  ADDRESS":"3333 N Calvert St, suite 370","PROVIDER ZIP 5 CD":21218,"PROVIDER ZIP 4 CD":"","PROVIDER PHONE NUM":4105548500,"PROVIDER PHONE EXT":"","PROGRAM YEAR":2011},"geometry":{"type":"Point","coordinates":[-76.613518,39.329554]}},{"type":"Feature","id":"5132dd6ca288f42e673537e4","properties":{"_id":"5132dd6ca288f42e673537e4","PROVIDER NPI":1932113602,"PROVIDER NAME":"Blaxberg, Neal","PROVIDER STATE":"Maryland","PROVIDER CITY":"Pikesville","PROVIDER  ADDRESS":"7 Church Ln, Suite 12","PROVIDER ZIP 5 CD":21208,"PROVIDER ZIP 4 CD":3710,"PROVIDER PHONE NUM":4104840666,"PROVIDER PHONE EXT":"","PROGRAM YEAR":2011},"geometry":{"type":"Point","coordinates":[-76.724583,39.374841]}},{"type":"Feature","id":"5132dd6ca288f42e673537e5","properties":{"_id":"5132dd6ca288f42e673537e5","PROVIDER NPI":1326004433,"PROVIDER NAME":"BLOCK, BRIAN","PROVIDER STATE":"Maryland","PROVIDER CITY":"Baltimore","PROVIDER  ADDRESS":"8322 Bellona Ave, Suite 330","PROVIDER ZIP 5 CD":21204,"PROVIDER ZIP 4 CD":2065,"PROVIDER PHONE NUM":4108258970,"PROVIDER PHONE EXT":"","PROGRAM YEAR":2011},"geometry":{"type":"Point","coordinates":[-76.606443,39.40358]}},{"type":"Feature","id":"5132dd6ca288f42e673537e6","properties":{"_id":"5132dd6ca288f42e673537e6","PROVIDER NPI":1447466289,"PROVIDER NAME":"Blum, Eric","PROVIDER STATE":"Maryland","PROVIDER CITY":"Pikesville","PROVIDER  ADDRESS":"1838 Greene Tree Rd, Ste 400","PROVIDER ZIP 5 CD":21208,"PROVIDER ZIP 4 CD":"","PROVIDER PHONE NUM":4106027782,"PROVIDER PHONE EXT":"","PROGRAM YEAR":2011},"geometry":{"type":"Point","coordinates":[-76.7359,39.38731]}},{"type":"Feature","id":"5132dd6ca288f42e673537e7","properties":{"_id":"5132dd6ca288f42e673537e7","PROVIDER NPI":1871562637,"PROVIDER NAME":"Blumenthal, Bruce","PROVIDER STATE":"Maryland","PROVIDER CITY":"Baltimore","PROVIDER  ADDRESS":"8800 Walther Blvd","PROVIDER ZIP 5 CD":21234,"PROVIDER ZIP 4 CD":9001,"PROVIDER PHONE NUM":4108823240,"PROVIDER PHONE EXT":"","PROGRAM YEAR":2011},"geometry":{"type":"Point","coordinates":[-76.506018,39.391484]}},{"type":"Feature","id":"5132dd6ca288f42e673537e8","properties":{"_id":"5132dd6ca288f42e673537e8","PROVIDER NPI":1851394027,"PROVIDER NAME":"Boender, Debra","PROVIDER STATE":"Maryland","PROVIDER CITY":"Catonsville","PROVIDER  ADDRESS":"405 Frederick Rd, Suite 154","PROVIDER ZIP 5 CD":21228,"PROVIDER ZIP 4 CD":4645,"PROVIDER PHONE NUM":4438303338,"PROVIDER PHONE EXT":"","PROGRAM YEAR":2011},"geometry":{"type":"Point","coordinates":[-76.709839,39.278358]}},{"type":"Feature","id":"5132dd6ca288f42e673537e9","properties":{"_id":"5132dd6ca288f42e673537e9","PROVIDER NPI":1598855124,"PROVIDER NAME":"BOHNER, BRIAN","PROVIDER STATE":"Maryland","PROVIDER CITY":"Towson","PROVIDER  ADDRESS":"6535 N Charles St, SUITE 550","PROVIDER ZIP 5 CD":21204,"PROVIDER ZIP 4 CD":5826,"PROVIDER PHONE NUM":4104941662,"PROVIDER PHONE EXT":"","PROGRAM YEAR":2011},"geometry":{"type":"Point","coordinates":[-76.62827,39.389927]}},{"type":"Feature","id":"5132dd6ca288f42e673537ea","properties":{"_id":"5132dd6ca288f42e673537ea","PROVIDER NPI":1073575015,"PROVIDER NAME":"BOLARUM, PRAVEEN","PROVIDER STATE":"Maryland","PROVIDER CITY":"Frederick","PROVIDER  ADDRESS":"196 Thomas Johnson Drive, Suite 135","PROVIDER ZIP 5 CD":21702,"PROVIDER ZIP 4 CD":4518,"PROVIDER PHONE NUM":3016946688,"PROVIDER PHONE EXT":"","PROGRAM YEAR":2011},"geometry":{"type":"Point","coordinates":[-77.445838,39.426196]}},{"type":"Feature","id":"5132dd6ca288f42e673537eb","properties":{"_id":"5132dd6ca288f42e673537eb","PROVIDER NPI":1619973534,"PROVIDER NAME":"Bonavente, Arnulfo","PROVIDER STATE":"Maryland","PROVIDER CITY":"Clinton","PROVIDER  ADDRESS":"10403 Hospital Drive, Suite G-4","PROVIDER ZIP 5 CD":20735,"PROVIDER ZIP 4 CD":3134,"PROVIDER PHONE NUM":3019528614,"PROVIDER PHONE EXT":"","PROGRAM YEAR":2011},"geometry":{"type":"Point","coordinates":[-76.877328,38.748956]}},{"type":"Feature","id":"5132dd6ca288f42e673537ec","properties":{"_id":"5132dd6ca288f42e673537ec","PROVIDER NPI":1750380887,"PROVIDER NAME":"Bowen-Wright, Hazel","PROVIDER STATE":"Maryland","PROVIDER CITY":"Annapolis","PROVIDER  ADDRESS":"108 Forbes St, Second Floor","PROVIDER ZIP 5 CD":21401,"PROVIDER ZIP 4 CD":1502,"PROVIDER PHONE NUM":4105717880,"PROVIDER PHONE EXT":"","PROGRAM YEAR":2011},"geometry":{"type":"Point","coordinates":[-76.581884,38.984883]}},{"type":"Feature","id":"5132dd6ca288f42e673537ed","properties":{"_id":"5132dd6ca288f42e673537ed","PROVIDER NPI":1134194939,"PROVIDER NAME":"Bowlin, Deneen","PROVIDER STATE":"Maryland","PROVIDER CITY":"Baltimore","PROVIDER  ADDRESS":"711 Maiden Choice Ln","PROVIDER ZIP 5 CD":21228,"PROVIDER ZIP 4 CD":3632,"PROVIDER PHONE NUM":4102475602,"PROVIDER PHONE EXT":"","PROGRAM YEAR":2011},"geometry":{"type":"Point","coordinates":[-76.72142,39.290434]}},{"type":"Feature","id":"5132dd6ca288f42e673537ee","properties":{"_id":"5132dd6ca288f42e673537ee","PROVIDER NPI":1588696967,"PROVIDER NAME":"Bowser, Lloyd","PROVIDER STATE":"Maryland","PROVIDER CITY":"Baltimore","PROVIDER  ADDRESS":"8800 Walther Blvd","PROVIDER ZIP 5 CD":21234,"PROVIDER ZIP 4 CD":9001,"PROVIDER PHONE NUM":4108823240,"PROVIDER PHONE EXT":"","PROGRAM YEAR":2011},"geometry":{"type":"Point","coordinates":[-76.506018,39.391484]}},{"type":"Feature","id":"5132dd6ca288f42e673537ef","properties":{"_id":"5132dd6ca288f42e673537ef","PROVIDER NPI":1699883140,"PROVIDER NAME":"Boyd, James","PROVIDER STATE":"Maryland","PROVIDER CITY":"Leonardtown","PROVIDER  ADDRESS":"41680 Miss Bessie Dr, Suite 301","PROVIDER ZIP 5 CD":20650,"PROVIDER ZIP 4 CD":2906,"PROVIDER PHONE NUM":3019970055,"PROVIDER PHONE EXT":"","PROGRAM YEAR":2011},"geometry":{"type":"Point","coordinates":[-76.636349,38.304356]}},{"type":"Feature","id":"5132dd6ca288f42e673537f0","properties":{"_id":"5132dd6ca288f42e673537f0","PROVIDER NPI":1649237066,"PROVIDER NAME":"BOYLE, KAREN","PROVIDER STATE":"Maryland","PROVIDER CITY":"Towson","PROVIDER  ADDRESS":"6535 N Charles St, Suite 625","PROVIDER ZIP 5 CD":21204,"PROVIDER ZIP 4 CD":5826,"PROVIDER PHONE NUM":4108255454,"PROVIDER PHONE EXT":"","PROGRAM YEAR":2011},"geometry":{"type":"Point","coordinates":[-76.62827,39.389927]}},{"type":"Feature","id":"5132dd6ca288f42e673537f1","properties":{"_id":"5132dd6ca288f42e673537f1","PROVIDER NPI":1962490714,"PROVIDER NAME":"Brant, Paul","PROVIDER STATE":"Maryland","PROVIDER CITY":"Cambridge","PROVIDER  ADDRESS":"401 Race St","PROVIDER ZIP 5 CD":21613,"PROVIDER ZIP 4 CD":1835,"PROVIDER PHONE NUM":4102280500,"PROVIDER PHONE EXT":"","PROGRAM YEAR":2011},"geometry":{"type":"Point","coordinates":[-76.07727,38.569956]}},{"type":"Feature","id":"5132dd6ca288f42e673537f2","properties":{"_id":"5132dd6ca288f42e673537f2","PROVIDER NPI":1306931027,"PROVIDER NAME":"BRAUER, JEFFREY","PROVIDER STATE":"Maryland","PROVIDER CITY":"Baltimore","PROVIDER  ADDRESS":"1838 Greene Tree Rd, 420","PROVIDER ZIP 5 CD":21208,"PROVIDER ZIP 4 CD":6391,"PROVIDER PHONE NUM":4104849595,"PROVIDER PHONE EXT":"","PROGRAM YEAR":2011},"geometry":{"type":"Point","coordinates":[-76.7359,39.38731]}},{"type":"Feature","id":"5132dd6ca288f42e673537f3","properties":{"_id":"5132dd6ca288f42e673537f3","PROVIDER NPI":1790732196,"PROVIDER NAME":"Breschi, Louis","PROVIDER STATE":"Maryland","PROVIDER CITY":"Baltimore","PROVIDER  ADDRESS":"6820 Hospital Dr, Suite 210","PROVIDER ZIP 5 CD":21237,"PROVIDER ZIP 4 CD":4352,"PROVIDER PHONE NUM":4103916131,"PROVIDER PHONE EXT":"","PROGRAM YEAR":2011},"geometry":{"type":"Point","coordinates":[-76.475596,39.347417]}},{"type":"Feature","id":"5132dd6ca288f42e673537f4","properties":{"_id":"5132dd6ca288f42e673537f4","PROVIDER NPI":1710138755,"PROVIDER NAME":"Breslow, Lisa","PROVIDER STATE":"Maryland","PROVIDER CITY":"Elkton","PROVIDER  ADDRESS":"111 W High St, Suite 314","PROVIDER ZIP 5 CD":21921,"PROVIDER ZIP 4 CD":5529,"PROVIDER PHONE NUM":4106200545,"PROVIDER PHONE EXT":"","PROGRAM YEAR":2011},"geometry":{"type":"Point","coordinates":[-75.831786,39.609202]}},{"type":"Feature","id":"5132dd6ca288f42e673537f5","properties":{"_id":"5132dd6ca288f42e673537f5","PROVIDER NPI":1215107693,"PROVIDER NAME":"Breslow, Steven","PROVIDER STATE":"Maryland","PROVIDER CITY":"Elkton","PROVIDER  ADDRESS":"111 W High Street, Suite 314","PROVIDER ZIP 5 CD":21921,"PROVIDER ZIP 4 CD":"","PROVIDER PHONE NUM":4103984679,"PROVIDER PHONE EXT":412,"PROGRAM YEAR":2011},"geometry":{"type":"Point","coordinates":[-75.831786,39.609202]}},{"type":"Feature","id":"5132dd6ca288f42e673537f6","properties":{"_id":"5132dd6ca288f42e673537f6","PROVIDER NPI":1134122138,"PROVIDER NAME":"Brieloff, Peter","PROVIDER STATE":"Maryland","PROVIDER CITY":"Cumberland","PROVIDER  ADDRESS":"805 E Oldtown Rd, SUITE B","PROVIDER ZIP 5 CD":21502,"PROVIDER ZIP 4 CD":4033,"PROVIDER PHONE NUM":3017226166,"PROVIDER PHONE EXT":103,"PROGRAM YEAR":2011},"geometry":{"type":"Point","coordinates":[-78.750211,39.637707]}},{"type":"Feature","id":"5132dd6ca288f42e673537f7","properties":{"_id":"5132dd6ca288f42e673537f7","PROVIDER NPI":1124086129,"PROVIDER NAME":"Briggs, Elizabeth","PROVIDER STATE":"Maryland","PROVIDER CITY":"Laurel","PROVIDER  ADDRESS":"14201 Laurel Park Dr, Suite 214","PROVIDER ZIP 5 CD":20707,"PROVIDER ZIP 4 CD":5203,"PROVIDER PHONE NUM":3019532080,"PROVIDER PHONE EXT":"","PROGRAM YEAR":2011},"geometry":{"type":"Point","coordinates":[-76.856959,39.104951]}},{"type":"Feature","id":"5132dd6ca288f42e673537f8","properties":{"_id":"5132dd6ca288f42e673537f8","PROVIDER NPI":1063491371,"PROVIDER NAME":"Briggs, Jeffrey","PROVIDER STATE":"Maryland","PROVIDER CITY":"Frederick","PROVIDER  ADDRESS":"5100 BUCKEYSTOWN PIKE, Suite 186","PROVIDER ZIP 5 CD":21704,"PROVIDER ZIP 4 CD":"","PROVIDER PHONE NUM":3016828888,"PROVIDER PHONE EXT":"","PROGRAM YEAR":2011},"geometry":{"type":"Point","coordinates":[-77.412095,39.370542]}},{"type":"Feature","id":"5132dd6ca288f42e673537f9","properties":{"_id":"5132dd6ca288f42e673537f9","PROVIDER NPI":1518286970,"PROVIDER NAME":"Brown, Justin","PROVIDER STATE":"Maryland","PROVIDER CITY":"Silver Spring","PROVIDER  ADDRESS":"12520 Prosperity Dr, Suite 150","PROVIDER ZIP 5 CD":20904,"PROVIDER ZIP 4 CD":1664,"PROVIDER PHONE NUM":3016226020,"PROVIDER PHONE EXT":"","PROGRAM YEAR":2011},"geometry":{"type":"Point","coordinates":[-76.959814,39.06032]}},{"type":"Feature","id":"5132dd6ca288f42e673537fa","properties":{"_id":"5132dd6ca288f42e673537fa","PROVIDER NPI":1154385912,"PROVIDER NAME":"Bryant, Tamiko","PROVIDER STATE":"Maryland","PROVIDER CITY":"Bowie","PROVIDER  ADDRESS":"17001 Science Dr, #118","PROVIDER ZIP 5 CD":20715,"PROVIDER ZIP 4 CD":4329,"PROVIDER PHONE NUM":2402453484,"PROVIDER PHONE EXT":"","PROGRAM YEAR":2011},"geometry":{"type":"Point","coordinates":[-76.713017,38.960893]}},{"type":"Feature","id":"5132dd6ca288f42e673537fb","properties":{"_id":"5132dd6ca288f42e673537fb","PROVIDER NPI":1144228149,"PROVIDER NAME":"Buchalter, Warren","PROVIDER STATE":"Maryland","PROVIDER CITY":"Glen Burnie","PROVIDER  ADDRESS":"203 Hospital Dr, Suite 200","PROVIDER ZIP 5 CD":21061,"PROVIDER ZIP 4 CD":6904,"PROVIDER PHONE NUM":4107608840,"PROVIDER PHONE EXT":203,"PROGRAM YEAR":2011},"geometry":{"type":"Point","coordinates":[-76.632038,39.141925]}},{"type":"Feature","id":"5132dd6ca288f42e673537fc","properties":{"_id":"5132dd6ca288f42e673537fc","PROVIDER NPI":1952369449,"PROVIDER NAME":"BUESCHER, PHILIP","PROVIDER STATE":"Maryland","PROVIDER CITY":"Baltimore","PROVIDER  ADDRESS":"3333 N. Calvert Street, Suite 650","PROVIDER ZIP 5 CD":21218,"PROVIDER ZIP 4 CD":6514,"PROVIDER PHONE NUM":4104674470,"PROVIDER PHONE EXT":"","PROGRAM YEAR":2011},"geometry":{"type":"Point","coordinates":[-76.613518,39.329554]}},{"type":"Feature","id":"5132dd6ca288f42e673537fd","properties":{"_id":"5132dd6ca288f42e673537fd","PROVIDER NPI":1700850039,"PROVIDER NAME":"Burger, Scott","PROVIDER STATE":"Maryland","PROVIDER CITY":"Towson","PROVIDER  ADDRESS":"1220A E Joppa Rd, Suite 109","PROVIDER ZIP 5 CD":21286,"PROVIDER ZIP 4 CD":5812,"PROVIDER PHONE NUM":4102960018,"PROVIDER PHONE EXT":"","PROGRAM YEAR":2011},"geometry":{"type":"Point","coordinates":[-76.579156,39.396872]}},{"type":"Feature","id":"5132dd6ca288f42e673537fe","properties":{"_id":"5132dd6ca288f42e673537fe","PROVIDER NPI":1619924008,"PROVIDER NAME":"Busky, Stephen","PROVIDER STATE":"Maryland","PROVIDER CITY":"Towson","PROVIDER  ADDRESS":"8322 Bellona Ave, Ste 202","PROVIDER ZIP 5 CD":21204,"PROVIDER ZIP 4 CD":"","PROVIDER PHONE NUM":4108256310,"PROVIDER PHONE EXT":"","PROGRAM YEAR":2011},"geometry":{"type":"Point","coordinates":[-76.632498,39.41349]}},{"type":"Feature","id":"5132dd6ca288f42e673537ff","properties":{"_id":"5132dd6ca288f42e673537ff","PROVIDER NPI":1356362594,"PROVIDER NAME":"CABACAR, JOSELITO","PROVIDER STATE":"Maryland","PROVIDER CITY":"Baltimore","PROVIDER  ADDRESS":"200 E 33rd St, SUITE 523","PROVIDER ZIP 5 CD":21218,"PROVIDER ZIP 4 CD":3322,"PROVIDER PHONE NUM":4102359382,"PROVIDER PHONE EXT":"","PROGRAM YEAR":2011},"geometry":{"type":"Point","coordinates":[-76.614918,39.328365]}},{"type":"Feature","id":"5132dd6ca288f42e67353800","properties":{"_id":"5132dd6ca288f42e67353800","PROVIDER NPI":1710071444,"PROVIDER NAME":"Calabria, Christopher","PROVIDER STATE":"Maryland","PROVIDER CITY":"Glen Burnie","PROVIDER  ADDRESS":"203 Hospital Drive, Suite 200","PROVIDER ZIP 5 CD":21061,"PROVIDER ZIP 4 CD":6904,"PROVIDER PHONE NUM":4107608840,"PROVIDER PHONE EXT":203,"PROGRAM YEAR":2011},"geometry":{"type":"Point","coordinates":[-76.632038,39.141925]}},{"type":"Feature","id":"5132dd6ca288f42e67353801","properties":{"_id":"5132dd6ca288f42e67353801","PROVIDER NPI":1497755425,"PROVIDER NAME":"Campbell, Phyllis","PROVIDER STATE":"Maryland","PROVIDER CITY":"Columbia","PROVIDER  ADDRESS":"10710 Charter Dr, Suite 200","PROVIDER ZIP 5 CD":21044,"PROVIDER ZIP 4 CD":3128,"PROVIDER PHONE NUM":4109970580,"PROVIDER PHONE EXT":"","PROGRAM YEAR":2011},"geometry":{"type":"Point","coordinates":[-76.882869,39.211192]}},{"type":"Feature","id":"5132dd6ca288f42e67353802","properties":{"_id":"5132dd6ca288f42e67353802","PROVIDER NPI":1700874179,"PROVIDER NAME":"CANAKIS, JERROLD","PROVIDER STATE":"Maryland","PROVIDER CITY":"Berlin","PROVIDER  ADDRESS":"10344 Old Ocean City Blvd, SUITE 1","PROVIDER ZIP 5 CD":21811,"PROVIDER ZIP 4 CD":"","PROVIDER PHONE NUM":4106412938,"PROVIDER PHONE EXT":"","PROGRAM YEAR":2011},"geometry":{"type":"Point","coordinates":[-75.235839,38.349924]}},{"type":"Feature","id":"5132dd6ca288f42e67353803","properties":{"_id":"5132dd6ca288f42e67353803","PROVIDER NPI":1780683813,"PROVIDER NAME":"Cantero-Lakhanpal, Joan","PROVIDER STATE":"Maryland","PROVIDER CITY":"Annapolis","PROVIDER  ADDRESS":"108 Forbes St, Second Floor","PROVIDER ZIP 5 CD":21401,"PROVIDER ZIP 4 CD":1502,"PROVIDER PHONE NUM":"","PROVIDER PHONE EXT":"","PROGRAM YEAR":2011},"geometry":{"type":"Point","coordinates":[-76.581884,38.984883]}},{"type":"Feature","id":"5132dd6ca288f42e67353804","properties":{"_id":"5132dd6ca288f42e67353804","PROVIDER NPI":1760473110,"PROVIDER NAME":"CARLOS, MICHAEL","PROVIDER STATE":"Maryland","PROVIDER CITY":"Laurel","PROVIDER  ADDRESS":"7350 Van Dusen Rd, B 40","PROVIDER ZIP 5 CD":20707,"PROVIDER ZIP 4 CD":5263,"PROVIDER PHONE NUM":2404564772,"PROVIDER PHONE EXT":"","PROGRAM YEAR":2011},"geometry":{"type":"Point","coordinates":[-76.844887,39.104583]}},{"type":"Feature","id":"5132dd6ca288f42e67353805","properties":{"_id":"5132dd6ca288f42e67353805","PROVIDER NPI":1407800154,"PROVIDER NAME":"Carmody, Francis","PROVIDER STATE":"Maryland","PROVIDER CITY":"Towson","PROVIDER  ADDRESS":"7505 Osler Drive, Suite 212","PROVIDER ZIP 5 CD":21204,"PROVIDER ZIP 4 CD":"","PROVIDER PHONE NUM":4102961406,"PROVIDER PHONE EXT":"","PROGRAM YEAR":2011},"geometry":{"type":"Point","coordinates":[-76.613742,39.391856]}},{"type":"Feature","id":"5132dd6ca288f42e67353806","properties":{"_id":"5132dd6ca288f42e67353806","PROVIDER NPI":1073588596,"PROVIDER NAME":"Carpenter, Myla","PROVIDER STATE":"Maryland","PROVIDER CITY":"Baltimore","PROVIDER  ADDRESS":"711 Maiden Choice Ln","PROVIDER ZIP 5 CD":21228,"PROVIDER ZIP 4 CD":3632,"PROVIDER PHONE NUM":4102475602,"PROVIDER PHONE EXT":"","PROGRAM YEAR":2011},"geometry":{"type":"Point","coordinates":[-76.72142,39.290434]}},{"type":"Feature","id":"5132dd6ca288f42e67353807","properties":{"_id":"5132dd6ca288f42e67353807","PROVIDER NPI":1902917628,"PROVIDER NAME":"Carroll, Dawne","PROVIDER STATE":"Maryland","PROVIDER CITY":"Bowie","PROVIDER  ADDRESS":"14300 Gallant Fox Ln, Ste 118","PROVIDER ZIP 5 CD":20715,"PROVIDER ZIP 4 CD":"","PROVIDER PHONE NUM":3018054348,"PROVIDER PHONE EXT":"","PROGRAM YEAR":2011},"geometry":{"type":"Point","coordinates":[-76.757986,38.972412]}},{"type":"Feature","id":"5132dd6ca288f42e67353808","properties":{"_id":"5132dd6ca288f42e67353808","PROVIDER NPI":1447417332,"PROVIDER NAME":"Carter, Chanelle","PROVIDER STATE":"Maryland","PROVIDER CITY":"Baltimore","PROVIDER  ADDRESS":"6506 Reisterstown Rd","PROVIDER ZIP 5 CD":21215,"PROVIDER ZIP 4 CD":2304,"PROVIDER PHONE NUM":4107647044,"PROVIDER PHONE EXT":"","PROGRAM YEAR":2011},"geometry":{"type":"Point","coordinates":[-76.702576,39.356241]}},{"type":"Feature","id":"5132dd6ca288f42e67353809","properties":{"_id":"5132dd6ca288f42e67353809","PROVIDER NPI":1588642326,"PROVIDER NAME":"CASAS, LUIS","PROVIDER STATE":"Maryland","PROVIDER CITY":"LAUREL","PROVIDER  ADDRESS":"14201 LAUREL PARK DRIVE, SUITE 103","PROVIDER ZIP 5 CD":20707,"PROVIDER ZIP 4 CD":5203,"PROVIDER PHONE NUM":3017760070,"PROVIDER PHONE EXT":"","PROGRAM YEAR":2011},"geometry":{"type":"Point","coordinates":[-76.856959,39.104951]}},{"type":"Feature","id":"5132dd6ca288f42e6735380a","properties":{"_id":"5132dd6ca288f42e6735380a","PROVIDER NPI":1063412385,"PROVIDER NAME":"Castaneda, Edwin","PROVIDER STATE":"Maryland","PROVIDER CITY":"Berlin","PROVIDER  ADDRESS":"10324 Old Ocean City Blvd","PROVIDER ZIP 5 CD":21811,"PROVIDER ZIP 4 CD":1132,"PROVIDER PHONE NUM":4106290041,"PROVIDER PHONE EXT":"","PROGRAM YEAR":2011},"geometry":{"type":"Point","coordinates":[-75.206627,38.337663]}},{"type":"Feature","id":"5132dd6ca288f42e6735380b","properties":{"_id":"5132dd6ca288f42e6735380b","PROVIDER NPI":1164456877,"PROVIDER NAME":"Catalano, Bonnie","PROVIDER STATE":"Maryland","PROVIDER CITY":"Columbia","PROVIDER  ADDRESS":"5450 Knoll North Drive, Suite 250","PROVIDER ZIP 5 CD":21045,"PROVIDER ZIP 4 CD":2300,"PROVIDER PHONE NUM":4109646200,"PROVIDER PHONE EXT":"","PROGRAM YEAR":2011},"geometry":{"type":"Point","coordinates":[-76.841234,39.224474]}},{"type":"Feature","id":"5132dd6ca288f42e6735380c","properties":{"_id":"5132dd6ca288f42e6735380c","PROVIDER NPI":1336202407,"PROVIDER NAME":"Catipon, Ericson","PROVIDER STATE":"Maryland","PROVIDER CITY":"Oxen Hill","PROVIDER  ADDRESS":"6196 Oxon Hill Road","PROVIDER ZIP 5 CD":20745,"PROVIDER ZIP 4 CD":"","PROVIDER PHONE NUM":3015672900,"PROVIDER PHONE EXT":"","PROGRAM YEAR":2011},"geometry":{"type":"Point","coordinates":[-76.984196,38.803903]}},{"type":"Feature","id":"5132dd6ca288f42e6735380d","properties":{"_id":"5132dd6ca288f42e6735380d","PROVIDER NPI":1104803253,"PROVIDER NAME":"Ceruzzi, Diane","PROVIDER STATE":"Maryland","PROVIDER CITY":"Pocomoke","PROVIDER  ADDRESS":"500 Market Street, Suite 101","PROVIDER ZIP 5 CD":21851,"PROVIDER ZIP 4 CD":1170,"PROVIDER PHONE NUM":4109576622,"PROVIDER PHONE EXT":"","PROGRAM YEAR":2011},"geometry":{"type":"Point","coordinates":[-75.550924,38.06046]}},{"type":"Feature","id":"5132dd6ca288f42e6735380e","properties":{"_id":"5132dd6ca288f42e6735380e","PROVIDER NPI":1285683755,"PROVIDER NAME":"CHAMPION, HUNTER","PROVIDER STATE":"Maryland","PROVIDER CITY":"Baltimore","PROVIDER  ADDRESS":"600 N Wolfe St","PROVIDER ZIP 5 CD":21287,"PROVIDER ZIP 4 CD":5,"PROVIDER PHONE NUM":4109553116,"PROVIDER PHONE EXT":"","PROGRAM YEAR":2011},"geometry":{"type":"Point","coordinates":[-76.590725,39.294683]}},{"type":"Feature","id":"5132dd6ca288f42e6735380f","properties":{"_id":"5132dd6ca288f42e6735380f","PROVIDER NPI":1952338592,"PROVIDER NAME":"CHAN, CLARA","PROVIDER STATE":"Maryland","PROVIDER CITY":"Silver Spring","PROVIDER  ADDRESS":"9801 Georgia Ave, Suite 337","PROVIDER ZIP 5 CD":20902,"PROVIDER ZIP 4 CD":5276,"PROVIDER PHONE NUM":3016814600,"PROVIDER PHONE EXT":"","PROGRAM YEAR":2011},"geometry":{"type":"Point","coordinates":[-77.04251,39.015687]}},{"type":"Feature","id":"5132dd6ca288f42e67353810","properties":{"_id":"5132dd6ca288f42e67353810","PROVIDER NPI":1770586109,"PROVIDER NAME":"Chanduvi, Beatriz","PROVIDER STATE":"Maryland","PROVIDER CITY":"Rockville","PROVIDER  ADDRESS":"6001 Montrose Rd, Ste 211","PROVIDER ZIP 5 CD":20852,"PROVIDER ZIP 4 CD":4872,"PROVIDER PHONE NUM":3014681451,"PROVIDER PHONE EXT":114,"PROGRAM YEAR":2011},"geometry":{"type":"Point","coordinates":[-77.120736,39.051323]}},{"type":"Feature","id":"5132dd6ca288f42e67353811","properties":{"_id":"5132dd6ca288f42e67353811","PROVIDER NPI":1760484398,"PROVIDER NAME":"CHANG, ERIC","PROVIDER STATE":"Maryland","PROVIDER CITY":"Columbia","PROVIDER  ADDRESS":"8860 Columbia 100 Pkwy, Suite 206","PROVIDER ZIP 5 CD":21045,"PROVIDER ZIP 4 CD":2383,"PROVIDER PHONE NUM":4107409330,"PROVIDER PHONE EXT":"","PROGRAM YEAR":2011},"geometry":{"type":"Point","coordinates":[-76.816113,39.234049]}},{"type":"Feature","id":"5132dd6ca288f42e67353812","properties":{"_id":"5132dd6ca288f42e67353812","PROVIDER NPI":1447239561,"PROVIDER NAME":"Chatrathi, Sridhar","PROVIDER STATE":"Maryland","PROVIDER CITY":"Greenbelt","PROVIDER  ADDRESS":"7500 Hanover Pkwy, Suite 104","PROVIDER ZIP 5 CD":20770,"PROVIDER ZIP 4 CD":2010,"PROVIDER PHONE NUM":3012202220,"PROVIDER PHONE EXT":"","PROGRAM YEAR":2011},"geometry":{"type":"Point","coordinates":[-76.875318,38.992726]}},{"type":"Feature","id":"5132dd6ca288f42e67353813","properties":{"_id":"5132dd6ca288f42e67353813","PROVIDER NPI":1437125515,"PROVIDER NAME":"cheng, peter","PROVIDER STATE":"Maryland","PROVIDER CITY":"Columbia","PROVIDER  ADDRESS":"5450 Knoll North Dr, suite 260","PROVIDER ZIP 5 CD":21045,"PROVIDER ZIP 4 CD":2300,"PROVIDER PHONE NUM":4109645300,"PROVIDER PHONE EXT":"","PROGRAM YEAR":2011},"geometry":{"type":"Point","coordinates":[-76.841234,39.224474]}},{"type":"Feature","id":"5132dd6ca288f42e67353814","properties":{"_id":"5132dd6ca288f42e67353814","PROVIDER NPI":1326154212,"PROVIDER NAME":"Chi, Walter","PROVIDER STATE":"Maryland","PROVIDER CITY":"Elkridge","PROVIDER  ADDRESS":"8186 Lark Brown Rd, Ste 201","PROVIDER ZIP 5 CD":21075,"PROVIDER ZIP 4 CD":"","PROVIDER PHONE NUM":4107303399,"PROVIDER PHONE EXT":"","PROGRAM YEAR":2011},"geometry":{"type":"Point","coordinates":[-76.796552,39.18868]}},{"type":"Feature","id":"5132dd6ca288f42e67353815","properties":{"_id":"5132dd6ca288f42e67353815","PROVIDER NPI":1568460376,"PROVIDER NAME":"Chiancone, Giancarlo","PROVIDER STATE":"Maryland","PROVIDER CITY":"Clinton","PROVIDER  ADDRESS":"10403 Hospital Drive, Suite G-4","PROVIDER ZIP 5 CD":20735,"PROVIDER ZIP 4 CD":3134,"PROVIDER PHONE NUM":3013968071,"PROVIDER PHONE EXT":"","PROGRAM YEAR":2011},"geometry":{"type":"Point","coordinates":[-76.877328,38.748956]}},{"type":"Feature","id":"5132dd6ca288f42e67353816","properties":{"_id":"5132dd6ca288f42e67353816","PROVIDER NPI":1508817412,"PROVIDER NAME":"Chiaramonte, Robert","PROVIDER STATE":"Maryland","PROVIDER CITY":"Clinton","PROVIDER  ADDRESS":"7501 Surratts Rd, Suite 308","PROVIDER ZIP 5 CD":20735,"PROVIDER ZIP 4 CD":"","PROVIDER PHONE NUM":3018680202,"PROVIDER PHONE EXT":"","PROGRAM YEAR":2011},"geometry":{"type":"Point","coordinates":[-76.879468,38.75036]}},{"type":"Feature","id":"5132dd6ca288f42e67353817","properties":{"_id":"5132dd6ca288f42e67353817","PROVIDER NPI":1215039391,"PROVIDER NAME":"Chieu, Ton","PROVIDER STATE":"Maryland","PROVIDER CITY":"Takoma Park","PROVIDER  ADDRESS":"7505 New Hampshire Avenue, Suite 310","PROVIDER ZIP 5 CD":20912,"PROVIDER ZIP 4 CD":6972,"PROVIDER PHONE NUM":3014454100,"PROVIDER PHONE EXT":"","PROGRAM YEAR":2011},"geometry":{"type":"Point","coordinates":[-76.988142,38.985176]}},{"type":"Feature","id":"5132dd6ca288f42e67353818","properties":{"_id":"5132dd6ca288f42e67353818","PROVIDER NPI":1326057316,"PROVIDER NAME":"Chin, Un","PROVIDER STATE":"Maryland","PROVIDER CITY":"Salisbury","PROVIDER  ADDRESS":"6507 Deer Pointe Drive","PROVIDER ZIP 5 CD":21804,"PROVIDER ZIP 4 CD":"","PROVIDER PHONE NUM":4105439332,"PROVIDER PHONE EXT":"","PROGRAM YEAR":2011},"geometry":{"type":"Point","coordinates":[-75.594718,38.363755]}},{"type":"Feature","id":"5132dd6ca288f42e67353819","properties":{"_id":"5132dd6ca288f42e67353819","PROVIDER NPI":1801871678,"PROVIDER NAME":"Chodnicki, Dennis","PROVIDER STATE":"Maryland","PROVIDER CITY":"Salisbury","PROVIDER  ADDRESS":"400 Eastern Shore Dr","PROVIDER ZIP 5 CD":21804,"PROVIDER ZIP 4 CD":5565,"PROVIDER PHONE NUM":4107498906,"PROVIDER PHONE EXT":157,"PROGRAM YEAR":2011},"geometry":{"type":"Point","coordinates":[-75.595073,38.362023]}},{"type":"Feature","id":"5132dd6ca288f42e6735381a","properties":{"_id":"5132dd6ca288f42e6735381a","PROVIDER NPI":1942228382,"PROVIDER NAME":"Choi, Harry","PROVIDER STATE":"Maryland","PROVIDER CITY":"Baltimore","PROVIDER  ADDRESS":"821 N. Eutaw Street, Suite 401","PROVIDER ZIP 5 CD":21201,"PROVIDER ZIP 4 CD":"","PROVIDER PHONE NUM":4103833464,"PROVIDER PHONE EXT":"","PROGRAM YEAR":2011},"geometry":{"type":"Point","coordinates":[-76.620284,39.28126]}},{"type":"Feature","id":"5132dd6ca288f42e6735381b","properties":{"_id":"5132dd6ca288f42e6735381b","PROVIDER NPI":1578756730,"PROVIDER NAME":"Chong, Angeline","PROVIDER STATE":"Maryland","PROVIDER CITY":"Rockville","PROVIDER  ADDRESS":"6001 Montrose Rd, Suite 211","PROVIDER ZIP 5 CD":20852,"PROVIDER ZIP 4 CD":4817,"PROVIDER PHONE NUM":3014681451,"PROVIDER PHONE EXT":114,"PROGRAM YEAR":2011},"geometry":{"type":"Point","coordinates":[-77.120736,39.051323]}},{"type":"Feature","id":"5132dd6ca288f42e6735381c","properties":{"_id":"5132dd6ca288f42e6735381c","PROVIDER NPI":1801896550,"PROVIDER NAME":"CHOW, MO-PING","PROVIDER STATE":"Maryland","PROVIDER CITY":"Gaithersburg","PROVIDER  ADDRESS":"9001 Shady Grove Ct","PROVIDER ZIP 5 CD":20877,"PROVIDER ZIP 4 CD":1301,"PROVIDER PHONE NUM":3019481314,"PROVIDER PHONE EXT":"","PROGRAM YEAR":2011},"geometry":{"type":"Point","coordinates":[-77.184113,39.119617]}},{"type":"Feature","id":"5132dd6ca288f42e6735381d","properties":{"_id":"5132dd6ca288f42e6735381d","PROVIDER NPI":1447200902,"PROVIDER NAME":"Chow, Robert","PROVIDER STATE":"Maryland","PROVIDER CITY":"Baltimore","PROVIDER  ADDRESS":"5601 Loch Raven Boulevard, Suite 500","PROVIDER ZIP 5 CD":21239,"PROVIDER ZIP 4 CD":2905,"PROVIDER PHONE NUM":4434444818,"PROVIDER PHONE EXT":"","PROGRAM YEAR":2011},"geometry":{"type":"Point","coordinates":[-76.588851,39.358914]}},{"type":"Feature","id":"5132dd6ca288f42e6735381e","properties":{"_id":"5132dd6ca288f42e6735381e","PROVIDER NPI":1023095130,"PROVIDER NAME":"Chrouser, Kristin","PROVIDER STATE":"Maryland","PROVIDER CITY":"Glen Burnie","PROVIDER  ADDRESS":"806 Landmark Dr, Suite 118","PROVIDER ZIP 5 CD":21061,"PROVIDER ZIP 4 CD":4980,"PROVIDER PHONE NUM":4107609400,"PROVIDER PHONE EXT":"","PROGRAM YEAR":2011},"geometry":{"type":"Point","coordinates":[-76.642046,39.148559]}},{"type":"Feature","id":"5132dd6ca288f42e6735381f","properties":{"_id":"5132dd6ca288f42e6735381f","PROVIDER NPI":1639147317,"PROVIDER NAME":"Chudnovsky, Alexander","PROVIDER STATE":"Maryland","PROVIDER CITY":"Columbia","PROVIDER  ADDRESS":"10710 Charter Dr, Suite 400","PROVIDER ZIP 5 CD":21044,"PROVIDER ZIP 4 CD":2858,"PROVIDER PHONE NUM":4432769000,"PROVIDER PHONE EXT":"","PROGRAM YEAR":2011},"geometry":{"type":"Point","coordinates":[-76.882869,39.211192]}},{"type":"Feature","id":"5132dd6ca288f42e67353820","properties":{"_id":"5132dd6ca288f42e67353820","PROVIDER NPI":1366426371,"PROVIDER NAME":"Ciarkowski, Janet","PROVIDER STATE":"Maryland","PROVIDER CITY":"Frederick","PROVIDER  ADDRESS":"9093 Ridgefield Dr, Suite 104","PROVIDER ZIP 5 CD":21701,"PROVIDER ZIP 4 CD":6710,"PROVIDER PHONE NUM":3016824100,"PROVIDER PHONE EXT":"","PROGRAM YEAR":2011},"geometry":{"type":"Point","coordinates":[-77.34518,39.401088]}},{"type":"Feature","id":"5132dd6ca288f42e67353821","properties":{"_id":"5132dd6ca288f42e67353821","PROVIDER NPI":1386606085,"PROVIDER NAME":"Ciganek, Eric","PROVIDER STATE":"Maryland","PROVIDER CITY":"Centreville","PROVIDER  ADDRESS":"629 Railroad Ave","PROVIDER ZIP 5 CD":21617,"PROVIDER ZIP 4 CD":1144,"PROVIDER PHONE NUM":4107585435,"PROVIDER PHONE EXT":"","PROGRAM YEAR":2011},"geometry":{"type":"Point","coordinates":[-76.056612,39.038748]}},{"type":"Feature","id":"5132dd6ca288f42e67353822","properties":{"_id":"5132dd6ca288f42e67353822","PROVIDER NPI":1710960794,"PROVIDER NAME":"COHEN, D","PROVIDER STATE":"Maryland","PROVIDER CITY":"Chevy Chase","PROVIDER  ADDRESS":"5530 Wisconsin Ave, SUITE 930","PROVIDER ZIP 5 CD":20815,"PROVIDER ZIP 4 CD":4404,"PROVIDER PHONE NUM":3016567374,"PROVIDER PHONE EXT":"","PROGRAM YEAR":2011},"geometry":{"type":"Point","coordinates":[-77.087557,38.96452]}},{"type":"Feature","id":"5132dd6ca288f42e67353823","properties":{"_id":"5132dd6ca288f42e67353823","PROVIDER NPI":1104811553,"PROVIDER NAME":"COHEN, MINDI","PROVIDER STATE":"Maryland","PROVIDER CITY":"Rockville","PROVIDER  ADDRESS":"15825 Shady Grove Rd, SUITE 140","PROVIDER ZIP 5 CD":20850,"PROVIDER ZIP 4 CD":4008,"PROVIDER PHONE NUM":3018699776,"PROVIDER PHONE EXT":"","PROGRAM YEAR":2011},"geometry":{"type":"Point","coordinates":[-77.184679,39.116013]}},{"type":"Feature","id":"5132dd6ca288f42e67353824","properties":{"_id":"5132dd6ca288f42e67353824","PROVIDER NPI":1376549345,"PROVIDER NAME":"Cohen, Richard","PROVIDER STATE":"Maryland","PROVIDER CITY":"Greenbelt","PROVIDER  ADDRESS":"7525 Greenway Center Dr, Ste 112","PROVIDER ZIP 5 CD":20770,"PROVIDER ZIP 4 CD":3525,"PROVIDER PHONE NUM":3013454087,"PROVIDER PHONE EXT":"","PROGRAM YEAR":2011},"geometry":{"type":"Point","coordinates":[-76.87956,38.991546]}},{"type":"Feature","id":"5132dd6ca288f42e67353825","properties":{"_id":"5132dd6ca288f42e67353825","PROVIDER NPI":1548268485,"PROVIDER NAME":"Cohen, Ross","PROVIDER STATE":"Maryland","PROVIDER CITY":"Pasadena","PROVIDER  ADDRESS":"8023 Ritchie Hwy","PROVIDER ZIP 5 CD":21122,"PROVIDER ZIP 4 CD":7107,"PROVIDER PHONE NUM":4107614190,"PROVIDER PHONE EXT":"","PROGRAM YEAR":2011},"geometry":{"type":"Point","coordinates":[-76.592865,39.129881]}},{"type":"Feature","id":"5132dd6ca288f42e67353826","properties":{"_id":"5132dd6ca288f42e67353826","PROVIDER NPI":1447219282,"PROVIDER NAME":"COLEMAN, CHRISTOPHER","PROVIDER STATE":"Maryland","PROVIDER CITY":"Mount Airy","PROVIDER  ADDRESS":"1517 Ridgeside Dr","PROVIDER ZIP 5 CD":21771,"PROVIDER ZIP 4 CD":5280,"PROVIDER PHONE NUM":3018292221,"PROVIDER PHONE EXT":"","PROGRAM YEAR":2011},"geometry":{"type":"Point","coordinates":[-77.162065,39.363668]}},{"type":"Feature","id":"5132dd6ca288f42e67353827","properties":{"_id":"5132dd6ca288f42e67353827","PROVIDER NPI":1588726558,"PROVIDER NAME":"colevas, alexander","PROVIDER STATE":"Maryland","PROVIDER CITY":"rockville","PROVIDER  ADDRESS":"6130 Executive BLVD, epn 7131","PROVIDER ZIP 5 CD":20892,"PROVIDER ZIP 4 CD":"","PROVIDER PHONE NUM":3014961196,"PROVIDER PHONE EXT":"","PROGRAM YEAR":2011},"geometry":{"type":"Point","coordinates":[-77.125352,39.048628]}},{"type":"Feature","id":"5132dd6ca288f42e67353828","properties":{"_id":"5132dd6ca288f42e67353828","PROVIDER NPI":1780783621,"PROVIDER NAME":"Collins, Frank","PROVIDER STATE":"Maryland","PROVIDER CITY":"Hagerstown","PROVIDER  ADDRESS":"11110 Medical Campus Rd, Suite 242","PROVIDER ZIP 5 CD":21742,"PROVIDER ZIP 4 CD":6700,"PROVIDER PHONE NUM":3017974343,"PROVIDER PHONE EXT":"","PROGRAM YEAR":2011},"geometry":{"type":"Point","coordinates":[-77.679037,39.621513]}},{"type":"Feature","id":"5132dd6ca288f42e67353829","properties":{"_id":"5132dd6ca288f42e67353829","PROVIDER NPI":1437245362,"PROVIDER NAME":"Conaway, Jacques","PROVIDER STATE":"Maryland","PROVIDER CITY":"Baltimore","PROVIDER  ADDRESS":"9103 Franklin Square Dr, Suite 300","PROVIDER ZIP 5 CD":21237,"PROVIDER ZIP 4 CD":3939,"PROVIDER PHONE NUM":4106825282,"PROVIDER PHONE EXT":"","PROGRAM YEAR":2011},"geometry":{"type":"Point","coordinates":[-76.478682,39.350354]}},{"type":"Feature","id":"5132dd6ca288f42e6735382a","properties":{"_id":"5132dd6ca288f42e6735382a","PROVIDER NPI":1043356314,"PROVIDER NAME":"conway, james","PROVIDER STATE":"Maryland","PROVIDER CITY":"Baltimore","PROVIDER  ADDRESS":"5051 Greenspring Ave, Suite 101","PROVIDER ZIP 5 CD":21209,"PROVIDER ZIP 4 CD":4354,"PROVIDER PHONE NUM":4106643680,"PROVIDER PHONE EXT":"","PROGRAM YEAR":2011},"geometry":{"type":"Point","coordinates":[-76.659564,39.351301]}},{"type":"Feature","id":"5132dd6ca288f42e6735382b","properties":{"_id":"5132dd6ca288f42e6735382b","PROVIDER NPI":1275501447,"PROVIDER NAME":"Cool, Jeffrey","PROVIDER STATE":"Maryland","PROVIDER CITY":"Perry Hall","PROVIDER  ADDRESS":"5009 Honeygo Center Dr, Suite 216","PROVIDER ZIP 5 CD":21128,"PROVIDER ZIP 4 CD":9815,"PROVIDER PHONE NUM":4102565858,"PROVIDER PHONE EXT":"","PROGRAM YEAR":2011},"geometry":{"type":"Point","coordinates":[-76.46425,39.399957]}},{"type":"Feature","id":"5132dd6ca288f42e6735382c","properties":{"_id":"5132dd6ca288f42e6735382c","PROVIDER NPI":1750463964,"PROVIDER NAME":"Corriveau, Stephane","PROVIDER STATE":"Maryland","PROVIDER CITY":"Chevy Chase","PROVIDER  ADDRESS":"8401 Connecticut Ave, Suite 102","PROVIDER ZIP 5 CD":20815,"PROVIDER ZIP 4 CD":5803,"PROVIDER PHONE NUM":3019860010,"PROVIDER PHONE EXT":"","PROGRAM YEAR":2011},"geometry":{"type":"Point","coordinates":[-77.077278,38.99409]}},{"type":"Feature","id":"5132dd6ca288f42e6735382d","properties":{"_id":"5132dd6ca288f42e6735382d","PROVIDER NPI":1225033731,"PROVIDER NAME":"Cowen, Kelly","PROVIDER STATE":"Maryland","PROVIDER CITY":"Rockville","PROVIDER  ADDRESS":"1201 Seven Locks Rd, Ste 111","PROVIDER ZIP 5 CD":20854,"PROVIDER ZIP 4 CD":"","PROVIDER PHONE NUM":3017625020,"PROVIDER PHONE EXT":"","PROGRAM YEAR":2011},"geometry":{"type":"Point","coordinates":[-77.160838,39.063809]}},{"type":"Feature","id":"5132dd6ca288f42e6735382e","properties":{"_id":"5132dd6ca288f42e6735382e","PROVIDER NPI":1528053048,"PROVIDER NAME":"Craig-Buckholtz, Mary","PROVIDER STATE":"Maryland","PROVIDER CITY":"Jarrettsville","PROVIDER  ADDRESS":"3718 Norrisville Rd, Suite C","PROVIDER ZIP 5 CD":21084,"PROVIDER ZIP 4 CD":1419,"PROVIDER PHONE NUM":4106925292,"PROVIDER PHONE EXT":"","PROGRAM YEAR":2011},"geometry":{"type":"Point","coordinates":[-76.479453,39.604036]}},{"type":"Feature","id":"5132dd6ca288f42e6735382f","properties":{"_id":"5132dd6ca288f42e6735382f","PROVIDER NPI":1598752271,"PROVIDER NAME":"Crisanti, Joseph","PROVIDER STATE":"Maryland","PROVIDER CITY":"Ocean City","PROVIDER  ADDRESS":"12308 Ocean Gtwy, Suite 3","PROVIDER ZIP 5 CD":21842,"PROVIDER ZIP 4 CD":9341,"PROVIDER PHONE NUM":4102130119,"PROVIDER PHONE EXT":"","PROGRAM YEAR":2011},"geometry":{"type":"Point","coordinates":[-75.067184,38.435862]}},{"type":"Feature","id":"5132dd6ca288f42e67353830","properties":{"_id":"5132dd6ca288f42e67353830","PROVIDER NPI":1124024047,"PROVIDER NAME":"Cuna, Guillermo","PROVIDER STATE":"Maryland","PROVIDER CITY":"Clinton","PROVIDER  ADDRESS":"10403 Hospital Drive, Suite G-4","PROVIDER ZIP 5 CD":20735,"PROVIDER ZIP 4 CD":3134,"PROVIDER PHONE NUM":3012921590,"PROVIDER PHONE EXT":"","PROGRAM YEAR":2011},"geometry":{"type":"Point","coordinates":[-76.877328,38.748956]}},{"type":"Feature","id":"5132dd6ca288f42e67353831","properties":{"_id":"5132dd6ca288f42e67353831","PROVIDER NPI":1609894534,"PROVIDER NAME":"Cunningham, Kayla","PROVIDER STATE":"Maryland","PROVIDER CITY":"Laurel","PROVIDER  ADDRESS":"14201 Laurel Park Dr Ste 214","PROVIDER ZIP 5 CD":20707,"PROVIDER ZIP 4 CD":5203,"PROVIDER PHONE NUM":3019532080,"PROVIDER PHONE EXT":"","PROGRAM YEAR":2011},"geometry":{"type":"Point","coordinates":[-76.880001,39.085795]}},{"type":"Feature","id":"5132dd6ca288f42e67353832","properties":{"_id":"5132dd6ca288f42e67353832","PROVIDER NPI":1821065392,"PROVIDER NAME":"Dababneh, Nader","PROVIDER STATE":"Maryland","PROVIDER CITY":"Elkton","PROVIDER  ADDRESS":"215 North St, Suite A","PROVIDER ZIP 5 CD":21921,"PROVIDER ZIP 4 CD":5505,"PROVIDER PHONE NUM":4103988888,"PROVIDER PHONE EXT":"","PROGRAM YEAR":2011},"geometry":{"type":"Point","coordinates":[-76.073867,39.552746]}},{"type":"Feature","id":"5132dd6ca288f42e67353833","properties":{"_id":"5132dd6ca288f42e67353833","PROVIDER NPI":1962464552,"PROVIDER NAME":"Dahlman, Holly","PROVIDER STATE":"Maryland","PROVIDER CITY":"Lutherville","PROVIDER  ADDRESS":"2360 W Joppa Rd - Suite 210, Green Spring Internal Medicine, LLC - Suite 210","PROVIDER ZIP 5 CD":21093,"PROVIDER ZIP 4 CD":4624,"PROVIDER PHONE NUM":4105832890,"PROVIDER PHONE EXT":"","PROGRAM YEAR":2011},"geometry":{"type":"Point","coordinates":[-76.685577,39.389024]}},{"type":"Feature","id":"5132dd6ca288f42e67353834","properties":{"_id":"5132dd6ca288f42e67353834","PROVIDER NPI":1457332652,"PROVIDER NAME":"Dakak, Nader","PROVIDER STATE":"Maryland","PROVIDER CITY":"Glenn Dale","PROVIDER  ADDRESS":"12150 Annapolis Rd, Suite 105","PROVIDER ZIP 5 CD":20769,"PROVIDER ZIP 4 CD":"","PROVIDER PHONE NUM":3018051250,"PROVIDER PHONE EXT":"","PROGRAM YEAR":2011},"geometry":{"type":"Point","coordinates":[-76.795473,38.96224]}},{"type":"Feature","id":"5132dd6ca288f42e67353835","properties":{"_id":"5132dd6ca288f42e67353835","PROVIDER NPI":1619917838,"PROVIDER NAME":"DALY, SCOTT","PROVIDER STATE":"Maryland","PROVIDER CITY":"Rockville","PROVIDER  ADDRESS":"15001 Shady Grove Rd, SUITE 100","PROVIDER ZIP 5 CD":20850,"PROVIDER ZIP 4 CD":6352,"PROVIDER PHONE NUM":3013150003,"PROVIDER PHONE EXT":"","PROGRAM YEAR":2011},"geometry":{"type":"Point","coordinates":[-77.191486,39.101667]}},{"type":"Feature","id":"5132dd6ca288f42e67353836","properties":{"_id":"5132dd6ca288f42e67353836","PROVIDER NPI":1588640858,"PROVIDER NAME":"DANG, THUAN","PROVIDER STATE":"Maryland","PROVIDER CITY":"Berlin","PROVIDER  ADDRESS":"29 Broad Street, Suite 201","PROVIDER ZIP 5 CD":21811,"PROVIDER ZIP 4 CD":"","PROVIDER PHONE NUM":4106291463,"PROVIDER PHONE EXT":"","PROGRAM YEAR":2011},"geometry":{"type":"Point","coordinates":[-75.220299,38.325289]}},{"type":"Feature","id":"5132dd6ca288f42e67353837","properties":{"_id":"5132dd6ca288f42e67353837","PROVIDER NPI":1730185091,"PROVIDER NAME":"Daniels, Mikel","PROVIDER STATE":"Maryland","PROVIDER CITY":"Owings Mills","PROVIDER  ADDRESS":"20 Crossroads Dr, Ste 15","PROVIDER ZIP 5 CD":21117,"PROVIDER ZIP 4 CD":5479,"PROVIDER PHONE NUM":4103634343,"PROVIDER PHONE EXT":"","PROGRAM YEAR":2011},"geometry":{"type":"Point","coordinates":[-76.752774,39.397979]}},{"type":"Feature","id":"5132dd6ca288f42e67353838","properties":{"_id":"5132dd6ca288f42e67353838","PROVIDER NPI":1588725733,"PROVIDER NAME":"DARCEY, KEVIN","PROVIDER STATE":"Maryland","PROVIDER CITY":"Salisbury","PROVIDER  ADDRESS":"101 Milford St","PROVIDER ZIP 5 CD":21804,"PROVIDER ZIP 4 CD":6952,"PROVIDER PHONE NUM":4107499290,"PROVIDER PHONE EXT":127,"PROGRAM YEAR":2011},"geometry":{"type":"Point","coordinates":[-75.600284,38.338349]}},{"type":"Feature","id":"5132dd6ca288f42e67353839","properties":{"_id":"5132dd6ca288f42e67353839","PROVIDER NPI":1356599740,"PROVIDER NAME":"Dardaine, Halcyeane","PROVIDER STATE":"Maryland","PROVIDER CITY":"North East","PROVIDER  ADDRESS":"104 E Cecil Ave, 1st Floor","PROVIDER ZIP 5 CD":21901,"PROVIDER ZIP 4 CD":4016,"PROVIDER PHONE NUM":4102877021,"PROVIDER PHONE EXT":"","PROGRAM YEAR":2011},"geometry":{"type":"Point","coordinates":[-75.941653,39.601182]}},{"type":"Feature","id":"5132dd6ca288f42e6735383a","properties":{"_id":"5132dd6ca288f42e6735383a","PROVIDER NPI":1548343064,"PROVIDER NAME":"Davalos, Julio","PROVIDER STATE":"Maryland","PROVIDER CITY":"Glen Burnie","PROVIDER  ADDRESS":"806 Landmark Dr, Suite 118","PROVIDER ZIP 5 CD":21061,"PROVIDER ZIP 4 CD":4980,"PROVIDER PHONE NUM":4107809400,"PROVIDER PHONE EXT":"","PROGRAM YEAR":2011},"geometry":{"type":"Point","coordinates":[-76.642046,39.148559]}},{"type":"Feature","id":"5132dd6ca288f42e6735383b","properties":{"_id":"5132dd6ca288f42e6735383b","PROVIDER NPI":1962559781,"PROVIDER NAME":"David, Giovanni Paolo","PROVIDER STATE":"Maryland","PROVIDER CITY":"Salisbury","PROVIDER  ADDRESS":"100 E Carroll St, #400","PROVIDER ZIP 5 CD":21801,"PROVIDER ZIP 4 CD":5422,"PROVIDER PHONE NUM":4105437065,"PROVIDER PHONE EXT":"","PROGRAM YEAR":2011},"geometry":{"type":"Point","coordinates":[-75.597748,38.363138]}},{"type":"Feature","id":"5132dd6ca288f42e6735383c","properties":{"_id":"5132dd6ca288f42e6735383c","PROVIDER NPI":1407992167,"PROVIDER NAME":"Davidson, Sasha","PROVIDER STATE":"Maryland","PROVIDER CITY":"Columbia","PROVIDER  ADDRESS":"10710 Charter Drive, Suite 200","PROVIDER ZIP 5 CD":21044,"PROVIDER ZIP 4 CD":2912,"PROVIDER PHONE NUM":2028777473,"PROVIDER PHONE EXT":"","PROGRAM YEAR":2011},"geometry":{"type":"Point","coordinates":[-76.882869,39.211192]}},{"type":"Feature","id":"5132dd6ca288f42e6735383d","properties":{"_id":"5132dd6ca288f42e6735383d","PROVIDER NPI":1780640946,"PROVIDER NAME":"de Castro, Anastacio","PROVIDER STATE":"Maryland","PROVIDER CITY":"Glen Burnie","PROVIDER  ADDRESS":"200 Hospital Dr, Suite 502","PROVIDER ZIP 5 CD":21061,"PROVIDER ZIP 4 CD":5884,"PROVIDER PHONE NUM":4107662211,"PROVIDER PHONE EXT":"","PROGRAM YEAR":2011},"geometry":{"type":"Point","coordinates":[-76.631523,39.1418]}},{"type":"Feature","id":"5132dd6ca288f42e6735383e","properties":{"_id":"5132dd6ca288f42e6735383e","PROVIDER NPI":1740369578,"PROVIDER NAME":"De Muth, Brian","PROVIDER STATE":"Maryland","PROVIDER CITY":"Elkton","PROVIDER  ADDRESS":"111 W High St, Suite 209","PROVIDER ZIP 5 CD":21921,"PROVIDER ZIP 4 CD":5529,"PROVIDER PHONE NUM":4106206300,"PROVIDER PHONE EXT":"","PROGRAM YEAR":2011},"geometry":{"type":"Point","coordinates":[-75.831786,39.609202]}},{"type":"Feature","id":"5132dd6ca288f42e6735383f","properties":{"_id":"5132dd6ca288f42e6735383f","PROVIDER NPI":1669446282,"PROVIDER NAME":"Deborja, Jose","PROVIDER STATE":"Maryland","PROVIDER CITY":"Easton","PROVIDER  ADDRESS":"611 Dutchmans Ln","PROVIDER ZIP 5 CD":21601,"PROVIDER ZIP 4 CD":3349,"PROVIDER PHONE NUM":4108220991,"PROVIDER PHONE EXT":"","PROGRAM YEAR":2011},"geometry":{"type":"Point","coordinates":[-76.06342,38.759807]}},{"type":"Feature","id":"5132dd6ca288f42e67353840","properties":{"_id":"5132dd6ca288f42e67353840","PROVIDER NPI":1689604654,"PROVIDER NAME":"Dechosa, Vivian","PROVIDER STATE":"Maryland","PROVIDER CITY":"Frederick","PROVIDER  ADDRESS":"610 Solarex Ct","PROVIDER ZIP 5 CD":21703,"PROVIDER ZIP 4 CD":8624,"PROVIDER PHONE NUM":3016825500,"PROVIDER PHONE EXT":"","PROGRAM YEAR":2011},"geometry":{"type":"Point","coordinates":[-77.436583,39.400284]}},{"type":"Feature","id":"5132dd6ca288f42e67353841","properties":{"_id":"5132dd6ca288f42e67353841","PROVIDER NPI":1992735807,"PROVIDER NAME":"Deiboldt, David","PROVIDER STATE":"Maryland","PROVIDER CITY":"Beltsville","PROVIDER  ADDRESS":"10720 Baltimore Ave","PROVIDER ZIP 5 CD":20705,"PROVIDER ZIP 4 CD":2138,"PROVIDER PHONE NUM":3019375666,"PROVIDER PHONE EXT":"","PROGRAM YEAR":2011},"geometry":{"type":"Point","coordinates":[-76.913793,39.030662]}},{"type":"Feature","id":"5132dd6ca288f42e67353842","properties":{"_id":"5132dd6ca288f42e67353842","PROVIDER NPI":1245299932,"PROVIDER NAME":"Delboy, Frederick","PROVIDER STATE":"Maryland","PROVIDER CITY":"Chestertown","PROVIDER  ADDRESS":"6602 Church Hill Rd, Suite 200","PROVIDER ZIP 5 CD":21620,"PROVIDER ZIP 4 CD":2316,"PROVIDER PHONE NUM":4107780300,"PROVIDER PHONE EXT":20,"PROGRAM YEAR":2011},"geometry":{"type":"Point","coordinates":[-76.064911,39.209244]}},{"type":"Feature","id":"5132dd6ca288f42e67353843","properties":{"_id":"5132dd6ca288f42e67353843","PROVIDER NPI":1366537102,"PROVIDER NAME":"DeLeonibus, John","PROVIDER STATE":"Maryland","PROVIDER CITY":"Annapolis","PROVIDER  ADDRESS":"2086 Generals Hwy, Suite 101","PROVIDER ZIP 5 CD":21401,"PROVIDER ZIP 4 CD":6700,"PROVIDER PHONE NUM":4102667666,"PROVIDER PHONE EXT":"","PROGRAM YEAR":2011},"geometry":{"type":"Point","coordinates":[-76.566716,39.011161]}},{"type":"Feature","id":"5132dd6ca288f42e67353844","properties":{"_id":"5132dd6ca288f42e67353844","PROVIDER NPI":1447233234,"PROVIDER NAME":"DelGrippo, Gerard","PROVIDER STATE":"Maryland","PROVIDER CITY":"Frederick","PROVIDER  ADDRESS":"63 Thomas Johnson Dr, Suite E","PROVIDER ZIP 5 CD":21702,"PROVIDER ZIP 4 CD":4384,"PROVIDER PHONE NUM":3016947600,"PROVIDER PHONE EXT":"","PROGRAM YEAR":2011},"geometry":{"type":"Point","coordinates":[-77.445838,39.426196]}},{"type":"Feature","id":"5132dd6ca288f42e67353845","properties":{"_id":"5132dd6ca288f42e67353845","PROVIDER NPI":1912928128,"PROVIDER NAME":"DELONG, MELISSA","PROVIDER STATE":"Maryland","PROVIDER CITY":"Baltimore","PROVIDER  ADDRESS":"201 E University Parkway","PROVIDER ZIP 5 CD":21218,"PROVIDER ZIP 4 CD":2829,"PROVIDER PHONE NUM":4105546872,"PROVIDER PHONE EXT":"","PROGRAM YEAR":2011},"geometry":{"type":"Point","coordinates":[-76.614398,39.330386]}},{"type":"Feature","id":"5132dd6ca288f42e67353846","properties":{"_id":"5132dd6ca288f42e67353846","PROVIDER NPI":1184680043,"PROVIDER NAME":"DEROY, ALAN","PROVIDER STATE":"Maryland","PROVIDER CITY":"Greenbelt","PROVIDER  ADDRESS":"7223 Hanover Pkwy, SUITE B","PROVIDER ZIP 5 CD":20770,"PROVIDER ZIP 4 CD":2000,"PROVIDER PHONE NUM":3014412655,"PROVIDER PHONE EXT":"","PROGRAM YEAR":2011},"geometry":{"type":"Point","coordinates":[-76.878965,38.9893]}},{"type":"Feature","id":"5132dd6ca288f42e67353847","properties":{"_id":"5132dd6ca288f42e67353847","PROVIDER NPI":1194790105,"PROVIDER NAME":"Desai, Pankaj","PROVIDER STATE":"Maryland","PROVIDER CITY":"Owings Mills","PROVIDER  ADDRESS":"90 Painters Mill Rd Ste 205","PROVIDER ZIP 5 CD":21117,"PROVIDER ZIP 4 CD":3614,"PROVIDER PHONE NUM":4103561575,"PROVIDER PHONE EXT":"","PROGRAM YEAR":2011},"geometry":{"type":"Point","coordinates":[-76.77875,39.411403]}},{"type":"Feature","id":"5132dd6ca288f42e67353848","properties":{"_id":"5132dd6ca288f42e67353848","PROVIDER NPI":1952307258,"PROVIDER NAME":"Desai, Ujwala","PROVIDER STATE":"Maryland","PROVIDER CITY":"Baltimore","PROVIDER  ADDRESS":"3120 Erdman Ave","PROVIDER ZIP 5 CD":21213,"PROVIDER ZIP 4 CD":1720,"PROVIDER PHONE NUM":4105584800,"PROVIDER PHONE EXT":"","PROGRAM YEAR":2011},"geometry":{"type":"Point","coordinates":[-76.573209,39.321144]}},{"type":"Feature","id":"5132dd6ca288f42e67353849","properties":{"_id":"5132dd6ca288f42e67353849","PROVIDER NPI":1518942390,"PROVIDER NAME":"Desmarais, Rene","PROVIDER STATE":"Maryland","PROVIDER CITY":"Salisbury","PROVIDER  ADDRESS":"400 Eastern Shore Dr","PROVIDER ZIP 5 CD":21804,"PROVIDER ZIP 4 CD":5565,"PROVIDER PHONE NUM":4107498906,"PROVIDER PHONE EXT":166,"PROGRAM YEAR":2011},"geometry":{"type":"Point","coordinates":[-75.595073,38.362023]}},{"type":"Feature","id":"5132dd6ca288f42e6735384a","properties":{"_id":"5132dd6ca288f42e6735384a","PROVIDER NPI":1306843271,"PROVIDER NAME":"Devin, Edward","PROVIDER STATE":"Maryland","PROVIDER CITY":"Germantown","PROVIDER  ADDRESS":"20500 Seneca Meadows Pkwy, Suite 2400","PROVIDER ZIP 5 CD":20876,"PROVIDER ZIP 4 CD":7008,"PROVIDER PHONE NUM":3013301000,"PROVIDER PHONE EXT":"","PROGRAM YEAR":2011},"geometry":{"type":"Point","coordinates":[-77.129004,38.962471]}},{"type":"Feature","id":"5132dd6ca288f42e6735384b","properties":{"_id":"5132dd6ca288f42e6735384b","PROVIDER NPI":1659578581,"PROVIDER NAME":"DeWitt, Christine","PROVIDER STATE":"Maryland","PROVIDER CITY":"Bethesda","PROVIDER  ADDRESS":"5530 Wisconsin Avenue, Suite 730","PROVIDER ZIP 5 CD":20815,"PROVIDER ZIP 4 CD":"","PROVIDER PHONE NUM":3019512400,"PROVIDER PHONE EXT":"","PROGRAM YEAR":2011},"geometry":{"type":"Point","coordinates":[-77.087557,38.96452]}},{"type":"Feature","id":"5132dd6ca288f42e6735384c","properties":{"_id":"5132dd6ca288f42e6735384c","PROVIDER NPI":1679577639,"PROVIDER NAME":"Dibos, Luis","PROVIDER STATE":"Maryland","PROVIDER CITY":"Baltimore","PROVIDER  ADDRESS":"201 E. University Parkway, JPB LL08","PROVIDER ZIP 5 CD":21218,"PROVIDER ZIP 4 CD":2829,"PROVIDER PHONE NUM":4105546550,"PROVIDER PHONE EXT":"","PROGRAM YEAR":2011},"geometry":{"type":"Point","coordinates":[-76.612473,39.329753]}},{"type":"Feature","id":"5132dd6ca288f42e6735384d","properties":{"_id":"5132dd6ca288f42e6735384d","PROVIDER NPI":1841351772,"PROVIDER NAME":"Dickson, Francis","PROVIDER STATE":"Maryland","PROVIDER CITY":"Clinton","PROVIDER  ADDRESS":"10401 Hospital Drive, Suite 103","PROVIDER ZIP 5 CD":20735,"PROVIDER ZIP 4 CD":"","PROVIDER PHONE NUM":3018560334,"PROVIDER PHONE EXT":"","PROGRAM YEAR":2011},"geometry":{"type":"Point","coordinates":[-76.877253,38.748934]}},{"type":"Feature","id":"5132dd6ca288f42e6735384e","properties":{"_id":"5132dd6ca288f42e6735384e","PROVIDER NPI":1528015914,"PROVIDER NAME":"Dietrick, Daniel","PROVIDER STATE":"Maryland","PROVIDER CITY":"Towson","PROVIDER  ADDRESS":"8322 Bellona Ave, Suite 202","PROVIDER ZIP 5 CD":21204,"PROVIDER ZIP 4 CD":2012,"PROVIDER PHONE NUM":4108256310,"PROVIDER PHONE EXT":"","PROGRAM YEAR":2011},"geometry":{"type":"Point","coordinates":[-76.632498,39.41349]}},{"type":"Feature","id":"5132dd6ca288f42e6735384f","properties":{"_id":"5132dd6ca288f42e6735384f","PROVIDER NPI":1659376184,"PROVIDER NAME":"DiFresco, Veronica","PROVIDER STATE":"Maryland","PROVIDER CITY":"Rockville","PROVIDER  ADDRESS":"1201 Seven Locks Rd, Ste 111","PROVIDER ZIP 5 CD":20854,"PROVIDER ZIP 4 CD":"","PROVIDER PHONE NUM":3017625020,"PROVIDER PHONE EXT":"","PROGRAM YEAR":2011},"geometry":{"type":"Point","coordinates":[-77.160838,39.063809]}},{"type":"Feature","id":"5132dd6ca288f42e67353850","properties":{"_id":"5132dd6ca288f42e67353850","PROVIDER NPI":1306835475,"PROVIDER NAME":"DIGGS, LYNNE","PROVIDER STATE":"Maryland","PROVIDER CITY":"Kensington","PROVIDER  ADDRESS":"10400 Conn Ave, SUITE 206","PROVIDER ZIP 5 CD":20895,"PROVIDER ZIP 4 CD":3910,"PROVIDER PHONE NUM":3019624242,"PROVIDER PHONE EXT":"","PROGRAM YEAR":2011},"geometry":{"type":"Point","coordinates":[-77.358716,39.225457]}},{"type":"Feature","id":"5132dd6ca288f42e67353851","properties":{"_id":"5132dd6ca288f42e67353851","PROVIDER NPI":1326201328,"PROVIDER NAME":"DiRocco, Joseph","PROVIDER STATE":"Maryland","PROVIDER CITY":"Towson","PROVIDER  ADDRESS":"6569 N Charles St, Suite 502","PROVIDER ZIP 5 CD":21204,"PROVIDER ZIP 4 CD":6831,"PROVIDER PHONE NUM":4102961661,"PROVIDER PHONE EXT":"","PROGRAM YEAR":2011},"geometry":{"type":"Point","coordinates":[-76.62827,39.389927]}},{"type":"Feature","id":"5132dd6ca288f42e67353852","properties":{"_id":"5132dd6ca288f42e67353852","PROVIDER NPI":1942290978,"PROVIDER NAME":"Dobin, Andrew","PROVIDER STATE":"Maryland","PROVIDER CITY":"Bowie","PROVIDER  ADDRESS":"4175 N Hanson Ct, 203A","PROVIDER ZIP 5 CD":20716,"PROVIDER ZIP 4 CD":3179,"PROVIDER PHONE NUM":3014649660,"PROVIDER PHONE EXT":"","PROGRAM YEAR":2011},"geometry":{"type":"Point","coordinates":[-76.720266,38.946514]}},{"type":"Feature","id":"5132dd6ca288f42e67353853","properties":{"_id":"5132dd6ca288f42e67353853","PROVIDER NPI":1467411603,"PROVIDER NAME":"Dobrusin, Robert","PROVIDER STATE":"Maryland","PROVIDER CITY":"Eldersburg","PROVIDER  ADDRESS":"1311 Londontown Blvd, Suite # 100","PROVIDER ZIP 5 CD":21784,"PROVIDER ZIP 4 CD":6454,"PROVIDER PHONE NUM":4107955588,"PROVIDER PHONE EXT":"","PROGRAM YEAR":2011},"geometry":{"type":"Point","coordinates":[-76.947807,39.407789]}},{"type":"Feature","id":"5132dd6ca288f42e67353854","properties":{"_id":"5132dd6ca288f42e67353854","PROVIDER NPI":1396739033,"PROVIDER NAME":"Dohmeier, Gregory","PROVIDER STATE":"Maryland","PROVIDER CITY":"Bel Air","PROVIDER  ADDRESS":"2227 Old Emmorton Rd, Suite 220","PROVIDER ZIP 5 CD":21015,"PROVIDER ZIP 4 CD":"","PROVIDER PHONE NUM":4105699040,"PROVIDER PHONE EXT":"","PROGRAM YEAR":2011},"geometry":{"type":"Point","coordinates":[-76.323968,39.495029]}},{"type":"Feature","id":"5132dd6ca288f42e67353855","properties":{"_id":"5132dd6ca288f42e67353855","PROVIDER NPI":1700889631,"PROVIDER NAME":"Doman, David","PROVIDER STATE":"Maryland","PROVIDER CITY":"Wheaton","PROVIDER  ADDRESS":"12012 Veirs Mill Rd","PROVIDER ZIP 5 CD":20906,"PROVIDER ZIP 4 CD":4513,"PROVIDER PHONE NUM":3019423550,"PROVIDER PHONE EXT":"","PROGRAM YEAR":2011},"geometry":{"type":"Point","coordinates":[-77.077338,39.053039]}},{"type":"Feature","id":"5132dd6ca288f42e67353856","properties":{"_id":"5132dd6ca288f42e67353856","PROVIDER NPI":1093777484,"PROVIDER NAME":"Donohue, Dennis","PROVIDER STATE":"Maryland","PROVIDER CITY":"Rockville","PROVIDER  ADDRESS":"15215 Shady Grove Rd, Suite 306","PROVIDER ZIP 5 CD":20850,"PROVIDER ZIP 4 CD":3235,"PROVIDER PHONE NUM":3019900040,"PROVIDER PHONE EXT":"","PROGRAM YEAR":2011},"geometry":{"type":"Point","coordinates":[-77.190663,39.104462]}},{"type":"Feature","id":"5132dd6ca288f42e67353857","properties":{"_id":"5132dd6ca288f42e67353857","PROVIDER NPI":1114116498,"PROVIDER NAME":"DOVE, JOSEPH","PROVIDER STATE":"Maryland","PROVIDER CITY":"Baltimore","PROVIDER  ADDRESS":"4201 Belmar Ave","PROVIDER ZIP 5 CD":21206,"PROVIDER ZIP 4 CD":1900,"PROVIDER PHONE NUM":4104269200,"PROVIDER PHONE EXT":"","PROGRAM YEAR":2011},"geometry":{"type":"Point","coordinates":[-76.533616,39.352243]}},{"type":"Feature","id":"5132dd6ca288f42e67353858","properties":{"_id":"5132dd6ca288f42e67353858","PROVIDER NPI":1821096355,"PROVIDER NAME":"Dow, Donna","PROVIDER STATE":"Maryland","PROVIDER CITY":"Towson","PROVIDER  ADDRESS":"7600 Osler Dr, Suite 209","PROVIDER ZIP 5 CD":21204,"PROVIDER ZIP 4 CD":7735,"PROVIDER PHONE NUM":4108210888,"PROVIDER PHONE EXT":"","PROGRAM YEAR":2011},"geometry":{"type":"Point","coordinates":[-76.614141,39.39226]}},{"type":"Feature","id":"5132dd6ca288f42e67353859","properties":{"_id":"5132dd6ca288f42e67353859","PROVIDER NPI":1407808991,"PROVIDER NAME":"Dowling, William","PROVIDER STATE":"Maryland","PROVIDER CITY":"Baltimore","PROVIDER  ADDRESS":"6820 Hospital Dr, Ste 210","PROVIDER ZIP 5 CD":21237,"PROVIDER ZIP 4 CD":"","PROVIDER PHONE NUM":4103916131,"PROVIDER PHONE EXT":"","PROGRAM YEAR":2011},"geometry":{"type":"Point","coordinates":[-76.475596,39.347417]}},{"type":"Feature","id":"5132dd6ca288f42e6735385a","properties":{"_id":"5132dd6ca288f42e6735385a","PROVIDER NPI":1568475242,"PROVIDER NAME":"Downing, Michael","PROVIDER STATE":"Maryland","PROVIDER CITY":"Glen Burnie","PROVIDER  ADDRESS":"7845 Oakwood Road, Suite 200","PROVIDER ZIP 5 CD":21061,"PROVIDER ZIP 4 CD":"","PROVIDER PHONE NUM":4107616660,"PROVIDER PHONE EXT":"","PROGRAM YEAR":2011},"geometry":{"type":"Point","coordinates":[-76.618399,39.140602]}},{"type":"Feature","id":"5132dd6ca288f42e6735385b","properties":{"_id":"5132dd6ca288f42e6735385b","PROVIDER NPI":1457343592,"PROVIDER NAME":"Doyle, Kevin","PROVIDER STATE":"Maryland","PROVIDER CITY":"Glen Burnie","PROVIDER  ADDRESS":"1417 Madison Park Dr","PROVIDER ZIP 5 CD":21061,"PROVIDER ZIP 4 CD":5613,"PROVIDER PHONE NUM":4107686600,"PROVIDER PHONE EXT":"","PROGRAM YEAR":2011},"geometry":{"type":"Point","coordinates":[-76.631521,39.149573]}},{"type":"Feature","id":"5132dd6ca288f42e6735385c","properties":{"_id":"5132dd6ca288f42e6735385c","PROVIDER NPI":1144382615,"PROVIDER NAME":"Doyle, William","PROVIDER STATE":"Maryland","PROVIDER CITY":"Salisbury","PROVIDER  ADDRESS":"101 Milford St","PROVIDER ZIP 5 CD":21804,"PROVIDER ZIP 4 CD":6952,"PROVIDER PHONE NUM":4107499290,"PROVIDER PHONE EXT":127,"PROGRAM YEAR":2011},"geometry":{"type":"Point","coordinates":[-75.600284,38.338349]}},{"type":"Feature","id":"5132dd6ca288f42e6735385d","properties":{"_id":"5132dd6ca288f42e6735385d","PROVIDER NPI":1174613327,"PROVIDER NAME":"Drakes, George","PROVIDER STATE":"Maryland","PROVIDER CITY":"Oxon Hill","PROVIDER  ADDRESS":"6188 Oxon Hill Rd, Suite 100","PROVIDER ZIP 5 CD":20745,"PROVIDER ZIP 4 CD":3113,"PROVIDER PHONE NUM":3015672100,"PROVIDER PHONE EXT":"","PROGRAM YEAR":2011},"geometry":{"type":"Point","coordinates":[-76.983559,38.803975]}},{"type":"Feature","id":"5132dd6ca288f42e6735385e","properties":{"_id":"5132dd6ca288f42e6735385e","PROVIDER NPI":1043326945,"PROVIDER NAME":"Dua, Rajiv","PROVIDER STATE":"Maryland","PROVIDER CITY":"Elkridge","PROVIDER  ADDRESS":"8186 Lark Brown Road, Suite 201","PROVIDER ZIP 5 CD":21075,"PROVIDER ZIP 4 CD":"","PROVIDER PHONE NUM":4107303399,"PROVIDER PHONE EXT":"","PROGRAM YEAR":2011},"geometry":{"type":"Point","coordinates":[-76.796552,39.18868]}},{"type":"Feature","id":"5132dd6ca288f42e6735385f","properties":{"_id":"5132dd6ca288f42e6735385f","PROVIDER NPI":1578658274,"PROVIDER NAME":"DUBIN, WENDY","PROVIDER STATE":"Maryland","PROVIDER CITY":"Baltimore","PROVIDER  ADDRESS":"5601 Loch Raven Blvd, 512","PROVIDER ZIP 5 CD":21239,"PROVIDER ZIP 4 CD":2905,"PROVIDER PHONE NUM":4434444835,"PROVIDER PHONE EXT":"","PROGRAM YEAR":2011},"geometry":{"type":"Point","coordinates":[-76.588851,39.358914]}},{"type":"Feature","id":"5132dd6ca288f42e67353860","properties":{"_id":"5132dd6ca288f42e67353860","PROVIDER NPI":1619976438,"PROVIDER NAME":"DuBoyce, William","PROVIDER STATE":"Maryland","PROVIDER CITY":"Mitchellville","PROVIDER  ADDRESS":"12158 Central Ave, Mitchellville Plaza","PROVIDER ZIP 5 CD":20721,"PROVIDER ZIP 4 CD":1932,"PROVIDER PHONE NUM":3014302750,"PROVIDER PHONE EXT":"","PROGRAM YEAR":2011},"geometry":{"type":"Point","coordinates":[-76.795175,38.899712]}},{"type":"Feature","id":"5132dd6ca288f42e67353861","properties":{"_id":"5132dd6ca288f42e67353861","PROVIDER NPI":1780668913,"PROVIDER NAME":"Dudas, Nicholas","PROVIDER STATE":"Maryland","PROVIDER CITY":"Salisbury","PROVIDER  ADDRESS":"145 East Carroll Street","PROVIDER ZIP 5 CD":21801,"PROVIDER ZIP 4 CD":5454,"PROVIDER PHONE NUM":4105482600,"PROVIDER PHONE EXT":"","PROGRAM YEAR":2011},"geometry":{"type":"Point","coordinates":[-75.597748,38.363138]}},{"type":"Feature","id":"5132dd6ca288f42e67353862","properties":{"_id":"5132dd6ca288f42e67353862","PROVIDER NPI":1669428256,"PROVIDER NAME":"DUDEK, EDWARD","PROVIDER STATE":"Maryland","PROVIDER CITY":"Annapolis","PROVIDER  ADDRESS":"116 Defense HWY, SUITE 400","PROVIDER ZIP 5 CD":21401,"PROVIDER ZIP 4 CD":"","PROVIDER PHONE NUM":4108979854,"PROVIDER PHONE EXT":"","PROGRAM YEAR":2011},"geometry":{"type":"Point","coordinates":[-76.55044,38.985799]}},{"type":"Feature","id":"5132dd6ca288f42e67353863","properties":{"_id":"5132dd6ca288f42e67353863","PROVIDER NPI":1588672190,"PROVIDER NAME":"Duggirala, Amar","PROVIDER STATE":"Maryland","PROVIDER CITY":"Poolesville","PROVIDER  ADDRESS":"19710 Fisher Ave, Suite J","PROVIDER ZIP 5 CD":20837,"PROVIDER ZIP 4 CD":2098,"PROVIDER PHONE NUM":3019727600,"PROVIDER PHONE EXT":"","PROGRAM YEAR":2011},"geometry":{"type":"Point","coordinates":[-77.411187,39.144499]}},{"type":"Feature","id":"5132dd6ca288f42e67353864","properties":{"_id":"5132dd6ca288f42e67353864","PROVIDER NPI":1720044688,"PROVIDER NAME":"DUGGIRALA, APARNA","PROVIDER STATE":"Maryland","PROVIDER CITY":"Greenbelt","PROVIDER  ADDRESS":"7223 Hanover Pkwy, SUITE B","PROVIDER ZIP 5 CD":20770,"PROVIDER ZIP 4 CD":2000,"PROVIDER PHONE NUM":3014412655,"PROVIDER PHONE EXT":"","PROGRAM YEAR":2011},"geometry":{"type":"Point","coordinates":[-76.878965,38.9893]}},{"type":"Feature","id":"5132dd6ca288f42e67353865","properties":{"_id":"5132dd6ca288f42e67353865","PROVIDER NPI":1104985548,"PROVIDER NAME":"Duncan, Angela","PROVIDER STATE":"Maryland","PROVIDER CITY":"Laurel","PROVIDER  ADDRESS":"7350 Van Dusen Rd Ste 130","PROVIDER ZIP 5 CD":20707,"PROVIDER ZIP 4 CD":5267,"PROVIDER PHONE NUM":3014988880,"PROVIDER PHONE EXT":"","PROGRAM YEAR":2011},"geometry":{"type":"Point","coordinates":[-76.882709,39.084294]}},{"type":"Feature","id":"5132dd6ca288f42e67353866","properties":{"_id":"5132dd6ca288f42e67353866","PROVIDER NPI":1710961768,"PROVIDER NAME":"Durfee, Jill","PROVIDER STATE":"Maryland","PROVIDER CITY":"Frederick","PROVIDER  ADDRESS":"610 Solarex Ct","PROVIDER ZIP 5 CD":21703,"PROVIDER ZIP 4 CD":8624,"PROVIDER PHONE NUM":3016825500,"PROVIDER PHONE EXT":"","PROGRAM YEAR":2011},"geometry":{"type":"Point","coordinates":[-77.436583,39.400284]}},{"type":"Feature","id":"5132dd6ca288f42e67353867","properties":{"_id":"5132dd6ca288f42e67353867","PROVIDER NPI":1649428897,"PROVIDER NAME":"Dutta, Utpal","PROVIDER STATE":"Maryland","PROVIDER CITY":"Prince Frederick","PROVIDER  ADDRESS":"205 Steeple Chase Dr, Suite 206","PROVIDER ZIP 5 CD":20678,"PROVIDER ZIP 4 CD":4053,"PROVIDER PHONE NUM":4105352085,"PROVIDER PHONE EXT":"","PROGRAM YEAR":2011},"geometry":{"type":"Point","coordinates":[-76.592065,38.550673]}},{"type":"Feature","id":"5132dd6ca288f42e67353868","properties":{"_id":"5132dd6ca288f42e67353868","PROVIDER NPI":1346248044,"PROVIDER NAME":"Dwyer, Sean","PROVIDER STATE":"Maryland","PROVIDER CITY":"Chevy Chase","PROVIDER  ADDRESS":"5454 Wisconsin Ave, Suite 925","PROVIDER ZIP 5 CD":20815,"PROVIDER ZIP 4 CD":6901,"PROVIDER PHONE NUM":3016571682,"PROVIDER PHONE EXT":"","PROGRAM YEAR":2011},"geometry":{"type":"Point","coordinates":[-77.086534,38.961902]}},{"type":"Feature","id":"5132dd6ca288f42e67353869","properties":{"_id":"5132dd6ca288f42e67353869","PROVIDER NPI":1700945128,"PROVIDER NAME":"Eaton, Seth","PROVIDER STATE":"Maryland","PROVIDER CITY":"Laurel","PROVIDER  ADDRESS":"7350 Van Dusen Rd Ste 130","PROVIDER ZIP 5 CD":20707,"PROVIDER ZIP 4 CD":5267,"PROVIDER PHONE NUM":3014988880,"PROVIDER PHONE EXT":500,"PROGRAM YEAR":2011},"geometry":{"type":"Point","coordinates":[-76.882709,39.084294]}},{"type":"Feature","id":"5132dd6ca288f42e6735386a","properties":{"_id":"5132dd6ca288f42e6735386a","PROVIDER NPI":1053316158,"PROVIDER NAME":"Ebright, Bradford","PROVIDER STATE":"Maryland","PROVIDER CITY":"Baltimore","PROVIDER  ADDRESS":"9524 Belair Rd","PROVIDER ZIP 5 CD":21236,"PROVIDER ZIP 4 CD":1508,"PROVIDER PHONE NUM":4105299311,"PROVIDER PHONE EXT":"","PROGRAM YEAR":2011},"geometry":{"type":"Point","coordinates":[-76.467359,39.409859]}},{"type":"Feature","id":"5132dd6ca288f42e6735386b","properties":{"_id":"5132dd6ca288f42e6735386b","PROVIDER NPI":1558354464,"PROVIDER NAME":"Effron, Morris","PROVIDER STATE":"Maryland","PROVIDER CITY":"Cambridge","PROVIDER  ADDRESS":"4 Aurora St","PROVIDER ZIP 5 CD":21613,"PROVIDER ZIP 4 CD":1902,"PROVIDER PHONE NUM":4102210333,"PROVIDER PHONE EXT":"","PROGRAM YEAR":2011},"geometry":{"type":"Point","coordinates":[-76.067084,38.570955]}},{"type":"Feature","id":"5132dd6ca288f42e6735386c","properties":{"_id":"5132dd6ca288f42e6735386c","PROVIDER NPI":1952480733,"PROVIDER NAME":"Ehrmantraut, Wilfred","PROVIDER STATE":"Maryland","PROVIDER CITY":"Prince Frederick","PROVIDER  ADDRESS":"70 Sherry Lane, Suite 203","PROVIDER ZIP 5 CD":20678,"PROVIDER ZIP 4 CD":4019,"PROVIDER PHONE NUM":4104149844,"PROVIDER PHONE EXT":"","PROGRAM YEAR":2011},"geometry":{"type":"Point","coordinates":[-76.526609,38.566908]}},{"type":"Feature","id":"5132dd6ca288f42e6735386d","properties":{"_id":"5132dd6ca288f42e6735386d","PROVIDER NPI":1689601999,"PROVIDER NAME":"Ellis, Mona","PROVIDER STATE":"Maryland","PROVIDER CITY":"Chevy Chase","PROVIDER  ADDRESS":"5530 Wisconsin Ave, Suite 645","PROVIDER ZIP 5 CD":20815,"PROVIDER ZIP 4 CD":4404,"PROVIDER PHONE NUM":3016564545,"PROVIDER PHONE EXT":"","PROGRAM YEAR":2011},"geometry":{"type":"Point","coordinates":[-77.087557,38.96452]}},{"type":"Feature","id":"5132dd6ca288f42e6735386e","properties":{"_id":"5132dd6ca288f42e6735386e","PROVIDER NPI":1073538807,"PROVIDER NAME":"El-Sherif, Tarek","PROVIDER STATE":"Maryland","PROVIDER CITY":"Laurel","PROVIDER  ADDRESS":"7350 Van Dusen Road, Suite B40","PROVIDER ZIP 5 CD":20707,"PROVIDER ZIP 4 CD":"","PROVIDER PHONE NUM":2404564772,"PROVIDER PHONE EXT":"","PROGRAM YEAR":2011},"geometry":{"type":"Point","coordinates":[-76.882709,39.084294]}},{"type":"Feature","id":"5132dd6ca288f42e6735386f","properties":{"_id":"5132dd6ca288f42e6735386f","PROVIDER NPI":1790720001,"PROVIDER NAME":"Emsellem, Helene","PROVIDER STATE":"Maryland","PROVIDER CITY":"Chevy Chase","PROVIDER  ADDRESS":"5454 Wisconsin Ave, Suite 1725","PROVIDER ZIP 5 CD":20815,"PROVIDER ZIP 4 CD":6901,"PROVIDER PHONE NUM":3016541575,"PROVIDER PHONE EXT":"","PROGRAM YEAR":2011},"geometry":{"type":"Point","coordinates":[-77.086534,38.961902]}},