[{"type":"Feature","id":"5132dd71a288f42e67356dd2","properties":{"_id":"5132dd71a288f42e67356dd2","PROVIDER NPI":1629076674,"PROVIDER NAME":"Abdo, Raymond","PROVIDER STATE":"Missouri","PROVIDER CITY":"Saint Louis","PROVIDER  ADDRESS":"6651 Chippewa St, STE 210","PROVIDER ZIP 5 CD":63109,"PROVIDER ZIP 4 CD":2538,"PROVIDER PHONE NUM":3146468474,"PROVIDER PHONE EXT":"","PROGRAM YEAR":2011},"geometry":{"type":"Point","coordinates":[-90.305886,38.59051]}},{"type":"Feature","id":"5132dd71a288f42e67356dd3","properties":{"_id":"5132dd71a288f42e67356dd3","PROVIDER NPI":1093787558,"PROVIDER NAME":"Abercrombie, Christopher","PROVIDER STATE":"Missouri","PROVIDER CITY":"Arnold","PROVIDER  ADDRESS":"18 Fox Valley Center","PROVIDER ZIP 5 CD":63010,"PROVIDER ZIP 4 CD":2281,"PROVIDER PHONE NUM":6362829899,"PROVIDER PHONE EXT":"","PROGRAM YEAR":2011},"geometry":{"type":"Point","coordinates":[-90.370284,38.447461]}},{"type":"Feature","id":"5132dd71a288f42e67356dd4","properties":{"_id":"5132dd71a288f42e67356dd4","PROVIDER NPI":1649208240,"PROVIDER NAME":"Adams, Christopher","PROVIDER STATE":"Missouri","PROVIDER CITY":"Union","PROVIDER  ADDRESS":"1935 Prairie Dell Rd, Suite 400","PROVIDER ZIP 5 CD":63084,"PROVIDER ZIP 4 CD":4328,"PROVIDER PHONE NUM":6365832508,"PROVIDER PHONE EXT":"","PROGRAM YEAR":2011},"geometry":{"type":"Point","coordinates":[-90.968885,38.421154]}},{"type":"Feature","id":"5132dd71a288f42e67356dd5","properties":{"_id":"5132dd71a288f42e67356dd5","PROVIDER NPI":1710981444,"PROVIDER NAME":"Adams, John","PROVIDER STATE":"Missouri","PROVIDER CITY":"Columbia","PROVIDER  ADDRESS":"3220 Bluff Creek Dr, Ste 100","PROVIDER ZIP 5 CD":65201,"PROVIDER ZIP 4 CD":3525,"PROVIDER PHONE NUM":5734438773,"PROVIDER PHONE EXT":"","PROGRAM YEAR":2011},"geometry":{"type":"Point","coordinates":[-92.299079,38.93853]}},{"type":"Feature","id":"5132dd71a288f42e67356dd6","properties":{"_id":"5132dd71a288f42e67356dd6","PROVIDER NPI":1811078496,"PROVIDER NAME":"Adkison, Brian","PROVIDER STATE":"Missouri","PROVIDER CITY":"Springfield","PROVIDER  ADDRESS":"2212 W. Kearney","PROVIDER ZIP 5 CD":65803,"PROVIDER ZIP 4 CD":"","PROVIDER PHONE NUM":4178318074,"PROVIDER PHONE EXT":"","PROGRAM YEAR":2011},"geometry":{"type":"Point","coordinates":[-93.320292,37.241038]}},{"type":"Feature","id":"5132dd71a288f42e67356dd7","properties":{"_id":"5132dd71a288f42e67356dd7","PROVIDER NPI":1801819487,"PROVIDER NAME":"ADLER, STUART","PROVIDER STATE":"Missouri","PROVIDER CITY":"Saint Louis","PROVIDER  ADDRESS":"11155 Dunn Rd, STE 201E","PROVIDER ZIP 5 CD":63136,"PROVIDER ZIP 4 CD":6150,"PROVIDER PHONE NUM":3143553175,"PROVIDER PHONE EXT":"","PROGRAM YEAR":2011},"geometry":{"type":"Point","coordinates":[-90.239033,38.77584]}},{"type":"Feature","id":"5132dd71a288f42e67356dd8","properties":{"_id":"5132dd71a288f42e67356dd8","PROVIDER NPI":1093738742,"PROVIDER NAME":"AHMAD, MUSADDEQUE","PROVIDER STATE":"Missouri","PROVIDER CITY":"Festus","PROVIDER  ADDRESS":"1390 US Highway 61 Ste 2100","PROVIDER ZIP 5 CD":63028,"PROVIDER ZIP 4 CD":4121,"PROVIDER PHONE NUM":6369336300,"PROVIDER PHONE EXT":"","PROGRAM YEAR":2011},"geometry":{"type":"Point","coordinates":[-90.3953,38.196502]}},{"type":"Feature","id":"5132dd71a288f42e67356dd9","properties":{"_id":"5132dd71a288f42e67356dd9","PROVIDER NPI":1952393530,"PROVIDER NAME":"Akremi, Janet","PROVIDER STATE":"Missouri","PROVIDER CITY":"California","PROVIDER  ADDRESS":"800 W Buchanan St","PROVIDER ZIP 5 CD":65018,"PROVIDER ZIP 4 CD":"","PROVIDER PHONE NUM":5732346677,"PROVIDER PHONE EXT":"","PROGRAM YEAR":2011},"geometry":{"type":"Point","coordinates":[-92.576201,38.628496]}},{"type":"Feature","id":"5132dd71a288f42e67356dda","properties":{"_id":"5132dd71a288f42e67356dda","PROVIDER NPI":1912078452,"PROVIDER NAME":"Al-Assafeen, Ossama","PROVIDER STATE":"Missouri","PROVIDER CITY":"Lebanon","PROVIDER  ADDRESS":"120 Hospital Dr, Suite 300","PROVIDER ZIP 5 CD":65536,"PROVIDER ZIP 4 CD":9238,"PROVIDER PHONE NUM":4175336746,"PROVIDER PHONE EXT":"","PROGRAM YEAR":2011},"geometry":{"type":"Point","coordinates":[-92.635694,37.680833]}},{"type":"Feature","id":"5132dd71a288f42e67356ddb","properties":{"_id":"5132dd71a288f42e67356ddb","PROVIDER NPI":1982603650,"PROVIDER NAME":"Albano, Benjamin","PROVIDER STATE":"Missouri","PROVIDER CITY":"Festus","PROVIDER  ADDRESS":"1390 Highway 61, Suite 2200","PROVIDER ZIP 5 CD":63028,"PROVIDER ZIP 4 CD":4137,"PROVIDER PHONE NUM":6369378642,"PROVIDER PHONE EXT":"","PROGRAM YEAR":2011},"geometry":{"type":"Point","coordinates":[-90.3953,38.196502]}},{"type":"Feature","id":"5132dd71a288f42e67356ddc","properties":{"_id":"5132dd71a288f42e67356ddc","PROVIDER NPI":1417967969,"PROVIDER NAME":"Albert, Stewart","PROVIDER STATE":"Missouri","PROVIDER CITY":"St Louis","PROVIDER  ADDRESS":"3660 Vista","PROVIDER ZIP 5 CD":63110,"PROVIDER ZIP 4 CD":"","PROVIDER PHONE NUM":3149776157,"PROVIDER PHONE EXT":"","PROGRAM YEAR":2011},"geometry":{"type":"Point","coordinates":[-90.328172,38.511828]}},{"type":"Feature","id":"5132dd71a288f42e67356ddd","properties":{"_id":"5132dd71a288f42e67356ddd","PROVIDER NPI":1467448449,"PROVIDER NAME":"Alderman, Lillian","PROVIDER STATE":"Missouri","PROVIDER CITY":"Liberty","PROVIDER  ADDRESS":"1500 N Church Rd, Suite C","PROVIDER ZIP 5 CD":64068,"PROVIDER ZIP 4 CD":7129,"PROVIDER PHONE NUM":8167922121,"PROVIDER PHONE EXT":"","PROGRAM YEAR":2011},"geometry":{"type":"Point","coordinates":[-94.48415,39.211672]}},{"type":"Feature","id":"5132dd71a288f42e67356dde","properties":{"_id":"5132dd71a288f42e67356dde","PROVIDER NPI":1538102561,"PROVIDER NAME":"Alderson, Lisa","PROVIDER STATE":"Missouri","PROVIDER CITY":"Saint Louis","PROVIDER  ADDRESS":"3635 Vista Ave, 13 FDT","PROVIDER ZIP 5 CD":63110,"PROVIDER ZIP 4 CD":"","PROVIDER PHONE NUM":3145778894,"PROVIDER PHONE EXT":"","PROGRAM YEAR":2011},"geometry":{"type":"Point","coordinates":[-90.215285,38.597049]}},{"type":"Feature","id":"5132dd71a288f42e67356ddf","properties":{"_id":"5132dd71a288f42e67356ddf","PROVIDER NPI":1578723938,"PROVIDER NAME":"ali, hussain","PROVIDER STATE":"Missouri","PROVIDER CITY":"Lebanon","PROVIDER  ADDRESS":"120 Hospital Dr, suite 225","PROVIDER ZIP 5 CD":65536,"PROVIDER ZIP 4 CD":9238,"PROVIDER PHONE NUM":4175336710,"PROVIDER PHONE EXT":"","PROGRAM YEAR":2011},"geometry":{"type":"Point","coordinates":[-92.64242,37.743006]}},{"type":"Feature","id":"5132dd71a288f42e67356de0","properties":{"_id":"5132dd71a288f42e67356de0","PROVIDER NPI":1477582799,"PROVIDER NAME":"Ali, Yaqoob","PROVIDER STATE":"Missouri","PROVIDER CITY":"Rolla","PROVIDER  ADDRESS":"1605 Martin Springs Dr, Suite 150","PROVIDER ZIP 5 CD":65401,"PROVIDER ZIP 4 CD":2931,"PROVIDER PHONE NUM":5734586379,"PROVIDER PHONE EXT":"","PROGRAM YEAR":2011},"geometry":{"type":"Point","coordinates":[-91.698295,37.909016]}},{"type":"Feature","id":"5132dd71a288f42e67356de1","properties":{"_id":"5132dd71a288f42e67356de1","PROVIDER NPI":1912999160,"PROVIDER NAME":"Allen, Stephen","PROVIDER STATE":"Missouri","PROVIDER CITY":"Saint Louis","PROVIDER  ADDRESS":"3844 S Lindbergh Blvd, 216","PROVIDER ZIP 5 CD":63127,"PROVIDER ZIP 4 CD":1369,"PROVIDER PHONE NUM":3148427301,"PROVIDER PHONE EXT":"","PROGRAM YEAR":2011},"geometry":{"type":"Point","coordinates":[-90.405354,38.548446]}},{"type":"Feature","id":"5132dd71a288f42e67356de2","properties":{"_id":"5132dd71a288f42e67356de2","PROVIDER NPI":1801854294,"PROVIDER NAME":"Allen, Thomas","PROVIDER STATE":"Missouri","PROVIDER CITY":"Kansas City","PROVIDER  ADDRESS":"373 W 101st Ter","PROVIDER ZIP 5 CD":64114,"PROVIDER ZIP 4 CD":4408,"PROVIDER PHONE NUM":8169428200,"PROVIDER PHONE EXT":"","PROGRAM YEAR":2011},"geometry":{"type":"Point","coordinates":[-94.596089,38.943869]}},{"type":"Feature","id":"5132dd71a288f42e67356de3","properties":{"_id":"5132dd71a288f42e67356de3","PROVIDER NPI":1942206107,"PROVIDER NAME":"Allhoff, Henry","PROVIDER STATE":"Missouri","PROVIDER CITY":"Saint Louis","PROVIDER  ADDRESS":"2185 S Mason Rd","PROVIDER ZIP 5 CD":63131,"PROVIDER ZIP 4 CD":1640,"PROVIDER PHONE NUM":6363892020,"PROVIDER PHONE EXT":"","PROGRAM YEAR":2011},"geometry":{"type":"Point","coordinates":[-90.47946,38.59714]}},{"type":"Feature","id":"5132dd71a288f42e67356de4","properties":{"_id":"5132dd71a288f42e67356de4","PROVIDER NPI":1538246723,"PROVIDER NAME":"Allphin, Allan","PROVIDER STATE":"Missouri","PROVIDER CITY":"Springfield","PROVIDER  ADDRESS":"1229 E Seminole St","PROVIDER ZIP 5 CD":65804,"PROVIDER ZIP 4 CD":2227,"PROVIDER PHONE NUM":4178205750,"PROVIDER PHONE EXT":"","PROGRAM YEAR":2011},"geometry":{"type":"Point","coordinates":[-93.275978,37.174771]}},{"type":"Feature","id":"5132dd71a288f42e67356de5","properties":{"_id":"5132dd71a288f42e67356de5","PROVIDER NPI":1952402117,"PROVIDER NAME":"Allyn, Steven","PROVIDER STATE":"Missouri","PROVIDER CITY":"Springfield","PROVIDER  ADDRESS":"1900 S National Ave, Suite 3600","PROVIDER ZIP 5 CD":65804,"PROVIDER ZIP 4 CD":2265,"PROVIDER PHONE NUM":4178203911,"PROVIDER PHONE EXT":"","PROGRAM YEAR":2011},"geometry":{"type":"Point","coordinates":[-93.276669,37.180169]}},{"type":"Feature","id":"5132dd71a288f42e67356de6","properties":{"_id":"5132dd71a288f42e67356de6","PROVIDER NPI":1992792295,"PROVIDER NAME":"Altepeter, H","PROVIDER STATE":"Missouri","PROVIDER CITY":"Saint Louis","PROVIDER  ADDRESS":"621 S New Ballas Rd, Suite 7011B","PROVIDER ZIP 5 CD":63141,"PROVIDER ZIP 4 CD":8232,"PROVIDER PHONE NUM":3142516840,"PROVIDER PHONE EXT":"","PROGRAM YEAR":2011},"geometry":{"type":"Point","coordinates":[-90.443511,38.644332]}},{"type":"Feature","id":"5132dd71a288f42e67356de7","properties":{"_id":"5132dd71a288f42e67356de7","PROVIDER NPI":1518006170,"PROVIDER NAME":"ALUMNO, MARTIN","PROVIDER STATE":"Missouri","PROVIDER CITY":"Springfield","PROVIDER  ADDRESS":"3231 S National Ave, SUITE 140","PROVIDER ZIP 5 CD":65807,"PROVIDER ZIP 4 CD":7304,"PROVIDER PHONE NUM":4178904132,"PROVIDER PHONE EXT":"","PROGRAM YEAR":2011},"geometry":{"type":"Point","coordinates":[-93.277606,37.155801]}},{"type":"Feature","id":"5132dd71a288f42e67356de8","properties":{"_id":"5132dd71a288f42e67356de8","PROVIDER NPI":1609832476,"PROVIDER NAME":"Amato, Jason","PROVIDER STATE":"Missouri","PROVIDER CITY":"Saint Louis","PROVIDER  ADDRESS":"522 N New Ballas Rd, Suite 203","PROVIDER ZIP 5 CD":63141,"PROVIDER ZIP 4 CD":6857,"PROVIDER PHONE NUM":3145693323,"PROVIDER PHONE EXT":"","PROGRAM YEAR":2011},"geometry":{"type":"Point","coordinates":[-90.443357,38.64505]}},{"type":"Feature","id":"5132dd71a288f42e67356de9","properties":{"_id":"5132dd71a288f42e67356de9","PROVIDER NPI":1437128402,"PROVIDER NAME":"Amick, Jonn","PROVIDER STATE":"Missouri","PROVIDER CITY":"Liberty","PROVIDER  ADDRESS":"1133 W Kansas St","PROVIDER ZIP 5 CD":64068,"PROVIDER ZIP 4 CD":2281,"PROVIDER PHONE NUM":8167817400,"PROVIDER PHONE EXT":"","PROGRAM YEAR":2011},"geometry":{"type":"Point","coordinates":[-94.439168,39.244847]}},{"type":"Feature","id":"5132dd71a288f42e67356dea","properties":{"_id":"5132dd71a288f42e67356dea","PROVIDER NPI":1962560953,"PROVIDER NAME":"Anandarajah, Rajamanikkam","PROVIDER STATE":"Missouri","PROVIDER CITY":"Springfield","PROVIDER  ADDRESS":"1965 S Fremont Ave, Suite 350","PROVIDER ZIP 5 CD":65804,"PROVIDER ZIP 4 CD":2201,"PROVIDER PHONE NUM":4178203500,"PROVIDER PHONE EXT":"","PROGRAM YEAR":2011},"geometry":{"type":"Point","coordinates":[-93.271612,37.178721]}},{"type":"Feature","id":"5132dd71a288f42e67356deb","properties":{"_id":"5132dd71a288f42e67356deb","PROVIDER NPI":1790760494,"PROVIDER NAME":"Anderson, Christopher","PROVIDER STATE":"Missouri","PROVIDER CITY":"Saint Louis","PROVIDER  ADDRESS":"10430 Page Ave","PROVIDER ZIP 5 CD":63132,"PROVIDER ZIP 4 CD":1228,"PROVIDER PHONE NUM":3144238811,"PROVIDER PHONE EXT":"","PROGRAM YEAR":2011},"geometry":{"type":"Point","coordinates":[-90.389807,38.691449]}},{"type":"Feature","id":"5132dd71a288f42e67356dec","properties":{"_id":"5132dd71a288f42e67356dec","PROVIDER NPI":1437171816,"PROVIDER NAME":"Anderson, Douglas","PROVIDER STATE":"Missouri","PROVIDER CITY":"Warrensburg","PROVIDER  ADDRESS":"407 E Russell Ave Bldg C","PROVIDER ZIP 5 CD":64093,"PROVIDER ZIP 4 CD":1242,"PROVIDER PHONE NUM":6607475114,"PROVIDER PHONE EXT":"","PROGRAM YEAR":2011},"geometry":{"type":"Point","coordinates":[-93.732529,38.773047]}},{"type":"Feature","id":"5132dd71a288f42e67356ded","properties":{"_id":"5132dd71a288f42e67356ded","PROVIDER NPI":1417919432,"PROVIDER NAME":"Anderson, Sharon","PROVIDER STATE":"Missouri","PROVIDER CITY":"Rolla","PROVIDER  ADDRESS":"1210 Homelife Plz","PROVIDER ZIP 5 CD":65401,"PROVIDER ZIP 4 CD":2512,"PROVIDER PHONE NUM":5733412971,"PROVIDER PHONE EXT":"","PROGRAM YEAR":2011},"geometry":{"type":"Point","coordinates":[-91.753788,37.955641]}},{"type":"Feature","id":"5132dd71a288f42e67356dee","properties":{"_id":"5132dd71a288f42e67356dee","PROVIDER NPI":1467541110,"PROVIDER NAME":"Ansari, Sajidul","PROVIDER STATE":"Missouri","PROVIDER CITY":"St Louis","PROVIDER  ADDRESS":"10012 Kennerly Rd, Suite 101","PROVIDER ZIP 5 CD":63128,"PROVIDER ZIP 4 CD":"","PROVIDER PHONE NUM":3145435200,"PROVIDER PHONE EXT":"","PROGRAM YEAR":2011},"geometry":{"type":"Point","coordinates":[-90.377662,38.509505]}},{"type":"Feature","id":"5132dd71a288f42e67356def","properties":{"_id":"5132dd71a288f42e67356def","PROVIDER NPI":1598792269,"PROVIDER NAME":"Apte, Sunil","PROVIDER STATE":"Missouri","PROVIDER CITY":"Washington","PROVIDER  ADDRESS":"901 Patients First Dr","PROVIDER ZIP 5 CD":63090,"PROVIDER ZIP 4 CD":4700,"PROVIDER PHONE NUM":6362395155,"PROVIDER PHONE EXT":"","PROGRAM YEAR":2011},"geometry":{"type":"Point","coordinates":[-91.000734,38.553978]}},{"type":"Feature","id":"5132dd71a288f42e67356df0","properties":{"_id":"5132dd71a288f42e67356df0","PROVIDER NPI":1154358745,"PROVIDER NAME":"ARENDS, TODD","PROVIDER STATE":"Missouri","PROVIDER CITY":"Chesterfield","PROVIDER  ADDRESS":"226 S Woods Mill, Suite 49W","PROVIDER ZIP 5 CD":63017,"PROVIDER ZIP 4 CD":"","PROVIDER PHONE NUM":3144341211,"PROVIDER PHONE EXT":"","PROGRAM YEAR":2011},"geometry":{"type":"Point","coordinates":[-90.511221,38.651449]}},{"type":"Feature","id":"5132dd71a288f42e67356df1","properties":{"_id":"5132dd71a288f42e67356df1","PROVIDER NPI":1225105638,"PROVIDER NAME":"Ashley, Michael","PROVIDER STATE":"Missouri","PROVIDER CITY":"Springfield","PROVIDER  ADDRESS":"1965 S Fremont Ave, Suite 100","PROVIDER ZIP 5 CD":65804,"PROVIDER ZIP 4 CD":2201,"PROVIDER PHONE NUM":4178203800,"PROVIDER PHONE EXT":"","PROGRAM YEAR":2011},"geometry":{"type":"Point","coordinates":[-93.271612,37.178721]}},{"type":"Feature","id":"5132dd71a288f42e67356df2","properties":{"_id":"5132dd71a288f42e67356df2","PROVIDER NPI":1710171954,"PROVIDER NAME":"AVERNENI, MADHAVI","PROVIDER STATE":"Missouri","PROVIDER CITY":"Springfield","PROVIDER  ADDRESS":"3231 S National Ave, SUITE 300","PROVIDER ZIP 5 CD":65807,"PROVIDER ZIP 4 CD":7304,"PROVIDER PHONE NUM":4178885658,"PROVIDER PHONE EXT":"","PROGRAM YEAR":2011},"geometry":{"type":"Point","coordinates":[-93.277606,37.155801]}},{"type":"Feature","id":"5132dd71a288f42e67356df3","properties":{"_id":"5132dd71a288f42e67356df3","PROVIDER NPI":1689610446,"PROVIDER NAME":"Ayers, Bryce","PROVIDER STATE":"Missouri","PROVIDER CITY":"Washington","PROVIDER  ADDRESS":"901 Patients First Drive","PROVIDER ZIP 5 CD":63090,"PROVIDER ZIP 4 CD":4700,"PROVIDER PHONE NUM":6362397500,"PROVIDER PHONE EXT":"","PROGRAM YEAR":2011},"geometry":{"type":"Point","coordinates":[-91.000734,38.553978]}},{"type":"Feature","id":"5132dd71a288f42e67356df4","properties":{"_id":"5132dd71a288f42e67356df4","PROVIDER NPI":1962495952,"PROVIDER NAME":"Azrak, Elie","PROVIDER STATE":"Missouri","PROVIDER CITY":"Florissant","PROVIDER  ADDRESS":"261 Dunn Rd","PROVIDER ZIP 5 CD":63031,"PROVIDER ZIP 4 CD":"","PROVIDER PHONE NUM":3146535125,"PROVIDER PHONE EXT":"","PROGRAM YEAR":2011},"geometry":{"type":"Point","coordinates":[-90.333502,38.775863]}},{"type":"Feature","id":"5132dd71a288f42e67356df5","properties":{"_id":"5132dd71a288f42e67356df5","PROVIDER NPI":1790869394,"PROVIDER NAME":"Baca, Steven","PROVIDER STATE":"Missouri","PROVIDER CITY":"Springfield","PROVIDER  ADDRESS":"1934 S Glenstone","PROVIDER ZIP 5 CD":65804,"PROVIDER ZIP 4 CD":4016,"PROVIDER PHONE NUM":4178870340,"PROVIDER PHONE EXT":"","PROGRAM YEAR":2011},"geometry":{"type":"Point","coordinates":[-93.262311,37.179372]}},{"type":"Feature","id":"5132dd71a288f42e67356df6","properties":{"_id":"5132dd71a288f42e67356df6","PROVIDER NPI":1609801810,"PROVIDER NAME":"BAILEY, BRIAN","PROVIDER STATE":"Missouri","PROVIDER CITY":"Springfield","PROVIDER  ADDRESS":"2115 S Fremont Ave, Suite 5000","PROVIDER ZIP 5 CD":65804,"PROVIDER ZIP 4 CD":2239,"PROVIDER PHONE NUM":4178203960,"PROVIDER PHONE EXT":"","PROGRAM YEAR":2011},"geometry":{"type":"Point","coordinates":[-93.271658,37.175862]}},{"type":"Feature","id":"5132dd71a288f42e67356df7","properties":{"_id":"5132dd71a288f42e67356df7","PROVIDER NPI":1013908714,"PROVIDER NAME":"Bailey, Sean","PROVIDER STATE":"Missouri","PROVIDER CITY":"Fenton","PROVIDER  ADDRESS":"1011 Bowles Ave, Suite 405","PROVIDER ZIP 5 CD":63026,"PROVIDER ZIP 4 CD":2395,"PROVIDER PHONE NUM":3149659184,"PROVIDER PHONE EXT":"","PROGRAM YEAR":2011},"geometry":{"type":"Point","coordinates":[-90.441968,38.4887]}},{"type":"Feature","id":"5132dd71a288f42e67356df8","properties":{"_id":"5132dd71a288f42e67356df8","PROVIDER NPI":1982645818,"PROVIDER NAME":"Bain, Kelly","PROVIDER STATE":"Missouri","PROVIDER CITY":"Washington","PROVIDER  ADDRESS":"901 Patients First Dr","PROVIDER ZIP 5 CD":63090,"PROVIDER ZIP 4 CD":4700,"PROVIDER PHONE NUM":6362394100,"PROVIDER PHONE EXT":"","PROGRAM YEAR":2011},"geometry":{"type":"Point","coordinates":[-91.000734,38.553978]}},{"type":"Feature","id":"5132dd71a288f42e67356df9","properties":{"_id":"5132dd71a288f42e67356df9","PROVIDER NPI":1043229974,"PROVIDER NAME":"Bakanas, Erin","PROVIDER STATE":"Missouri","PROVIDER CITY":"Saint Louis","PROVIDER  ADDRESS":"3660 Vista Ave","PROVIDER ZIP 5 CD":63110,"PROVIDER ZIP 4 CD":2540,"PROVIDER PHONE NUM":3149776100,"PROVIDER PHONE EXT":"","PROGRAM YEAR":2011},"geometry":{"type":"Point","coordinates":[-90.24005,38.622614]}},{"type":"Feature","id":"5132dd71a288f42e67356dfa","properties":{"_id":"5132dd71a288f42e67356dfa","PROVIDER NPI":1538169701,"PROVIDER NAME":"Balettie, Amy","PROVIDER STATE":"Missouri","PROVIDER CITY":"St. Louis","PROVIDER  ADDRESS":"8430 Watson Rd","PROVIDER ZIP 5 CD":63119,"PROVIDER ZIP 4 CD":"","PROVIDER PHONE NUM":3148423600,"PROVIDER PHONE EXT":"","PROGRAM YEAR":2011},"geometry":{"type":"Point","coordinates":[-90.352813,38.565788]}},{"type":"Feature","id":"5132dd71a288f42e67356dfb","properties":{"_id":"5132dd71a288f42e67356dfb","PROVIDER NPI":1043284730,"PROVIDER NAME":"Ballard, Elizabeth","PROVIDER STATE":"Missouri","PROVIDER CITY":"Arnold","PROVIDER  ADDRESS":"3619 Richardson Square Dr, Suite 170","PROVIDER ZIP 5 CD":63010,"PROVIDER ZIP 4 CD":"","PROVIDER PHONE NUM":6367176776,"PROVIDER PHONE EXT":"","PROGRAM YEAR":2011},"geometry":{"type":"Point","coordinates":[-90.384323,38.411563]}},{"type":"Feature","id":"5132dd71a288f42e67356dfc","properties":{"_id":"5132dd71a288f42e67356dfc","PROVIDER NPI":1710981519,"PROVIDER NAME":"Baller, Jeffrey","PROVIDER STATE":"Missouri","PROVIDER CITY":"Poplar Bluff","PROVIDER  ADDRESS":"225 Physicians Park Dr, Suite 102","PROVIDER ZIP 5 CD":63901,"PROVIDER ZIP 4 CD":3956,"PROVIDER PHONE NUM":5737854546,"PROVIDER PHONE EXT":"","PROGRAM YEAR":2011},"geometry":{"type":"Point","coordinates":[-90.459098,36.76761]}},{"type":"Feature","id":"5132dd71a288f42e67356dfd","properties":{"_id":"5132dd71a288f42e67356dfd","PROVIDER NPI":1255387577,"PROVIDER NAME":"Balun, Donald","PROVIDER STATE":"Missouri","PROVIDER CITY":"Springfield","PROVIDER  ADDRESS":"1965 S Fremont Ave, Suite 330","PROVIDER ZIP 5 CD":65804,"PROVIDER ZIP 4 CD":2201,"PROVIDER PHONE NUM":4178208180,"PROVIDER PHONE EXT":"","PROGRAM YEAR":2011},"geometry":{"type":"Point","coordinates":[-93.271612,37.178721]}},{"type":"Feature","id":"5132dd71a288f42e67356dfe","properties":{"_id":"5132dd71a288f42e67356dfe","PROVIDER NPI":1922034321,"PROVIDER NAME":"Bandi, Somasekhar","PROVIDER STATE":"Missouri","PROVIDER CITY":"Saint Louis","PROVIDER  ADDRESS":"6435 Chippewa St","PROVIDER ZIP 5 CD":63109,"PROVIDER ZIP 4 CD":2104,"PROVIDER PHONE NUM":3143531879,"PROVIDER PHONE EXT":"","PROGRAM YEAR":2011},"geometry":{"type":"Point","coordinates":[-90.299355,38.593694]}},{"type":"Feature","id":"5132dd71a288f42e67356dff","properties":{"_id":"5132dd71a288f42e67356dff","PROVIDER NPI":1023011020,"PROVIDER NAME":"Banks, James","PROVIDER STATE":"Missouri","PROVIDER CITY":"Saint Louis","PROVIDER  ADDRESS":"12680 Olive Blvd, Suite 200","PROVIDER ZIP 5 CD":63141,"PROVIDER ZIP 4 CD":6322,"PROVIDER PHONE NUM":3142518890,"PROVIDER PHONE EXT":"","PROGRAM YEAR":2011},"geometry":{"type":"Point","coordinates":[-90.470102,38.678664]}},{"type":"Feature","id":"5132dd71a288f42e67356e00","properties":{"_id":"5132dd71a288f42e67356e00","PROVIDER NPI":1477654630,"PROVIDER NAME":"Bansal, Sharad","PROVIDER STATE":"Missouri","PROVIDER CITY":"Springfield","PROVIDER  ADDRESS":"1900 S National Ave, Suite 3600","PROVIDER ZIP 5 CD":65804,"PROVIDER ZIP 4 CD":2265,"PROVIDER PHONE NUM":4178203911,"PROVIDER PHONE EXT":"","PROGRAM YEAR":2011},"geometry":{"type":"Point","coordinates":[-93.276669,37.180169]}},{"type":"Feature","id":"5132dd71a288f42e67356e01","properties":{"_id":"5132dd71a288f42e67356e01","PROVIDER NPI":1144206434,"PROVIDER NAME":"Barbanell, Seth","PROVIDER STATE":"Missouri","PROVIDER CITY":"Saint Louis","PROVIDER  ADDRESS":"625 S New Ballas Rd, Sutie 2015","PROVIDER ZIP 5 CD":63141,"PROVIDER ZIP 4 CD":8253,"PROVIDER PHONE NUM":3142511700,"PROVIDER PHONE EXT":"","PROGRAM YEAR":2011},"geometry":{"type":"Point","coordinates":[-90.443512,38.644215]}},{"type":"Feature","id":"5132dd71a288f42e67356e02","properties":{"_id":"5132dd71a288f42e67356e02","PROVIDER NPI":1871667618,"PROVIDER NAME":"Barbe, David","PROVIDER STATE":"Missouri","PROVIDER CITY":"Mountain Grove","PROVIDER  ADDRESS":"120 W 16th St","PROVIDER ZIP 5 CD":65711,"PROVIDER ZIP 4 CD":1039,"PROVIDER PHONE NUM":4179266111,"PROVIDER PHONE EXT":"","PROGRAM YEAR":2011},"geometry":{"type":"Point","coordinates":[-92.263432,37.142276]}},{"type":"Feature","id":"5132dd71a288f42e67356e03","properties":{"_id":"5132dd71a288f42e67356e03","PROVIDER NPI":1720015613,"PROVIDER NAME":"Barnes, Bryan","PROVIDER STATE":"Missouri","PROVIDER CITY":"Joplin","PROVIDER  ADDRESS":"1002 Mc Intosh Cir, Ste 6","PROVIDER ZIP 5 CD":64804,"PROVIDER ZIP 4 CD":3642,"PROVIDER PHONE NUM":4177810250,"PROVIDER PHONE EXT":"","PROGRAM YEAR":2011},"geometry":{"type":"Point","coordinates":[-94.546191,36.954263]}},{"type":"Feature","id":"5132dd71a288f42e67356e04","properties":{"_id":"5132dd71a288f42e67356e04","PROVIDER NPI":1336297944,"PROVIDER NAME":"Barth, John","PROVIDER STATE":"Missouri","PROVIDER CITY":"Kearney","PROVIDER  ADDRESS":"15415 State Route 92","PROVIDER ZIP 5 CD":64060,"PROVIDER ZIP 4 CD":8002,"PROVIDER PHONE NUM":8166286128,"PROVIDER PHONE EXT":"","PROGRAM YEAR":2011},"geometry":{"type":"Point","coordinates":[-94.388899,39.367878]}},{"type":"Feature","id":"5132dd71a288f42e67356e05","properties":{"_id":"5132dd71a288f42e67356e05","PROVIDER NPI":1437142635,"PROVIDER NAME":"Barth, Lindsay","PROVIDER STATE":"Missouri","PROVIDER CITY":"Saint Louis","PROVIDER  ADDRESS":"2315 Dougherty Ferry Rd, Suite 110","PROVIDER ZIP 5 CD":63122,"PROVIDER ZIP 4 CD":3383,"PROVIDER PHONE NUM":3149091920,"PROVIDER PHONE EXT":"","PROGRAM YEAR":2011},"geometry":{"type":"Point","coordinates":[-90.447683,38.581756]}},{"type":"Feature","id":"5132dd71a288f42e67356e06","properties":{"_id":"5132dd71a288f42e67356e06","PROVIDER NPI":1538147046,"PROVIDER NAME":"Bartlett, Danny","PROVIDER STATE":"Missouri","PROVIDER CITY":"Excelsior Springs","PROVIDER  ADDRESS":"1236 N Jesse James Rd","PROVIDER ZIP 5 CD":64024,"PROVIDER ZIP 4 CD":1119,"PROVIDER PHONE NUM":8166306699,"PROVIDER PHONE EXT":"","PROGRAM YEAR":2011},"geometry":{"type":"Point","coordinates":[-94.235122,39.357246]}},{"type":"Feature","id":"5132dd71a288f42e67356e07","properties":{"_id":"5132dd71a288f42e67356e07","PROVIDER NPI":1053567644,"PROVIDER NAME":"Basheer, Saad","PROVIDER STATE":"Missouri","PROVIDER CITY":"Saint Louis","PROVIDER  ADDRESS":"1402 S Grand Blvd","PROVIDER ZIP 5 CD":63104,"PROVIDER ZIP 4 CD":1004,"PROVIDER PHONE NUM":3149778462,"PROVIDER PHONE EXT":"","PROGRAM YEAR":2011},"geometry":{"type":"Point","coordinates":[-90.237816,38.622697]}},{"type":"Feature","id":"5132dd71a288f42e67356e08","properties":{"_id":"5132dd71a288f42e67356e08","PROVIDER NPI":1235124736,"PROVIDER NAME":"Bassman, Donald","PROVIDER STATE":"Missouri","PROVIDER CITY":"Saint Louis","PROVIDER  ADDRESS":"522 N New Ballas Rd, Suite 199","PROVIDER ZIP 5 CD":63141,"PROVIDER ZIP 4 CD":6857,"PROVIDER PHONE NUM":3145679400,"PROVIDER PHONE EXT":"","PROGRAM YEAR":2011},"geometry":{"type":"Point","coordinates":[-90.443357,38.64505]}},{"type":"Feature","id":"5132dd71a288f42e67356e09","properties":{"_id":"5132dd71a288f42e67356e09","PROVIDER NPI":1699703785,"PROVIDER NAME":"Basta, Peter","PROVIDER STATE":"Missouri","PROVIDER CITY":"Kansas City","PROVIDER  ADDRESS":"6420 Prospect Avenue, Suite T411","PROVIDER ZIP 5 CD":64132,"PROVIDER ZIP 4 CD":4182,"PROVIDER PHONE NUM":8163632500,"PROVIDER PHONE EXT":"","PROGRAM YEAR":2011},"geometry":{"type":"Point","coordinates":[-94.556336,39.010381]}},{"type":"Feature","id":"5132dd71a288f42e67356e0a","properties":{"_id":"5132dd71a288f42e67356e0a","PROVIDER NPI":1144222506,"PROVIDER NAME":"Bauer, Daniel","PROVIDER STATE":"Missouri","PROVIDER CITY":"Saint Louis","PROVIDER  ADDRESS":"12855 N 40 Dr, Suite 280","PROVIDER ZIP 5 CD":63141,"PROVIDER ZIP 4 CD":8657,"PROVIDER PHONE NUM":3144324415,"PROVIDER PHONE EXT":"","PROGRAM YEAR":2011},"geometry":{"type":"Point","coordinates":[-90.477439,38.639036]}},{"type":"Feature","id":"5132dd71a288f42e67356e0b","properties":{"_id":"5132dd71a288f42e67356e0b","PROVIDER NPI":1699834739,"PROVIDER NAME":"Bauerle, Stephanie","PROVIDER STATE":"Missouri","PROVIDER CITY":"Union","PROVIDER  ADDRESS":"1780 Old US Highway 50 E, Suite 115","PROVIDER ZIP 5 CD":63084,"PROVIDER ZIP 4 CD":"","PROVIDER PHONE NUM":6365838555,"PROVIDER PHONE EXT":"","PROGRAM YEAR":2011},"geometry":{"type":"Point","coordinates":[-90.950415,38.436553]}},{"type":"Feature","id":"5132dd71a288f42e67356e0c","properties":{"_id":"5132dd71a288f42e67356e0c","PROVIDER NPI":1538200134,"PROVIDER NAME":"Baurichter, John","PROVIDER STATE":"Missouri","PROVIDER CITY":"Springfield","PROVIDER  ADDRESS":"2730 E Sunshine St","PROVIDER ZIP 5 CD":65804,"PROVIDER ZIP 4 CD":2047,"PROVIDER PHONE NUM":4178830600,"PROVIDER PHONE EXT":"","PROGRAM YEAR":2011},"geometry":{"type":"Point","coordinates":[-93.240763,37.180698]}},{"type":"Feature","id":"5132dd71a288f42e67356e0d","properties":{"_id":"5132dd71a288f42e67356e0d","PROVIDER NPI":1518984053,"PROVIDER NAME":"Baxter, Andrea","PROVIDER STATE":"Missouri","PROVIDER CITY":"Saint Louis","PROVIDER  ADDRESS":"1035 Bellevue Ave, SUITE 206","PROVIDER ZIP 5 CD":63117,"PROVIDER ZIP 4 CD":1854,"PROVIDER PHONE NUM":3147814922,"PROVIDER PHONE EXT":"","PROGRAM YEAR":2011},"geometry":{"type":"Point","coordinates":[-90.312173,38.632603]}},{"type":"Feature","id":"5132dd71a288f42e67356e0e","properties":{"_id":"5132dd71a288f42e67356e0e","PROVIDER NPI":1619940392,"PROVIDER NAME":"Beaman, William","PROVIDER STATE":"Missouri","PROVIDER CITY":"Hazelwood","PROVIDER  ADDRESS":"755 Dunn Rd, Suite 110","PROVIDER ZIP 5 CD":63042,"PROVIDER ZIP 4 CD":1751,"PROVIDER PHONE NUM":3147311113,"PROVIDER PHONE EXT":"","PROGRAM YEAR":2011},"geometry":{"type":"Point","coordinates":[-90.375342,38.782391]}},{"type":"Feature","id":"5132dd71a288f42e67356e0f","properties":{"_id":"5132dd71a288f42e67356e0f","PROVIDER NPI":1801019617,"PROVIDER NAME":"Bear, Taylor","PROVIDER STATE":"Missouri","PROVIDER CITY":"Joplin","PROVIDER  ADDRESS":"3020 Saint Johns Blvd, Suite E3","PROVIDER ZIP 5 CD":64804,"PROVIDER ZIP 4 CD":1564,"PROVIDER PHONE NUM":4176596876,"PROVIDER PHONE EXT":"","PROGRAM YEAR":2011},"geometry":{"type":"Point","coordinates":[-94.488012,37.117441]}},{"type":"Feature","id":"5132dd71a288f42e67356e10","properties":{"_id":"5132dd71a288f42e67356e10","PROVIDER NPI":1922025469,"PROVIDER NAME":"Beardslee, Michael","PROVIDER STATE":"Missouri","PROVIDER CITY":"Washington","PROVIDER  ADDRESS":"901 Patients First Dr","PROVIDER ZIP 5 CD":63090,"PROVIDER ZIP 4 CD":4700,"PROVIDER PHONE NUM":6362392781,"PROVIDER PHONE EXT":"","PROGRAM YEAR":2011},"geometry":{"type":"Point","coordinates":[-91.000734,38.553978]}},{"type":"Feature","id":"5132dd71a288f42e67356e11","properties":{"_id":"5132dd71a288f42e67356e11","PROVIDER NPI":1225198013,"PROVIDER NAME":"Beatty, Jeremy","PROVIDER STATE":"Missouri","PROVIDER CITY":"Ferguson","PROVIDER  ADDRESS":"248 S Florissant Rd","PROVIDER ZIP 5 CD":63135,"PROVIDER ZIP 4 CD":2736,"PROVIDER PHONE NUM":3145228773,"PROVIDER PHONE EXT":"","PROGRAM YEAR":2011},"geometry":{"type":"Point","coordinates":[-90.303416,38.740639]}},{"type":"Feature","id":"5132dd71a288f42e67356e12","properties":{"_id":"5132dd71a288f42e67356e12","PROVIDER NPI":1235322736,"PROVIDER NAME":"Beben, Katherine","PROVIDER STATE":"Missouri","PROVIDER CITY":"El Dorado Springs","PROVIDER  ADDRESS":"309 E Hospital Rd","PROVIDER ZIP 5 CD":64744,"PROVIDER ZIP 4 CD":2021,"PROVIDER PHONE NUM":4178765851,"PROVIDER PHONE EXT":"","PROGRAM YEAR":2011},"geometry":{"type":"Point","coordinates":[-94.018303,37.859398]}},{"type":"Feature","id":"5132dd71a288f42e67356e13","properties":{"_id":"5132dd71a288f42e67356e13","PROVIDER NPI":1821062266,"PROVIDER NAME":"Beckerdite, Matthew","PROVIDER STATE":"Missouri","PROVIDER CITY":"O Fallon","PROVIDER  ADDRESS":"300 Winding Woods Dr, Suite 222","PROVIDER ZIP 5 CD":63366,"PROVIDER ZIP 4 CD":4771,"PROVIDER PHONE NUM":6369788600,"PROVIDER PHONE EXT":"","PROGRAM YEAR":2011},"geometry":{"type":"Point","coordinates":[-90.673529,38.817229]}},{"type":"Feature","id":"5132dd71a288f42e67356e14","properties":{"_id":"5132dd71a288f42e67356e14","PROVIDER NPI":1326063983,"PROVIDER NAME":"BeDell, Andrew","PROVIDER STATE":"Missouri","PROVIDER CITY":"Warrensburg","PROVIDER  ADDRESS":"638 East Young Ave","PROVIDER ZIP 5 CD":64093,"PROVIDER ZIP 4 CD":"","PROVIDER PHONE NUM":6604295533,"PROVIDER PHONE EXT":"","PROGRAM YEAR":2011},"geometry":{"type":"Point","coordinates":[-93.723261,38.771314]}},{"type":"Feature","id":"5132dd71a288f42e67356e15","properties":{"_id":"5132dd71a288f42e67356e15","PROVIDER NPI":1124223011,"PROVIDER NAME":"Behshad, Ramona","PROVIDER STATE":"Missouri","PROVIDER CITY":"Chesterfield","PROVIDER  ADDRESS":"1001 Chesterfield Pkwy E, Suite 101","PROVIDER ZIP 5 CD":63017,"PROVIDER ZIP 4 CD":2167,"PROVIDER PHONE NUM":3148783839,"PROVIDER PHONE EXT":"","PROGRAM YEAR":2011},"geometry":{"type":"Point","coordinates":[-90.565344,38.647926]}},{"type":"Feature","id":"5132dd71a288f42e67356e16","properties":{"_id":"5132dd71a288f42e67356e16","PROVIDER NPI":1699816470,"PROVIDER NAME":"Bell, Hollis","PROVIDER STATE":"Missouri","PROVIDER CITY":"Springfield","PROVIDER  ADDRESS":"1235 E Cherokee St","PROVIDER ZIP 5 CD":65804,"PROVIDER ZIP 4 CD":2203,"PROVIDER PHONE NUM":4178202364,"PROVIDER PHONE EXT":"","PROGRAM YEAR":2011},"geometry":{"type":"Point","coordinates":[-93.271549,37.178089]}},{"type":"Feature","id":"5132dd71a288f42e67356e17","properties":{"_id":"5132dd71a288f42e67356e17","PROVIDER NPI":1134194863,"PROVIDER NAME":"Bellamy, Michele","PROVIDER STATE":"Missouri","PROVIDER CITY":"Saint Louis","PROVIDER  ADDRESS":"1715 Deer Tracks Trl, Suite 110","PROVIDER ZIP 5 CD":63131,"PROVIDER ZIP 4 CD":1839,"PROVIDER PHONE NUM":3149192600,"PROVIDER PHONE EXT":"","PROGRAM YEAR":2011},"geometry":{"type":"Point","coordinates":[-90.453201,38.608812]}},{"type":"Feature","id":"5132dd71a288f42e67356e18","properties":{"_id":"5132dd71a288f42e67356e18","PROVIDER NPI":1093711137,"PROVIDER NAME":"Bellamy, Todd","PROVIDER STATE":"Missouri","PROVIDER CITY":"Creve Coeur","PROVIDER  ADDRESS":"736 N New Ballas Rd","PROVIDER ZIP 5 CD":63141,"PROVIDER ZIP 4 CD":6716,"PROVIDER PHONE NUM":3144321134,"PROVIDER PHONE EXT":"","PROGRAM YEAR":2011},"geometry":{"type":"Point","coordinates":[-90.443231,38.669195]}},{"type":"Feature","id":"5132dd71a288f42e67356e19","properties":{"_id":"5132dd71a288f42e67356e19","PROVIDER NPI":1790874931,"PROVIDER NAME":"Benedict, Holly","PROVIDER STATE":"Missouri","PROVIDER CITY":"Ozark","PROVIDER  ADDRESS":"1106 W Jackson St","PROVIDER ZIP 5 CD":65721,"PROVIDER ZIP 4 CD":9164,"PROVIDER PHONE NUM":4175813548,"PROVIDER PHONE EXT":"","PROGRAM YEAR":2011},"geometry":{"type":"Point","coordinates":[-93.206268,37.023973]}},{"type":"Feature","id":"5132dd71a288f42e67356e1a","properties":{"_id":"5132dd71a288f42e67356e1a","PROVIDER NPI":1942359005,"PROVIDER NAME":"BENOIST, PATRICIA","PROVIDER STATE":"Missouri","PROVIDER CITY":"Houston","PROVIDER  ADDRESS":"1422 S Sam Houston Blvd","PROVIDER ZIP 5 CD":65483,"PROVIDER ZIP 4 CD":2130,"PROVIDER PHONE NUM":4179674445,"PROVIDER PHONE EXT":"","PROGRAM YEAR":2011},"geometry":{"type":"Point","coordinates":[-91.960227,37.312636]}},{"type":"Feature","id":"5132dd71a288f42e67356e1b","properties":{"_id":"5132dd71a288f42e67356e1b","PROVIDER NPI":1972730091,"PROVIDER NAME":"Bequette, Laura","PROVIDER STATE":"Missouri","PROVIDER CITY":"Imperial","PROVIDER  ADDRESS":"1259 Main Street Plaza","PROVIDER ZIP 5 CD":63052,"PROVIDER ZIP 4 CD":"","PROVIDER PHONE NUM":6364610470,"PROVIDER PHONE EXT":"","PROGRAM YEAR":2011},"geometry":{"type":"Point","coordinates":[-90.380795,38.369488]}},{"type":"Feature","id":"5132dd71a288f42e67356e1c","properties":{"_id":"5132dd71a288f42e67356e1c","PROVIDER NPI":1720027212,"PROVIDER NAME":"BERGHOFF, KEENAN","PROVIDER STATE":"Missouri","PROVIDER CITY":"Kansas City","PROVIDER  ADDRESS":"5400 N Oak Trfy, Suite 101","PROVIDER ZIP 5 CD":64118,"PROVIDER ZIP 4 CD":4688,"PROVIDER PHONE NUM":8164553990,"PROVIDER PHONE EXT":109,"PROGRAM YEAR":2011},"geometry":{"type":"Point","coordinates":[-94.57678,39.181878]}},{"type":"Feature","id":"5132dd71a288f42e67356e1d","properties":{"_id":"5132dd71a288f42e67356e1d","PROVIDER NPI":1538153606,"PROVIDER NAME":"Bernhard, Bradley","PROVIDER STATE":"Missouri","PROVIDER CITY":"Saint Louis","PROVIDER  ADDRESS":"7345 Watson Rd","PROVIDER ZIP 5 CD":63119,"PROVIDER ZIP 4 CD":4405,"PROVIDER PHONE NUM":3147527100,"PROVIDER PHONE EXT":8641,"PROGRAM YEAR":2011},"geometry":{"type":"Point","coordinates":[-90.320222,38.581748]}},{"type":"Feature","id":"5132dd71a288f42e67356e1e","properties":{"_id":"5132dd71a288f42e67356e1e","PROVIDER NPI":1760456800,"PROVIDER NAME":"Bernier, Paul","PROVIDER STATE":"Missouri","PROVIDER CITY":"Saint Louis","PROVIDER  ADDRESS":"6756 Chippewa St","PROVIDER ZIP 5 CD":63109,"PROVIDER ZIP 4 CD":2542,"PROVIDER PHONE NUM":3143514991,"PROVIDER PHONE EXT":"","PROGRAM YEAR":2011},"geometry":{"type":"Point","coordinates":[-90.307973,38.58942]}},{"type":"Feature","id":"5132dd71a288f42e67356e1f","properties":{"_id":"5132dd71a288f42e67356e1f","PROVIDER NPI":1265526859,"PROVIDER NAME":"Bert, Armon","PROVIDER STATE":"Missouri","PROVIDER CITY":"Perryville","PROVIDER  ADDRESS":"1304 Brenda Ave Ste B","PROVIDER ZIP 5 CD":63775,"PROVIDER ZIP 4 CD":2303,"PROVIDER PHONE NUM":5735478300,"PROVIDER PHONE EXT":"","PROGRAM YEAR":2011},"geometry":{"type":"Point","coordinates":[-89.884763,37.719734]}},{"type":"Feature","id":"5132dd71a288f42e67356e20","properties":{"_id":"5132dd71a288f42e67356e20","PROVIDER NPI":1376647644,"PROVIDER NAME":"Berwald, Bruce","PROVIDER STATE":"Missouri","PROVIDER CITY":"Bridgeton","PROVIDER  ADDRESS":"3478 Bridgeland Dr","PROVIDER ZIP 5 CD":63044,"PROVIDER ZIP 4 CD":2619,"PROVIDER PHONE NUM":3147398200,"PROVIDER PHONE EXT":"","PROGRAM YEAR":2011},"geometry":{"type":"Point","coordinates":[-90.428433,38.748779]}},{"type":"Feature","id":"5132dd71a288f42e67356e21","properties":{"_id":"5132dd71a288f42e67356e21","PROVIDER NPI":1811084734,"PROVIDER NAME":"Berwald, David","PROVIDER STATE":"Missouri","PROVIDER CITY":"Bridgeton","PROVIDER  ADDRESS":"3478 Bridgeland Dr","PROVIDER ZIP 5 CD":63044,"PROVIDER ZIP 4 CD":2619,"PROVIDER PHONE NUM":3147398200,"PROVIDER PHONE EXT":"","PROGRAM YEAR":2011},"geometry":{"type":"Point","coordinates":[-90.428433,38.748779]}},{"type":"Feature","id":"5132dd71a288f42e67356e22","properties":{"_id":"5132dd71a288f42e67356e22","PROVIDER NPI":1144273657,"PROVIDER NAME":"Bettonville, Peter","PROVIDER STATE":"Missouri","PROVIDER CITY":"St. Louis","PROVIDER  ADDRESS":"3844 S Lindbergh Blvd., Suite 160","PROVIDER ZIP 5 CD":63127,"PROVIDER ZIP 4 CD":"","PROVIDER PHONE NUM":3146982500,"PROVIDER PHONE EXT":"","PROGRAM YEAR":2011},"geometry":{"type":"Point","coordinates":[-90.405354,38.548446]}},{"type":"Feature","id":"5132dd71a288f42e67356e23","properties":{"_id":"5132dd71a288f42e67356e23","PROVIDER NPI":1396754842,"PROVIDER NAME":"Bhalla, Amita","PROVIDER STATE":"Missouri","PROVIDER CITY":"St. Louis","PROVIDER  ADDRESS":"3844 S. Lindbergh Blvd, Suite 160","PROVIDER ZIP 5 CD":63127,"PROVIDER ZIP 4 CD":"","PROVIDER PHONE NUM":3146982500,"PROVIDER PHONE EXT":"","PROGRAM YEAR":2011},"geometry":{"type":"Point","coordinates":[-90.405354,38.548446]}},{"type":"Feature","id":"5132dd71a288f42e67356e24","properties":{"_id":"5132dd71a288f42e67356e24","PROVIDER NPI":1396753018,"PROVIDER NAME":"Bhutto, Shadab","PROVIDER STATE":"Missouri","PROVIDER CITY":"St. Louis","PROVIDER  ADDRESS":"621 S New Ballas Road","PROVIDER ZIP 5 CD":63141,"PROVIDER ZIP 4 CD":"","PROVIDER PHONE NUM":3142516800,"PROVIDER PHONE EXT":"","PROGRAM YEAR":2011},"geometry":{"type":"Point","coordinates":[-90.443511,38.644332]}},{"type":"Feature","id":"5132dd71a288f42e67356e25","properties":{"_id":"5132dd71a288f42e67356e25","PROVIDER NPI":1154327039,"PROVIDER NAME":"Biel, Stanley","PROVIDER STATE":"Missouri","PROVIDER CITY":"Bridgeton","PROVIDER  ADDRESS":"12255 DePaul Drive, Suite 460","PROVIDER ZIP 5 CD":63044,"PROVIDER ZIP 4 CD":"","PROVIDER PHONE NUM":3147709888,"PROVIDER PHONE EXT":"","PROGRAM YEAR":2011},"geometry":{"type":"Point","coordinates":[-90.430191,38.749624]}},{"type":"Feature","id":"5132dd71a288f42e67356e26","properties":{"_id":"5132dd71a288f42e67356e26","PROVIDER NPI":1851520175,"PROVIDER NAME":"Biermann, Kevin","PROVIDER STATE":"Missouri","PROVIDER CITY":"Washington","PROVIDER  ADDRESS":"3071 Phoenix Center Dr","PROVIDER ZIP 5 CD":63090,"PROVIDER ZIP 4 CD":5690,"PROVIDER PHONE NUM":6367772345,"PROVIDER PHONE EXT":"","PROGRAM YEAR":2011},"geometry":{"type":"Point","coordinates":[-90.992129,38.547741]}},{"type":"Feature","id":"5132dd71a288f42e67356e27","properties":{"_id":"5132dd71a288f42e67356e27","PROVIDER NPI":1588862544,"PROVIDER NAME":"Binek, Joshua","PROVIDER STATE":"Missouri","PROVIDER CITY":"Saint Louis","PROVIDER  ADDRESS":"621 S. New Ballas Rd., Suite 507A","PROVIDER ZIP 5 CD":63141,"PROVIDER ZIP 4 CD":"","PROVIDER PHONE NUM":3142516800,"PROVIDER PHONE EXT":"","PROGRAM YEAR":2011},"geometry":{"type":"Point","coordinates":[-90.443511,38.644332]}},{"type":"Feature","id":"5132dd71a288f42e67356e28","properties":{"_id":"5132dd71a288f42e67356e28","PROVIDER NPI":1285803353,"PROVIDER NAME":"Birchem, Jessica","PROVIDER STATE":"Missouri","PROVIDER CITY":"Springfield","PROVIDER  ADDRESS":"2115 S Fremont Ave, Suite 4300","PROVIDER ZIP 5 CD":65804,"PROVIDER ZIP 4 CD":2239,"PROVIDER PHONE NUM":4178203911,"PROVIDER PHONE EXT":"","PROGRAM YEAR":2011},"geometry":{"type":"Point","coordinates":[-93.271658,37.175862]}},{"type":"Feature","id":"5132dd71a288f42e67356e29","properties":{"_id":"5132dd71a288f42e67356e29","PROVIDER NPI":1336145481,"PROVIDER NAME":"Bissell, Amanda","PROVIDER STATE":"Missouri","PROVIDER CITY":"Union","PROVIDER  ADDRESS":"1595 Denmark Rd","PROVIDER ZIP 5 CD":63084,"PROVIDER ZIP 4 CD":4487,"PROVIDER PHONE NUM":6365848989,"PROVIDER PHONE EXT":"","PROGRAM YEAR":2011},"geometry":{"type":"Point","coordinates":[-90.960824,38.43132]}},{"type":"Feature","id":"5132dd71a288f42e67356e2a","properties":{"_id":"5132dd71a288f42e67356e2a","PROVIDER NPI":1598758583,"PROVIDER NAME":"Bitar, Saad","PROVIDER STATE":"Missouri","PROVIDER CITY":"Florissant","PROVIDER  ADDRESS":"261 Dunn Rd","PROVIDER ZIP 5 CD":63031,"PROVIDER ZIP 4 CD":6119,"PROVIDER PHONE NUM":3146535125,"PROVIDER PHONE EXT":"","PROGRAM YEAR":2011},"geometry":{"type":"Point","coordinates":[-90.333502,38.775863]}},{"type":"Feature","id":"5132dd71a288f42e67356e2b","properties":{"_id":"5132dd71a288f42e67356e2b","PROVIDER NPI":1740281088,"PROVIDER NAME":"Bjorn, Aaron","PROVIDER STATE":"Missouri","PROVIDER CITY":"Saint Louis","PROVIDER  ADDRESS":"4438 Telegraph Rd","PROVIDER ZIP 5 CD":63129,"PROVIDER ZIP 4 CD":3316,"PROVIDER PHONE NUM":3145435996,"PROVIDER PHONE EXT":"","PROGRAM YEAR":2011},"geometry":{"type":"Point","coordinates":[-90.304293,38.483914]}},{"type":"Feature","id":"5132dd71a288f42e67356e2c","properties":{"_id":"5132dd71a288f42e67356e2c","PROVIDER NPI":1861406092,"PROVIDER NAME":"Blackford, Mindy","PROVIDER STATE":"Missouri","PROVIDER CITY":"Kirksville","PROVIDER  ADDRESS":"1702 N Baltimore St","PROVIDER ZIP 5 CD":63501,"PROVIDER ZIP 4 CD":2485,"PROVIDER PHONE NUM":6606656262,"PROVIDER PHONE EXT":"","PROGRAM YEAR":2011},"geometry":{"type":"Point","coordinates":[-92.58105,40.209016]}},{"type":"Feature","id":"5132dd71a288f42e67356e2d","properties":{"_id":"5132dd71a288f42e67356e2d","PROVIDER NPI":1447292123,"PROVIDER NAME":"Blatt, Carl","PROVIDER STATE":"Missouri","PROVIDER CITY":"Washington","PROVIDER  ADDRESS":"901 Patients First Dr","PROVIDER ZIP 5 CD":63090,"PROVIDER ZIP 4 CD":4700,"PROVIDER PHONE NUM":6362397344,"PROVIDER PHONE EXT":"","PROGRAM YEAR":2011},"geometry":{"type":"Point","coordinates":[-91.000734,38.553978]}},{"type":"Feature","id":"5132dd71a288f42e67356e2e","properties":{"_id":"5132dd71a288f42e67356e2e","PROVIDER NPI":1134191745,"PROVIDER NAME":"Blatt, Geoffrey","PROVIDER STATE":"Missouri","PROVIDER CITY":"Kansas City","PROVIDER  ADDRESS":"6420 Prospect Ave, Suite T411","PROVIDER ZIP 5 CD":64132,"PROVIDER ZIP 4 CD":1180,"PROVIDER PHONE NUM":8163632500,"PROVIDER PHONE EXT":"","PROGRAM YEAR":2011},"geometry":{"type":"Point","coordinates":[-94.556336,39.010381]}},{"type":"Feature","id":"5132dd71a288f42e67356e2f","properties":{"_id":"5132dd71a288f42e67356e2f","PROVIDER NPI":1366568891,"PROVIDER NAME":"Bleckman, Christy","PROVIDER STATE":"Missouri","PROVIDER CITY":"Washington","PROVIDER  ADDRESS":"851 E 5th St, Suite 328","PROVIDER ZIP 5 CD":63090,"PROVIDER ZIP 4 CD":3130,"PROVIDER PHONE NUM":6362391101,"PROVIDER PHONE EXT":"","PROGRAM YEAR":2011},"geometry":{"type":"Point","coordinates":[-91.002716,38.552498]}},{"type":"Feature","id":"5132dd71a288f42e67356e30","properties":{"_id":"5132dd71a288f42e67356e30","PROVIDER NPI":1568433951,"PROVIDER NAME":"Blucher, Mark","PROVIDER STATE":"Missouri","PROVIDER CITY":"Saint Louis","PROVIDER  ADDRESS":"625 S New Ballas Rd, Suite R-7040","PROVIDER ZIP 5 CD":63141,"PROVIDER ZIP 4 CD":8232,"PROVIDER PHONE NUM":3142516970,"PROVIDER PHONE EXT":"","PROGRAM YEAR":2011},"geometry":{"type":"Point","coordinates":[-90.443512,38.644215]}},{"type":"Feature","id":"5132dd71a288f42e67356e31","properties":{"_id":"5132dd71a288f42e67356e31","PROVIDER NPI":1437264595,"PROVIDER NAME":"Boberg, Jeffrey","PROVIDER STATE":"Missouri","PROVIDER CITY":"Bridgeton","PROVIDER  ADDRESS":"12255 De Paul Dr Ste 100","PROVIDER ZIP 5 CD":63044,"PROVIDER ZIP 4 CD":2510,"PROVIDER PHONE NUM":3147397100,"PROVIDER PHONE EXT":"","PROGRAM YEAR":2011},"geometry":{"type":"Point","coordinates":[-90.430191,38.749624]}},{"type":"Feature","id":"5132dd71a288f42e67356e32","properties":{"_id":"5132dd71a288f42e67356e32","PROVIDER NPI":1285673038,"PROVIDER NAME":"Boda, Mohd","PROVIDER STATE":"Missouri","PROVIDER CITY":"Joplin","PROVIDER  ADDRESS":"3126 S Jackson Ave, Ste 200","PROVIDER ZIP 5 CD":64804,"PROVIDER ZIP 4 CD":2534,"PROVIDER PHONE NUM":4177821600,"PROVIDER PHONE EXT":"","PROGRAM YEAR":2011},"geometry":{"type":"Point","coordinates":[-94.422303,37.062247]}},{"type":"Feature","id":"5132dd71a288f42e67356e33","properties":{"_id":"5132dd71a288f42e67356e33","PROVIDER NPI":1376536458,"PROVIDER NAME":"Bodenhausen, Gary","PROVIDER STATE":"Missouri","PROVIDER CITY":"Blue Springs","PROVIDER  ADDRESS":"104 No. 7 Highway","PROVIDER ZIP 5 CD":64014,"PROVIDER ZIP 4 CD":"","PROVIDER PHONE NUM":8162298880,"PROVIDER PHONE EXT":"","PROGRAM YEAR":2011},"geometry":{"type":"Point","coordinates":[-94.27248,39.016594]}},{"type":"Feature","id":"5132dd71a288f42e67356e34","properties":{"_id":"5132dd71a288f42e67356e34","PROVIDER NPI":1043380587,"PROVIDER NAME":"Bodiford, Gary","PROVIDER STATE":"Missouri","PROVIDER CITY":"Hannibal","PROVIDER  ADDRESS":"175 Shinn Lane","PROVIDER ZIP 5 CD":63401,"PROVIDER ZIP 4 CD":"","PROVIDER PHONE NUM":5734065730,"PROVIDER PHONE EXT":"","PROGRAM YEAR":2011},"geometry":{"type":"Point","coordinates":[-91.445054,39.713349]}},{"type":"Feature","id":"5132dd71a288f42e67356e35","properties":{"_id":"5132dd71a288f42e67356e35","PROVIDER NPI":1316025729,"PROVIDER NAME":"Bogaart, Adam","PROVIDER STATE":"Missouri","PROVIDER CITY":"Pevely","PROVIDER  ADDRESS":"1645 State Road Z, Suite 100","PROVIDER ZIP 5 CD":63070,"PROVIDER ZIP 4 CD":"","PROVIDER PHONE NUM":6364796888,"PROVIDER PHONE EXT":"","PROGRAM YEAR":2011},"geometry":{"type":"Point","coordinates":[-90.400801,38.287427]}},{"type":"Feature","id":"5132dd71a288f42e67356e36","properties":{"_id":"5132dd71a288f42e67356e36","PROVIDER NPI":1437159217,"PROVIDER NAME":"Boldry, Thomas","PROVIDER STATE":"Missouri","PROVIDER CITY":"Liberty","PROVIDER  ADDRESS":"550 Rush Creek Pkwy, Suite A","PROVIDER ZIP 5 CD":64068,"PROVIDER ZIP 4 CD":9608,"PROVIDER PHONE NUM":8164551155,"PROVIDER PHONE EXT":213,"PROGRAM YEAR":2011},"geometry":{"type":"Point","coordinates":[-94.448072,39.266148]}},{"type":"Feature","id":"5132dd71a288f42e67356e37","properties":{"_id":"5132dd71a288f42e67356e37","PROVIDER NPI":1982701371,"PROVIDER NAME":"Bonner, Jo","PROVIDER STATE":"Missouri","PROVIDER CITY":"St. Louis","PROVIDER  ADDRESS":"12680 Olive Blvd., Ste. 200","PROVIDER ZIP 5 CD":63141,"PROVIDER ZIP 4 CD":"","PROVIDER PHONE NUM":3142518890,"PROVIDER PHONE EXT":"","PROGRAM YEAR":2011},"geometry":{"type":"Point","coordinates":[-90.470102,38.678664]}},{"type":"Feature","id":"5132dd71a288f42e67356e38","properties":{"_id":"5132dd71a288f42e67356e38","PROVIDER NPI":1184750770,"PROVIDER NAME":"Borgmann, Jamie","PROVIDER STATE":"Missouri","PROVIDER CITY":"Union","PROVIDER  ADDRESS":"97 Saint Andrews Dr","PROVIDER ZIP 5 CD":63084,"PROVIDER ZIP 4 CD":4946,"PROVIDER PHONE NUM":6365832946,"PROVIDER PHONE EXT":"","PROGRAM YEAR":2011},"geometry":{"type":"Point","coordinates":[-90.953688,38.419125]}},{"type":"Feature","id":"5132dd71a288f42e67356e39","properties":{"_id":"5132dd71a288f42e67356e39","PROVIDER NPI":1699759209,"PROVIDER NAME":"Borson, Rachel","PROVIDER STATE":"Missouri","PROVIDER CITY":"Ballwin","PROVIDER  ADDRESS":"15945 Clayton Rd, Suite 120","PROVIDER ZIP 5 CD":63011,"PROVIDER ZIP 4 CD":2490,"PROVIDER PHONE NUM":6362565000,"PROVIDER PHONE EXT":"","PROGRAM YEAR":2011},"geometry":{"type":"Point","coordinates":[-90.590638,38.604792]}},{"type":"Feature","id":"5132dd71a288f42e67356e3a","properties":{"_id":"5132dd71a288f42e67356e3a","PROVIDER NPI":1699815225,"PROVIDER NAME":"Bosso, Daniel","PROVIDER STATE":"Missouri","PROVIDER CITY":"Springfield","PROVIDER  ADDRESS":"3231 S National Ave","PROVIDER ZIP 5 CD":65807,"PROVIDER ZIP 4 CD":7304,"PROVIDER PHONE NUM":4178885666,"PROVIDER PHONE EXT":"","PROGRAM YEAR":2011},"geometry":{"type":"Point","coordinates":[-93.277606,37.155801]}},{"type":"Feature","id":"5132dd71a288f42e67356e3b","properties":{"_id":"5132dd71a288f42e67356e3b","PROVIDER NPI":1801978259,"PROVIDER NAME":"Boulware, Robert","PROVIDER STATE":"Missouri","PROVIDER CITY":"Liberty","PROVIDER  ADDRESS":"1131 W Kansas St","PROVIDER ZIP 5 CD":64068,"PROVIDER ZIP 4 CD":2281,"PROVIDER PHONE NUM":8167925577,"PROVIDER PHONE EXT":"","PROGRAM YEAR":2011},"geometry":{"type":"Point","coordinates":[-94.439133,39.244863]}},{"type":"Feature","id":"5132dd71a288f42e67356e3c","properties":{"_id":"5132dd71a288f42e67356e3c","PROVIDER NPI":1023190493,"PROVIDER NAME":"Boulware, William","PROVIDER STATE":"Missouri","PROVIDER CITY":"Liberty","PROVIDER  ADDRESS":"1131 W Kansas St","PROVIDER ZIP 5 CD":64068,"PROVIDER ZIP 4 CD":2281,"PROVIDER PHONE NUM":8167925577,"PROVIDER PHONE EXT":"","PROGRAM YEAR":2011},"geometry":{"type":"Point","coordinates":[-94.439133,39.244863]}},{"type":"Feature","id":"5132dd71a288f42e67356e3d","properties":{"_id":"5132dd71a288f42e67356e3d","PROVIDER NPI":1629036173,"PROVIDER NAME":"Boutros, Nidal","PROVIDER STATE":"Missouri","PROVIDER CITY":"Lebanon","PROVIDER  ADDRESS":"120 Hospital Drive","PROVIDER ZIP 5 CD":65536,"PROVIDER ZIP 4 CD":"","PROVIDER PHONE NUM":4175336743,"PROVIDER PHONE EXT":"","PROGRAM YEAR":2011},"geometry":{"type":"Point","coordinates":[-92.635694,37.680833]}},{"type":"Feature","id":"5132dd71a288f42e67356e3e","properties":{"_id":"5132dd71a288f42e67356e3e","PROVIDER NPI":1851332860,"PROVIDER NAME":"Bowles, Randy","PROVIDER STATE":"Missouri","PROVIDER CITY":"Joplin","PROVIDER  ADDRESS":"1002 Mc Intosh Cir, SUITE 1","PROVIDER ZIP 5 CD":64804,"PROVIDER ZIP 4 CD":3642,"PROVIDER PHONE NUM":4177810224,"PROVIDER PHONE EXT":"","PROGRAM YEAR":2011},"geometry":{"type":"Point","coordinates":[-94.52385,37.055225]}},{"type":"Feature","id":"5132dd71a288f42e67356e3f","properties":{"_id":"5132dd71a288f42e67356e3f","PROVIDER NPI":1538155338,"PROVIDER NAME":"Bowling, Charles","PROVIDER STATE":"Missouri","PROVIDER CITY":"Monett","PROVIDER  ADDRESS":"102 E Cleveland Ave","PROVIDER ZIP 5 CD":65708,"PROVIDER ZIP 4 CD":1405,"PROVIDER PHONE NUM":4172350088,"PROVIDER PHONE EXT":"","PROGRAM YEAR":2011},"geometry":{"type":"Point","coordinates":[-93.927377,36.928902]}},{"type":"Feature","id":"5132dd71a288f42e67356e40","properties":{"_id":"5132dd71a288f42e67356e40","PROVIDER NPI":1821107939,"PROVIDER NAME":"BOYD, GREGORY","PROVIDER STATE":"Missouri","PROVIDER CITY":"Lees Summit","PROVIDER  ADDRESS":"1741 NE Douglas St Ste 200","PROVIDER ZIP 5 CD":64086,"PROVIDER ZIP 4 CD":4703,"PROVIDER PHONE NUM":8162466200,"PROVIDER PHONE EXT":"","PROGRAM YEAR":2011},"geometry":{"type":"Point","coordinates":[-94.378164,38.94335]}},{"type":"Feature","id":"5132dd71a288f42e67356e41","properties":{"_id":"5132dd71a288f42e67356e41","PROVIDER NPI":1215928114,"PROVIDER NAME":"Boyd, James","PROVIDER STATE":"Missouri","PROVIDER CITY":"Saint Louis","PROVIDER  ADDRESS":"607 S New Ballas Rd, Ste 2300","PROVIDER ZIP 5 CD":63141,"PROVIDER ZIP 4 CD":8219,"PROVIDER PHONE NUM":3142516394,"PROVIDER PHONE EXT":"","PROGRAM YEAR":2011},"geometry":{"type":"Point","coordinates":[-90.44351,38.644602]}},{"type":"Feature","id":"5132dd71a288f42e67356e42","properties":{"_id":"5132dd71a288f42e67356e42","PROVIDER NPI":1538156831,"PROVIDER NAME":"Brabbee, Gregory","PROVIDER STATE":"Missouri","PROVIDER CITY":"Saint Louis","PROVIDER  ADDRESS":"621 S New Ballas Rd, Suite 7011B","PROVIDER ZIP 5 CD":63141,"PROVIDER ZIP 4 CD":8232,"PROVIDER PHONE NUM":3142516840,"PROVIDER PHONE EXT":"","PROGRAM YEAR":2011},"geometry":{"type":"Point","coordinates":[-90.443511,38.644332]}},{"type":"Feature","id":"5132dd71a288f42e67356e43","properties":{"_id":"5132dd71a288f42e67356e43","PROVIDER NPI":1194894337,"PROVIDER NAME":"Brabson, John","PROVIDER STATE":"Missouri","PROVIDER CITY":"Springfield","PROVIDER  ADDRESS":"1235 E Cherokee St","PROVIDER ZIP 5 CD":65804,"PROVIDER ZIP 4 CD":2203,"PROVIDER PHONE NUM":4178206525,"PROVIDER PHONE EXT":"","PROGRAM YEAR":2011},"geometry":{"type":"Point","coordinates":[-93.271549,37.178089]}},{"type":"Feature","id":"5132dd71a288f42e67356e44","properties":{"_id":"5132dd71a288f42e67356e44","PROVIDER NPI":1871605808,"PROVIDER NAME":"Bradley, Shawn","PROVIDER STATE":"Missouri","PROVIDER CITY":"Arnold","PROVIDER  ADDRESS":"1761 Jeffco Blvd","PROVIDER ZIP 5 CD":63010,"PROVIDER ZIP 4 CD":2713,"PROVIDER PHONE NUM":6362961222,"PROVIDER PHONE EXT":"","PROGRAM YEAR":2011},"geometry":{"type":"Point","coordinates":[-90.377934,38.427818]}},{"type":"Feature","id":"5132dd71a288f42e67356e45","properties":{"_id":"5132dd71a288f42e67356e45","PROVIDER NPI":1518056258,"PROVIDER NAME":"Brady, Timothy","PROVIDER STATE":"Missouri","PROVIDER CITY":"St Louis","PROVIDER  ADDRESS":"10012 Kennerly Rd, Ste 101","PROVIDER ZIP 5 CD":63128,"PROVIDER ZIP 4 CD":"","PROVIDER PHONE NUM":3145435200,"PROVIDER PHONE EXT":"","PROGRAM YEAR":2011},"geometry":{"type":"Point","coordinates":[-90.377662,38.509505]}},{"type":"Feature","id":"5132dd71a288f42e67356e46","properties":{"_id":"5132dd71a288f42e67356e46","PROVIDER NPI":1164471462,"PROVIDER NAME":"Brand, Ronald","PROVIDER STATE":"Missouri","PROVIDER CITY":"Kirksville","PROVIDER  ADDRESS":"1702 N. Baltimore St.","PROVIDER ZIP 5 CD":63501,"PROVIDER ZIP 4 CD":2485,"PROVIDER PHONE NUM":6606656262,"PROVIDER PHONE EXT":"","PROGRAM YEAR":2011},"geometry":{"type":"Point","coordinates":[-92.58105,40.209016]}},{"type":"Feature","id":"5132dd71a288f42e67356e47","properties":{"_id":"5132dd71a288f42e67356e47","PROVIDER NPI":1699714121,"PROVIDER NAME":"Brandsted, Rebecca","PROVIDER STATE":"Missouri","PROVIDER CITY":"Fenton","PROVIDER  ADDRESS":"1011 Bowles Ave, Ste 405","PROVIDER ZIP 5 CD":63026,"PROVIDER ZIP 4 CD":2395,"PROVIDER PHONE NUM":3149659184,"PROVIDER PHONE EXT":"","PROGRAM YEAR":2011},"geometry":{"type":"Point","coordinates":[-90.441968,38.4887]}},{"type":"Feature","id":"5132dd71a288f42e67356e48","properties":{"_id":"5132dd71a288f42e67356e48","PROVIDER NPI":1598804825,"PROVIDER NAME":"Brawner, James","PROVIDER STATE":"Missouri","PROVIDER CITY":"Branson","PROVIDER  ADDRESS":"545 Branson Landing Blvd, Ste 410","PROVIDER ZIP 5 CD":65616,"PROVIDER ZIP 4 CD":"","PROVIDER PHONE NUM":4173353636,"PROVIDER PHONE EXT":"","PROGRAM YEAR":2011},"geometry":{"type":"Point","coordinates":[-93.226262,36.67071]}},{"type":"Feature","id":"5132dd71a288f42e67356e49","properties":{"_id":"5132dd71a288f42e67356e49","PROVIDER NPI":1033195540,"PROVIDER NAME":"Bremen, Roxane","PROVIDER STATE":"Missouri","PROVIDER CITY":"Lees Summit","PROVIDER  ADDRESS":"622 SW 3rd St","PROVIDER ZIP 5 CD":64063,"PROVIDER ZIP 4 CD":2280,"PROVIDER PHONE NUM":8163987048,"PROVIDER PHONE EXT":"","PROGRAM YEAR":2011},"geometry":{"type":"Point","coordinates":[-94.38778,38.911151]}},{"type":"Feature","id":"5132dd71a288f42e67356e4a","properties":{"_id":"5132dd71a288f42e67356e4a","PROVIDER NPI":1083664601,"PROVIDER NAME":"Brenner, Steven","PROVIDER STATE":"Missouri","PROVIDER CITY":"Saint Louis","PROVIDER  ADDRESS":"1438 S Grand Boulevard, Dept. Neurology & Psychiatry, St. Louis University","PROVIDER ZIP 5 CD":63104,"PROVIDER ZIP 4 CD":1027,"PROVIDER PHONE NUM":3149776082,"PROVIDER PHONE EXT":"","PROGRAM YEAR":2011},"geometry":{"type":"Point","coordinates":[-90.238158,38.621678]}},{"type":"Feature","id":"5132dd71a288f42e67356e4b","properties":{"_id":"5132dd71a288f42e67356e4b","PROVIDER NPI":1033306709,"PROVIDER NAME":"Brewer, Aaron","PROVIDER STATE":"Missouri","PROVIDER CITY":"Florissant","PROVIDER  ADDRESS":"3533 Dunn Rd","PROVIDER ZIP 5 CD":63033,"PROVIDER ZIP 4 CD":6761,"PROVIDER PHONE NUM":3148382100,"PROVIDER PHONE EXT":"","PROGRAM YEAR":2011},"geometry":{"type":"Point","coordinates":[-90.270347,38.771341]}},{"type":"Feature","id":"5132dd71a288f42e67356e4c","properties":{"_id":"5132dd71a288f42e67356e4c","PROVIDER NPI":1952394041,"PROVIDER NAME":"Brewer, Dale","PROVIDER STATE":"Missouri","PROVIDER CITY":"Cedar Hill","PROVIDER  ADDRESS":"6420 The Cedars Ct","PROVIDER ZIP 5 CD":63016,"PROVIDER ZIP 4 CD":2222,"PROVIDER PHONE NUM":6362742700,"PROVIDER PHONE EXT":"","PROGRAM YEAR":2011},"geometry":{"type":"Point","coordinates":[-90.646001,38.358685]}},{"type":"Feature","id":"5132dd71a288f42e67356e4d","properties":{"_id":"5132dd71a288f42e67356e4d","PROVIDER NPI":1689787459,"PROVIDER NAME":"Brick, Phillip","PROVIDER STATE":"Missouri","PROVIDER CITY":"Saint Louis","PROVIDER  ADDRESS":"605 Old Ballas Rd, Suite 200","PROVIDER ZIP 5 CD":63141,"PROVIDER ZIP 4 CD":7000,"PROVIDER PHONE NUM":3148728740,"PROVIDER PHONE EXT":336,"PROGRAM YEAR":2011},"geometry":{"type":"Point","coordinates":[-90.438629,38.668237]}},{"type":"Feature","id":"5132dd71a288f42e67356e4e","properties":{"_id":"5132dd71a288f42e67356e4e","PROVIDER NPI":1881613347,"PROVIDER NAME":"Brightfield, Kenneth","PROVIDER STATE":"Missouri","PROVIDER CITY":"Saint Louis","PROVIDER  ADDRESS":"12855 N 40 Dr","PROVIDER ZIP 5 CD":63141,"PROVIDER ZIP 4 CD":8657,"PROVIDER PHONE NUM":3144324415,"PROVIDER PHONE EXT":"","PROGRAM YEAR":2011},"geometry":{"type":"Point","coordinates":[-90.477439,38.639036]}},{"type":"Feature","id":"5132dd71a288f42e67356e4f","properties":{"_id":"5132dd71a288f42e67356e4f","PROVIDER NPI":1780656058,"PROVIDER NAME":"Brischetto, Michael","PROVIDER STATE":"Missouri","PROVIDER CITY":"Saint Louis","PROVIDER  ADDRESS":"621 S New Ballas Rd, Suite 228-A","PROVIDER ZIP 5 CD":63141,"PROVIDER ZIP 4 CD":8232,"PROVIDER PHONE NUM":3142514966,"PROVIDER PHONE EXT":"","PROGRAM YEAR":2011},"geometry":{"type":"Point","coordinates":[-90.443511,38.644332]}},{"type":"Feature","id":"5132dd71a288f42e67356e50","properties":{"_id":"5132dd71a288f42e67356e50","PROVIDER NPI":1275573081,"PROVIDER NAME":"Broadhead, Brian","PROVIDER STATE":"Missouri","PROVIDER CITY":"Florissant","PROVIDER  ADDRESS":"111 Florissant Oaks Shop Ctr","PROVIDER ZIP 5 CD":63031,"PROVIDER ZIP 4 CD":3933,"PROVIDER PHONE NUM":3148378477,"PROVIDER PHONE EXT":"","PROGRAM YEAR":2011},"geometry":{"type":"Point","coordinates":[-90.334561,38.804876]}},{"type":"Feature","id":"5132dd71a288f42e67356e51","properties":{"_id":"5132dd71a288f42e67356e51","PROVIDER NPI":1356384242,"PROVIDER NAME":"BROCKMAN, DON","PROVIDER STATE":"Missouri","PROVIDER CITY":"Springfield","PROVIDER  ADDRESS":"2730 E Sunshine","PROVIDER ZIP 5 CD":65804,"PROVIDER ZIP 4 CD":2047,"PROVIDER PHONE NUM":4178830600,"PROVIDER PHONE EXT":"","PROGRAM YEAR":2011},"geometry":{"type":"Point","coordinates":[-93.240763,37.180698]}},{"type":"Feature","id":"5132dd71a288f42e67356e52","properties":{"_id":"5132dd71a288f42e67356e52","PROVIDER NPI":1235139221,"PROVIDER NAME":"Brockman, Kirk","PROVIDER STATE":"Missouri","PROVIDER CITY":"Saint Clair","PROVIDER  ADDRESS":"370 N Commercial Ave","PROVIDER ZIP 5 CD":63077,"PROVIDER ZIP 4 CD":1305,"PROVIDER PHONE NUM":6366293300,"PROVIDER PHONE EXT":"","PROGRAM YEAR":2011},"geometry":{"type":"Point","coordinates":[-90.982951,38.350857]}},{"type":"Feature","id":"5132dd71a288f42e67356e53","properties":{"_id":"5132dd71a288f42e67356e53","PROVIDER NPI":1124135454,"PROVIDER NAME":"Bromberg, Burt","PROVIDER STATE":"Missouri","PROVIDER CITY":"Saint Louis","PROVIDER  ADDRESS":"621 S New Ballas Rd, Suite 198-A","PROVIDER ZIP 5 CD":63141,"PROVIDER ZIP 4 CD":8232,"PROVIDER PHONE NUM":3142516777,"PROVIDER PHONE EXT":"","PROGRAM YEAR":2011},"geometry":{"type":"Point","coordinates":[-90.443511,38.644332]}},{"type":"Feature","id":"5132dd71a288f42e67356e54","properties":{"_id":"5132dd71a288f42e67356e54","PROVIDER NPI":1013082585,"PROVIDER NAME":"BROOKS, ALBERT","PROVIDER STATE":"Missouri","PROVIDER CITY":"Saint Louis","PROVIDER  ADDRESS":"7605 Natural Bridge Rd, STE 101","PROVIDER ZIP 5 CD":63121,"PROVIDER ZIP 4 CD":4904,"PROVIDER PHONE NUM":3142614844,"PROVIDER PHONE EXT":"","PROGRAM YEAR":2011},"geometry":{"type":"Point","coordinates":[-90.296028,38.703831]}},{"type":"Feature","id":"5132dd71a288f42e67356e55","properties":{"_id":"5132dd71a288f42e67356e55","PROVIDER NPI":1225105646,"PROVIDER NAME":"Brooks, James","PROVIDER STATE":"Missouri","PROVIDER CITY":"Springfield","PROVIDER  ADDRESS":"1965 S Fremont Ave, Suite 100","PROVIDER ZIP 5 CD":65804,"PROVIDER ZIP 4 CD":2201,"PROVIDER PHONE NUM":4178203800,"PROVIDER PHONE EXT":"","PROGRAM YEAR":2011},"geometry":{"type":"Point","coordinates":[-93.271612,37.178721]}},{"type":"Feature","id":"5132dd71a288f42e67356e56","properties":{"_id":"5132dd71a288f42e67356e56","PROVIDER NPI":1215964366,"PROVIDER NAME":"Brose, Amy","PROVIDER STATE":"Missouri","PROVIDER CITY":"Kansas City","PROVIDER  ADDRESS":"9151 NE 81st Ter, Ste 105","PROVIDER ZIP 5 CD":64158,"PROVIDER ZIP 4 CD":1294,"PROVIDER PHONE NUM":8169948787,"PROVIDER PHONE EXT":"","PROGRAM YEAR":2011},"geometry":{"type":"Point","coordinates":[-94.469071,39.284359]}},{"type":"Feature","id":"5132dd71a288f42e67356e57","properties":{"_id":"5132dd71a288f42e67356e57","PROVIDER NPI":1386630580,"PROVIDER NAME":"Brown, Bary","PROVIDER STATE":"Missouri","PROVIDER CITY":"Springfield","PROVIDER  ADDRESS":"1441 E Sunshine St","PROVIDER ZIP 5 CD":65804,"PROVIDER ZIP 4 CD":1211,"PROVIDER PHONE NUM":4178862020,"PROVIDER PHONE EXT":"","PROGRAM YEAR":2011},"geometry":{"type":"Point","coordinates":[-93.270699,37.181825]}},{"type":"Feature","id":"5132dd71a288f42e67356e58","properties":{"_id":"5132dd71a288f42e67356e58","PROVIDER NPI":1538133046,"PROVIDER NAME":"Brown, David","PROVIDER STATE":"Missouri","PROVIDER CITY":"Saint Louis","PROVIDER  ADDRESS":"141 N Meramec Ave, Suite 212","PROVIDER ZIP 5 CD":63105,"PROVIDER ZIP 4 CD":3750,"PROVIDER PHONE NUM":3147262425,"PROVIDER PHONE EXT":"","PROGRAM YEAR":2011},"geometry":{"type":"Point","coordinates":[-90.339961,38.648527]}},{"type":"Feature","id":"5132dd71a288f42e67356e59","properties":{"_id":"5132dd71a288f42e67356e59","PROVIDER NPI":1013057447,"PROVIDER NAME":"BROWN, JOHN","PROVIDER STATE":"Missouri","PROVIDER CITY":"Springfield","PROVIDER  ADDRESS":"3231 S National Ave, SUITE 280","PROVIDER ZIP 5 CD":65807,"PROVIDER ZIP 4 CD":7304,"PROVIDER PHONE NUM":4178850834,"PROVIDER PHONE EXT":"","PROGRAM YEAR":2011},"geometry":{"type":"Point","coordinates":[-93.277606,37.155801]}},{"type":"Feature","id":"5132dd71a288f42e67356e5a","properties":{"_id":"5132dd71a288f42e67356e5a","PROVIDER NPI":1407856396,"PROVIDER NAME":"Broyles, Damon","PROVIDER STATE":"Missouri","PROVIDER CITY":"Fenton","PROVIDER  ADDRESS":"714 Gravois Rd, Suite 210","PROVIDER ZIP 5 CD":63026,"PROVIDER ZIP 4 CD":7727,"PROVIDER PHONE NUM":3145435230,"PROVIDER PHONE EXT":"","PROGRAM YEAR":2011},"geometry":{"type":"Point","coordinates":[-90.441968,38.4887]}},{"type":"Feature","id":"5132dd71a288f42e67356e5b","properties":{"_id":"5132dd71a288f42e67356e5b","PROVIDER NPI":1124136718,"PROVIDER NAME":"Bruce, Maria Fe","PROVIDER STATE":"Missouri","PROVIDER CITY":"Joplin","PROVIDER  ADDRESS":"3126 S Jackson Ave, suite 201","PROVIDER ZIP 5 CD":64804,"PROVIDER ZIP 4 CD":2534,"PROVIDER PHONE NUM":4177814727,"PROVIDER PHONE EXT":"","PROGRAM YEAR":2011},"geometry":{"type":"Point","coordinates":[-94.523229,37.057114]}},{"type":"Feature","id":"5132dd71a288f42e67356e5c","properties":{"_id":"5132dd71a288f42e67356e5c","PROVIDER NPI":1942225305,"PROVIDER NAME":"Bruckel, Matthew","PROVIDER STATE":"Missouri","PROVIDER CITY":"Saint Louis","PROVIDER  ADDRESS":"9556 Manchester Road","PROVIDER ZIP 5 CD":63119,"PROVIDER ZIP 4 CD":1313,"PROVIDER PHONE NUM":3149612255,"PROVIDER PHONE EXT":"","PROGRAM YEAR":2011},"geometry":{"type":"Point","coordinates":[-90.365281,38.609056]}},{"type":"Feature","id":"5132dd71a288f42e67356e5d","properties":{"_id":"5132dd71a288f42e67356e5d","PROVIDER NPI":1558303404,"PROVIDER NAME":"Brunk, Shawn","PROVIDER STATE":"Missouri","PROVIDER CITY":"St Peters","PROVIDER  ADDRESS":"514 Jungermann Rd","PROVIDER ZIP 5 CD":63376,"PROVIDER ZIP 4 CD":2730,"PROVIDER PHONE NUM":6364413322,"PROVIDER PHONE EXT":204,"PROGRAM YEAR":2011},"geometry":{"type":"Point","coordinates":[-90.623919,38.772869]}},{"type":"Feature","id":"5132dd71a288f42e67356e5e","properties":{"_id":"5132dd71a288f42e67356e5e","PROVIDER NPI":1578555066,"PROVIDER NAME":"BRUNTS, JOHN","PROVIDER STATE":"Missouri","PROVIDER CITY":"Saint Louis","PROVIDER  ADDRESS":"625 S New Ballas Rd, SUITE 2030","PROVIDER ZIP 5 CD":63141,"PROVIDER ZIP 4 CD":8253,"PROVIDER PHONE NUM":3142511700,"PROVIDER PHONE EXT":"","PROGRAM YEAR":2011},"geometry":{"type":"Point","coordinates":[-90.443512,38.644215]}},{"type":"Feature","id":"5132dd71a288f42e67356e5f","properties":{"_id":"5132dd71a288f42e67356e5f","PROVIDER NPI":1417147588,"PROVIDER NAME":"Buckhold, Fred","PROVIDER STATE":"Missouri","PROVIDER CITY":"Saint Louis","PROVIDER  ADDRESS":"1402 S Grand Blvd, Internal Medicine - FDT 12th Floor","PROVIDER ZIP 5 CD":63104,"PROVIDER ZIP 4 CD":1004,"PROVIDER PHONE NUM":3145776095,"PROVIDER PHONE EXT":"","PROGRAM YEAR":2011},"geometry":{"type":"Point","coordinates":[-90.237816,38.622697]}},{"type":"Feature","id":"5132dd71a288f42e67356e60","properties":{"_id":"5132dd71a288f42e67356e60","PROVIDER NPI":1407030349,"PROVIDER NAME":"Buckner, James","PROVIDER STATE":"Missouri","PROVIDER CITY":"Rogersville","PROVIDER  ADDRESS":"199 Johnstown Dr","PROVIDER ZIP 5 CD":65742,"PROVIDER ZIP 4 CD":9366,"PROVIDER PHONE NUM":4177537770,"PROVIDER PHONE EXT":"","PROGRAM YEAR":2011},"geometry":{"type":"Point","coordinates":[-93.060842,37.109078]}},{"type":"Feature","id":"5132dd71a288f42e67356e61","properties":{"_id":"5132dd71a288f42e67356e61","PROVIDER NPI":1861486953,"PROVIDER NAME":"Budd, William","PROVIDER STATE":"Missouri","PROVIDER CITY":"Saint Louis","PROVIDER  ADDRESS":"7345 Watson Rd","PROVIDER ZIP 5 CD":63119,"PROVIDER ZIP 4 CD":4405,"PROVIDER PHONE NUM":3147527100,"PROVIDER PHONE EXT":8641,"PROGRAM YEAR":2011},"geometry":{"type":"Point","coordinates":[-90.320222,38.581748]}},{"type":"Feature","id":"5132dd71a288f42e67356e62","properties":{"_id":"5132dd71a288f42e67356e62","PROVIDER NPI":1285604512,"PROVIDER NAME":"Buie, Steven","PROVIDER STATE":"Missouri","PROVIDER CITY":"Kansas City","PROVIDER  ADDRESS":"11201 Colorado Ave","PROVIDER ZIP 5 CD":64137,"PROVIDER ZIP 4 CD":2502,"PROVIDER PHONE NUM":8167635200,"PROVIDER PHONE EXT":243,"PROGRAM YEAR":2011},"geometry":{"type":"Point","coordinates":[-94.529639,38.921005]}},{"type":"Feature","id":"5132dd71a288f42e67356e63","properties":{"_id":"5132dd71a288f42e67356e63","PROVIDER NPI":1699810507,"PROVIDER NAME":"Bullock, Travis","PROVIDER STATE":"Missouri","PROVIDER CITY":"St. Louis","PROVIDER  ADDRESS":"12855 North Forty Drive, South Tower, Suite 375, Walker Medical Building","PROVIDER ZIP 5 CD":63141,"PROVIDER ZIP 4 CD":"","PROVIDER PHONE NUM":3145673321,"PROVIDER PHONE EXT":"","PROGRAM YEAR":2011},"geometry":{"type":"Point","coordinates":[-90.480458,38.637319]}},{"type":"Feature","id":"5132dd71a288f42e67356e64","properties":{"_id":"5132dd71a288f42e67356e64","PROVIDER NPI":1386784460,"PROVIDER NAME":"Bumberry, Barbara","PROVIDER STATE":"Missouri","PROVIDER CITY":"Springfield","PROVIDER  ADDRESS":"4331 S Fremont Ave","PROVIDER ZIP 5 CD":65804,"PROVIDER ZIP 4 CD":7328,"PROVIDER PHONE NUM":4178205015,"PROVIDER PHONE EXT":"","PROGRAM YEAR":2011},"geometry":{"type":"Point","coordinates":[-93.272158,37.136968]}},{"type":"Feature","id":"5132dd71a288f42e67356e65","properties":{"_id":"5132dd71a288f42e67356e65","PROVIDER NPI":1992872311,"PROVIDER NAME":"Bumberry, John","PROVIDER STATE":"Missouri","PROVIDER CITY":"Springfield","PROVIDER  ADDRESS":"1965 S Fremont Ave, Suite 100","PROVIDER ZIP 5 CD":65804,"PROVIDER ZIP 4 CD":2201,"PROVIDER PHONE NUM":4178203800,"PROVIDER PHONE EXT":"","PROGRAM YEAR":2011},"geometry":{"type":"Point","coordinates":[-93.271612,37.178721]}},{"type":"Feature","id":"5132dd71a288f42e67356e66","properties":{"_id":"5132dd71a288f42e67356e66","PROVIDER NPI":1801909684,"PROVIDER NAME":"Burack, Harry","PROVIDER STATE":"Missouri","PROVIDER CITY":"Saint Peters","PROVIDER  ADDRESS":"5600 Mexico Rd, Suite 21","PROVIDER ZIP 5 CD":63376,"PROVIDER ZIP 4 CD":1660,"PROVIDER PHONE NUM":6369283858,"PROVIDER PHONE EXT":"","PROGRAM YEAR":2011},"geometry":{"type":"Point","coordinates":[-90.655649,38.784559]}},{"type":"Feature","id":"5132dd71a288f42e67356e67","properties":{"_id":"5132dd71a288f42e67356e67","PROVIDER NPI":1467474460,"PROVIDER NAME":"BUREN, ANTHONY","PROVIDER STATE":"Missouri","PROVIDER CITY":"Gladstone","PROVIDER  ADDRESS":"101 NW Englewood Rd","PROVIDER ZIP 5 CD":64118,"PROVIDER ZIP 4 CD":4063,"PROVIDER PHONE NUM":8164531818,"PROVIDER PHONE EXT":"","PROGRAM YEAR":2011},"geometry":{"type":"Point","coordinates":[-94.580877,39.196211]}},{"type":"Feature","id":"5132dd71a288f42e67356e68","properties":{"_id":"5132dd71a288f42e67356e68","PROVIDER NPI":1831230655,"PROVIDER NAME":"Burk, Kent","PROVIDER STATE":"Missouri","PROVIDER CITY":"Springfield","PROVIDER  ADDRESS":"3231 S National Ave","PROVIDER ZIP 5 CD":65807,"PROVIDER ZIP 4 CD":7304,"PROVIDER PHONE NUM":4178850828,"PROVIDER PHONE EXT":"","PROGRAM YEAR":2011},"geometry":{"type":"Point","coordinates":[-93.277606,37.155801]}},{"type":"Feature","id":"5132dd71a288f42e67356e69","properties":{"_id":"5132dd71a288f42e67356e69","PROVIDER NPI":1417972936,"PROVIDER NAME":"Burke, Erwin","PROVIDER STATE":"Missouri","PROVIDER CITY":"Alton","PROVIDER  ADDRESS":"203 Couch St.","PROVIDER ZIP 5 CD":65606,"PROVIDER ZIP 4 CD":503,"PROVIDER PHONE NUM":4177782100,"PROVIDER PHONE EXT":"","PROGRAM YEAR":2011},"geometry":{"type":"Point","coordinates":[-91.397721,36.694127]}},{"type":"Feature","id":"5132dd71a288f42e67356e6a","properties":{"_id":"5132dd71a288f42e67356e6a","PROVIDER NPI":1083694087,"PROVIDER NAME":"burkemper, nicole","PROVIDER STATE":"Missouri","PROVIDER CITY":"Saint Louis","PROVIDER  ADDRESS":"1402 S Grand Blvd, Department of Dermatology","PROVIDER ZIP 5 CD":63104,"PROVIDER ZIP 4 CD":1004,"PROVIDER PHONE NUM":3149776828,"PROVIDER PHONE EXT":"","PROGRAM YEAR":2011},"geometry":{"type":"Point","coordinates":[-90.237816,38.622697]}},{"type":"Feature","id":"5132dd71a288f42e67356e6b","properties":{"_id":"5132dd71a288f42e67356e6b","PROVIDER NPI":1912134834,"PROVIDER NAME":"Burkheart, Amanda","PROVIDER STATE":"Missouri","PROVIDER CITY":"Union","PROVIDER  ADDRESS":"1935 Prairie Dell Rd Ste 400","PROVIDER ZIP 5 CD":63084,"PROVIDER ZIP 4 CD":4327,"PROVIDER PHONE NUM":6365832508,"PROVIDER PHONE EXT":"","PROGRAM YEAR":2011},"geometry":{"type":"Point","coordinates":[-90.968885,38.421154]}},{"type":"Feature","id":"5132dd71a288f42e67356e6c","properties":{"_id":"5132dd71a288f42e67356e6c","PROVIDER NPI":1588874366,"PROVIDER NAME":"Burns, Bryan","PROVIDER STATE":"Missouri","PROVIDER CITY":"Saint Louis","PROVIDER  ADDRESS":"12700 Southfork Rd, Suite 280","PROVIDER ZIP 5 CD":63128,"PROVIDER ZIP 4 CD":3201,"PROVIDER PHONE NUM":3145254990,"PROVIDER PHONE EXT":"","PROGRAM YEAR":2011},"geometry":{"type":"Point","coordinates":[-90.381802,38.503906]}},{"type":"Feature","id":"5132dd71a288f42e67356e6d","properties":{"_id":"5132dd71a288f42e67356e6d","PROVIDER NPI":1902870561,"PROVIDER NAME":"Burns, Lisa","PROVIDER STATE":"Missouri","PROVIDER CITY":"Wildwood","PROVIDER  ADDRESS":"16555 Manchester Rd, Suite 100","PROVIDER ZIP 5 CD":63040,"PROVIDER ZIP 4 CD":1220,"PROVIDER PHONE NUM":6364580646,"PROVIDER PHONE EXT":"","PROGRAM YEAR":2011},"geometry":{"type":"Point","coordinates":[-90.619774,38.580715]}},{"type":"Feature","id":"5132dd71a288f42e67356e6e","properties":{"_id":"5132dd71a288f42e67356e6e","PROVIDER NPI":1871562488,"PROVIDER NAME":"Burroughs, John","PROVIDER STATE":"Missouri","PROVIDER CITY":"Liberty","PROVIDER  ADDRESS":"1133 W Kansas St","PROVIDER ZIP 5 CD":64068,"PROVIDER ZIP 4 CD":2281,"PROVIDER PHONE NUM":8167817400,"PROVIDER PHONE EXT":"","PROGRAM YEAR":2011},"geometry":{"type":"Point","coordinates":[-94.439168,39.244847]}},{"type":"Feature","id":"5132dd71a288f42e67356e6f","properties":{"_id":"5132dd71a288f42e67356e6f","PROVIDER NPI":1518962059,"PROVIDER NAME":"Burton, Erica","PROVIDER STATE":"Missouri","PROVIDER CITY":"Lamar","PROVIDER  ADDRESS":"808 Gulf St","PROVIDER ZIP 5 CD":64759,"PROVIDER ZIP 4 CD":1239,"PROVIDER PHONE NUM":4176823301,"PROVIDER PHONE EXT":"","PROGRAM YEAR":2011},"geometry":{"type":"Point","coordinates":[-94.27746,37.497817]}},{"type":"Feature","id":"5132dd71a288f42e67356e70","properties":{"_id":"5132dd71a288f42e67356e70","PROVIDER NPI":1568402501,"PROVIDER NAME":"Busch, Julie","PROVIDER STATE":"Missouri","PROVIDER CITY":"Kirkwood","PROVIDER  ADDRESS":"10296 Big Bend Boulevard, Suite 111","PROVIDER ZIP 5 CD":63122,"PROVIDER ZIP 4 CD":"","PROVIDER PHONE NUM":3145435943,"PROVIDER PHONE EXT":"","PROGRAM YEAR":2011},"geometry":{"type":"Point","coordinates":[-90.389797,38.610253]}},{"type":"Feature","id":"5132dd71a288f42e67356e71","properties":{"_id":"5132dd71a288f42e67356e71","PROVIDER NPI":1255412417,"PROVIDER NAME":"Butler, Connie","PROVIDER STATE":"Missouri","PROVIDER CITY":"Cassville","PROVIDER  ADDRESS":"90 Gravel St","PROVIDER ZIP 5 CD":65625,"PROVIDER ZIP 4 CD":1601,"PROVIDER PHONE NUM":4178476045,"PROVIDER PHONE EXT":"","PROGRAM YEAR":2011},"geometry":{"type":"Point","coordinates":[-93.872562,36.675731]}},{"type":"Feature","id":"5132dd71a288f42e67356e72","properties":{"_id":"5132dd71a288f42e67356e72","PROVIDER NPI":1922037639,"PROVIDER NAME":"Butler, Cylinda","PROVIDER STATE":"Missouri","PROVIDER CITY":"Lebanon","PROVIDER  ADDRESS":"331 Hospital Dr, Suite E","PROVIDER ZIP 5 CD":65536,"PROVIDER ZIP 4 CD":9217,"PROVIDER PHONE NUM":4175336540,"PROVIDER PHONE EXT":"","PROGRAM YEAR":2011},"geometry":{"type":"Point","coordinates":[-92.634505,37.682552]}},{"type":"Feature","id":"5132dd71a288f42e67356e73","properties":{"_id":"5132dd71a288f42e67356e73","PROVIDER NPI":1326020082,"PROVIDER NAME":"Byrne, Kevin","PROVIDER STATE":"Missouri","PROVIDER CITY":"Osage Beach","PROVIDER  ADDRESS":"1029 Nichols Rd Ste 201","PROVIDER ZIP 5 CD":65065,"PROVIDER ZIP 4 CD":3008,"PROVIDER PHONE NUM":5733027138,"PROVIDER PHONE EXT":16,"PROGRAM YEAR":2011},"geometry":{"type":"Point","coordinates":[-92.683262,38.126466]}},{"type":"Feature","id":"5132dd71a288f42e67356e74","properties":{"_id":"5132dd71a288f42e67356e74","PROVIDER NPI":1528266400,"PROVIDER NAME":"Byron, Christina","PROVIDER STATE":"Missouri","PROVIDER CITY":"Saint Louis","PROVIDER  ADDRESS":"615 S New Ballas Rd","PROVIDER ZIP 5 CD":63141,"PROVIDER ZIP 4 CD":8221,"PROVIDER PHONE NUM":3142516000,"PROVIDER PHONE EXT":"","PROGRAM YEAR":2011},"geometry":{"type":"Point","coordinates":[-90.443511,38.644409]}},{"type":"Feature","id":"5132dd71a288f42e67356e75","properties":{"_id":"5132dd71a288f42e67356e75","PROVIDER NPI":1558330878,"PROVIDER NAME":"Cady, Roger","PROVIDER STATE":"Missouri","PROVIDER CITY":"Springfield","PROVIDER  ADDRESS":"3805 S Kansas Expy","PROVIDER ZIP 5 CD":65807,"PROVIDER ZIP 4 CD":6988,"PROVIDER PHONE NUM":4178907888,"PROVIDER PHONE EXT":"","PROGRAM YEAR":2011},"geometry":{"type":"Point","coordinates":[-93.319394,37.145341]}},{"type":"Feature","id":"5132dd71a288f42e67356e76","properties":{"_id":"5132dd71a288f42e67356e76","PROVIDER NPI":1558308239,"PROVIDER NAME":"Caldwell, F.","PROVIDER STATE":"Missouri","PROVIDER CITY":"Poplar Bluff","PROVIDER  ADDRESS":"225 Physicians Park, Suite 400","PROVIDER ZIP 5 CD":63901,"PROVIDER ZIP 4 CD":3956,"PROVIDER PHONE NUM":5737275500,"PROVIDER PHONE EXT":"","PROGRAM YEAR":2011},"geometry":{"type":"Point","coordinates":[-90.459098,36.76761]}},{"type":"Feature","id":"5132dd71a288f42e67356e77","properties":{"_id":"5132dd71a288f42e67356e77","PROVIDER NPI":1598754566,"PROVIDER NAME":"Campbell, Gregory","PROVIDER STATE":"Missouri","PROVIDER CITY":"Columbia","PROVIDER  ADDRESS":"303 N Keene St, Suite 401","PROVIDER ZIP 5 CD":65201,"PROVIDER ZIP 4 CD":7193,"PROVIDER PHONE NUM":5738740438,"PROVIDER PHONE EXT":"","PROGRAM YEAR":2011},"geometry":{"type":"Point","coordinates":[-92.292159,38.954099]}},{"type":"Feature","id":"5132dd71a288f42e67356e78","properties":{"_id":"5132dd71a288f42e67356e78","PROVIDER NPI":1346450970,"PROVIDER NAME":"Campbell, John","PROVIDER STATE":"Missouri","PROVIDER CITY":"Saint Louis","PROVIDER  ADDRESS":"621 S New Ballas Rd, Suite 589 A","PROVIDER ZIP 5 CD":63141,"PROVIDER ZIP 4 CD":8232,"PROVIDER PHONE NUM":3142516285,"PROVIDER PHONE EXT":"","PROGRAM YEAR":2011},"geometry":{"type":"Point","coordinates":[-90.443511,38.644332]}},{"type":"Feature","id":"5132dd71a288f42e67356e79","properties":{"_id":"5132dd71a288f42e67356e79","PROVIDER NPI":1083684468,"PROVIDER NAME":"Canas-Polesel, Adriana","PROVIDER STATE":"Missouri","PROVIDER CITY":"Fenton","PROVIDER  ADDRESS":"1203 Smizer Mill Rd Ste 106","PROVIDER ZIP 5 CD":63026,"PROVIDER ZIP 4 CD":3483,"PROVIDER PHONE NUM":6367171390,"PROVIDER PHONE EXT":"","PROGRAM YEAR":2011},"geometry":{"type":"Point","coordinates":[-90.479042,38.524114]}},{"type":"Feature","id":"5132dd71a288f42e67356e7a","properties":{"_id":"5132dd71a288f42e67356e7a","PROVIDER NPI":1366581936,"PROVIDER NAME":"CAREY, LARRY","PROVIDER STATE":"Missouri","PROVIDER CITY":"Springfield","PROVIDER  ADDRESS":"3231 S National Ave, SUITE 140","PROVIDER ZIP 5 CD":65807,"PROVIDER ZIP 4 CD":7304,"PROVIDER PHONE NUM":4178886709,"PROVIDER PHONE EXT":"","PROGRAM YEAR":2011},"geometry":{"type":"Point","coordinates":[-93.277606,37.155801]}},{"type":"Feature","id":"5132dd71a288f42e67356e7b","properties":{"_id":"5132dd71a288f42e67356e7b","PROVIDER NPI":1194835181,"PROVIDER NAME":"Carlson, Jay","PROVIDER STATE":"Missouri","PROVIDER CITY":"Springfield","PROVIDER  ADDRESS":"2055 S Fremont Ave, Ste 200","PROVIDER ZIP 5 CD":65804,"PROVIDER ZIP 4 CD":2206,"PROVIDER PHONE NUM":4178203554,"PROVIDER PHONE EXT":"","PROGRAM YEAR":2011},"geometry":{"type":"Point","coordinates":[-93.271634,37.176918]}},{"type":"Feature","id":"5132dd71a288f42e67356e7c","properties":{"_id":"5132dd71a288f42e67356e7c","PROVIDER NPI":1033182050,"PROVIDER NAME":"Caron, Troy","PROVIDER STATE":"Missouri","PROVIDER CITY":"Springfield","PROVIDER  ADDRESS":"1229 E Seminole St, Suite 230","PROVIDER ZIP 5 CD":65804,"PROVIDER ZIP 4 CD":2227,"PROVIDER PHONE NUM":4178205610,"PROVIDER PHONE EXT":"","PROGRAM YEAR":2011},"geometry":{"type":"Point","coordinates":[-93.275978,37.174771]}},{"type":"Feature","id":"5132dd71a288f42e67356e7d","properties":{"_id":"5132dd71a288f42e67356e7d","PROVIDER NPI":1164418778,"PROVIDER NAME":"Carrell, Brenda","PROVIDER STATE":"Missouri","PROVIDER CITY":"Springfield","PROVIDER  ADDRESS":"1441 E Sunshine St","PROVIDER ZIP 5 CD":65804,"PROVIDER ZIP 4 CD":1211,"PROVIDER PHONE NUM":4178862020,"PROVIDER PHONE EXT":"","PROGRAM YEAR":2011},"geometry":{"type":"Point","coordinates":[-93.270699,37.181825]}},{"type":"Feature","id":"5132dd71a288f42e67356e7e","properties":{"_id":"5132dd71a288f42e67356e7e","PROVIDER NPI":1760428973,"PROVIDER NAME":"Carter, Samuel","PROVIDER STATE":"Missouri","PROVIDER CITY":"Joplin","PROVIDER  ADDRESS":"2024 Maiden Lane, Ste 203","PROVIDER ZIP 5 CD":64804,"PROVIDER ZIP 4 CD":"","PROVIDER PHONE NUM":4176594661,"PROVIDER PHONE EXT":"","PROGRAM YEAR":2011},"geometry":{"type":"Point","coordinates":[-94.531817,37.06962]}},{"type":"Feature","id":"5132dd71a288f42e67356e7f","properties":{"_id":"5132dd71a288f42e67356e7f","PROVIDER NPI":1366404626,"PROVIDER NAME":"Casey, Rick","PROVIDER STATE":"Missouri","PROVIDER CITY":"El Dorado Springs","PROVIDER  ADDRESS":"309 E Hospital Rd","PROVIDER ZIP 5 CD":64744,"PROVIDER ZIP 4 CD":2021,"PROVIDER PHONE NUM":4178762345,"PROVIDER PHONE EXT":"","PROGRAM YEAR":2011},"geometry":{"type":"Point","coordinates":[-94.018303,37.859398]}},{"type":"Feature","id":"5132dd71a288f42e67356e80","properties":{"_id":"5132dd71a288f42e67356e80","PROVIDER NPI":1467498220,"PROVIDER NAME":"Cassat, James","PROVIDER STATE":"Missouri","PROVIDER CITY":"Washington","PROVIDER  ADDRESS":"901 Patients First Dr","PROVIDER ZIP 5 CD":63090,"PROVIDER ZIP 4 CD":4700,"PROVIDER PHONE NUM":6362397727,"PROVIDER PHONE EXT":"","PROGRAM YEAR":2011},"geometry":{"type":"Point","coordinates":[-91.000734,38.553978]}},{"type":"Feature","id":"5132dd71a288f42e67356e81","properties":{"_id":"5132dd71a288f42e67356e81","PROVIDER NPI":1710015748,"PROVIDER NAME":"Castellano, Carmen","PROVIDER STATE":"Missouri","PROVIDER CITY":"Saint Louis","PROVIDER  ADDRESS":"2511 S Brentwood Blvd","PROVIDER ZIP 5 CD":63144,"PROVIDER ZIP 4 CD":2308,"PROVIDER PHONE NUM":3148630000,"PROVIDER PHONE EXT":"","PROGRAM YEAR":2011},"geometry":{"type":"Point","coordinates":[-90.348834,38.615632]}},{"type":"Feature","id":"5132dd71a288f42e67356e82","properties":{"_id":"5132dd71a288f42e67356e82","PROVIDER NPI":1689678096,"PROVIDER NAME":"Castera, Pierre","PROVIDER STATE":"Missouri","PROVIDER CITY":"Kansas City","PROVIDER  ADDRESS":"1004 Carondelet Dr, Ste 430","PROVIDER ZIP 5 CD":64114,"PROVIDER ZIP 4 CD":4801,"PROVIDER PHONE NUM":8169410800,"PROVIDER PHONE EXT":"","PROGRAM YEAR":2011},"geometry":{"type":"Point","coordinates":[-94.603947,38.935328]}},{"type":"Feature","id":"5132dd71a288f42e67356e83","properties":{"_id":"5132dd71a288f42e67356e83","PROVIDER NPI":1417971144,"PROVIDER NAME":"Castillo, Roque","PROVIDER STATE":"Missouri","PROVIDER CITY":"Saint Louis","PROVIDER  ADDRESS":"3660 Vista Ave","PROVIDER ZIP 5 CD":63110,"PROVIDER ZIP 4 CD":2540,"PROVIDER PHONE NUM":3149776100,"PROVIDER PHONE EXT":"","PROGRAM YEAR":2011},"geometry":{"type":"Point","coordinates":[-90.24005,38.622614]}},{"type":"Feature","id":"5132dd71a288f42e67356e84","properties":{"_id":"5132dd71a288f42e67356e84","PROVIDER NPI":1821093287,"PROVIDER NAME":"Cathcart, David","PROVIDER STATE":"Missouri","PROVIDER CITY":"Camdenton","PROVIDER  ADDRESS":"404 W US Highway 54","PROVIDER ZIP 5 CD":65020,"PROVIDER ZIP 4 CD":6943,"PROVIDER PHONE NUM":5733179200,"PROVIDER PHONE EXT":"","PROGRAM YEAR":2011},"geometry":{"type":"Point","coordinates":[-92.751511,38.004116]}},{"type":"Feature","id":"5132dd71a288f42e67356e85","properties":{"_id":"5132dd71a288f42e67356e85","PROVIDER NPI":1023083722,"PROVIDER NAME":"Caudill, Brent","PROVIDER STATE":"Missouri","PROVIDER CITY":"Union","PROVIDER  ADDRESS":"405 Hwy 50 West, Ste 200","PROVIDER ZIP 5 CD":63084,"PROVIDER ZIP 4 CD":"","PROVIDER PHONE NUM":6365832192,"PROVIDER PHONE EXT":"","PROGRAM YEAR":2011},"geometry":{"type":"Point","coordinates":[-91.005508,38.442856]}},{"type":"Feature","id":"5132dd71a288f42e67356e86","properties":{"_id":"5132dd71a288f42e67356e86","PROVIDER NPI":1376773317,"PROVIDER NAME":"Causa, Krisi","PROVIDER STATE":"Missouri","PROVIDER CITY":"Springfield","PROVIDER  ADDRESS":"1965 S Fremont Ave","PROVIDER ZIP 5 CD":65804,"PROVIDER ZIP 4 CD":2201,"PROVIDER PHONE NUM":4178207250,"PROVIDER PHONE EXT":"","PROGRAM YEAR":2011},"geometry":{"type":"Point","coordinates":[-93.271612,37.178721]}},{"type":"Feature","id":"5132dd71a288f42e67356e87","properties":{"_id":"5132dd71a288f42e67356e87","PROVIDER NPI":1043273188,"PROVIDER NAME":"Cavagnol, Robert","PROVIDER STATE":"Missouri","PROVIDER CITY":"Springfield","PROVIDER  ADDRESS":"1965 S Fremont Ave, Suite 100","PROVIDER ZIP 5 CD":65804,"PROVIDER ZIP 4 CD":2201,"PROVIDER PHONE NUM":4178203800,"PROVIDER PHONE EXT":"","PROGRAM YEAR":2011},"geometry":{"type":"Point","coordinates":[-93.271612,37.178721]}},{"type":"Feature","id":"5132dd71a288f42e67356e88","properties":{"_id":"5132dd71a288f42e67356e88","PROVIDER NPI":1083774699,"PROVIDER NAME":"Chabot, Lisa","PROVIDER STATE":"Missouri","PROVIDER CITY":"Ferguson","PROVIDER  ADDRESS":"248 S Florissant Rd","PROVIDER ZIP 5 CD":63135,"PROVIDER ZIP 4 CD":2736,"PROVIDER PHONE NUM":3145228773,"PROVIDER PHONE EXT":"","PROGRAM YEAR":2011},"geometry":{"type":"Point","coordinates":[-90.303416,38.740639]}},{"type":"Feature","id":"5132dd71a288f42e67356e89","properties":{"_id":"5132dd71a288f42e67356e89","PROVIDER NPI":1497951008,"PROVIDER NAME":"Chacko, Sonia","PROVIDER STATE":"Missouri","PROVIDER CITY":"Saint Louis","PROVIDER  ADDRESS":"3635 Vista Ave","PROVIDER ZIP 5 CD":63110,"PROVIDER ZIP 4 CD":2539,"PROVIDER PHONE NUM":3145778000,"PROVIDER PHONE EXT":"","PROGRAM YEAR":2011},"geometry":{"type":"Point","coordinates":[-90.239635,38.622575]}},{"type":"Feature","id":"5132dd71a288f42e67356e8a","properties":{"_id":"5132dd71a288f42e67356e8a","PROVIDER NPI":1396771606,"PROVIDER NAME":"chadalawada, Kurmanadha","PROVIDER STATE":"Missouri","PROVIDER CITY":"Arnold","PROVIDER  ADDRESS":"3619 Richardson Square Dr, suite 150","PROVIDER ZIP 5 CD":63010,"PROVIDER ZIP 4 CD":6022,"PROVIDER PHONE NUM":6364611414,"PROVIDER PHONE EXT":"","PROGRAM YEAR":2011},"geometry":{"type":"Point","coordinates":[-90.384323,38.411563]}},{"type":"Feature","id":"5132dd71a288f42e67356e8b","properties":{"_id":"5132dd71a288f42e67356e8b","PROVIDER NPI":1760419444,"PROVIDER NAME":"Chalk, David","PROVIDER STATE":"Missouri","PROVIDER CITY":"Washington","PROVIDER  ADDRESS":"901 Patients First Dr","PROVIDER ZIP 5 CD":63090,"PROVIDER ZIP 4 CD":4700,"PROVIDER PHONE NUM":6362399011,"PROVIDER PHONE EXT":"","PROGRAM YEAR":2011},"geometry":{"type":"Point","coordinates":[-91.000734,38.553978]}},{"type":"Feature","id":"5132dd71a288f42e67356e8c","properties":{"_id":"5132dd71a288f42e67356e8c","PROVIDER NPI":1336295674,"PROVIDER NAME":"Chand, Pratap","PROVIDER STATE":"Missouri","PROVIDER CITY":"Saint Louis","PROVIDER  ADDRESS":"3635 Vista Ave, St Louis University Hospital","PROVIDER ZIP 5 CD":63110,"PROVIDER ZIP 4 CD":2539,"PROVIDER PHONE NUM":3149774913,"PROVIDER PHONE EXT":"","PROGRAM YEAR":2011},"geometry":{"type":"Point","coordinates":[-90.300814,38.733652]}},{"type":"Feature","id":"5132dd71a288f42e67356e8d","properties":{"_id":"5132dd71a288f42e67356e8d","PROVIDER NPI":1245431550,"PROVIDER NAME":"Chen, Edward","PROVIDER STATE":"Missouri","PROVIDER CITY":"Kirkwood","PROVIDER  ADDRESS":"816 S. Kirkwood Road, Suite 210","PROVIDER ZIP 5 CD":63122,"PROVIDER ZIP 4 CD":"","PROVIDER PHONE NUM":3148226830,"PROVIDER PHONE EXT":"","PROGRAM YEAR":2011},"geometry":{"type":"Point","coordinates":[-90.406542,38.570323]}},{"type":"Feature","id":"5132dd71a288f42e67356e8e","properties":{"_id":"5132dd71a288f42e67356e8e","PROVIDER NPI":1457581100,"PROVIDER NAME":"Chen, Melissa","PROVIDER STATE":"Missouri","PROVIDER CITY":"O Fallon","PROVIDER  ADDRESS":"933 Highway K","PROVIDER ZIP 5 CD":63366,"PROVIDER ZIP 4 CD":2910,"PROVIDER PHONE NUM":6363794288,"PROVIDER PHONE EXT":"","PROGRAM YEAR":2011},"geometry":{"type":"Point","coordinates":[-90.700254,38.80178]}},{"type":"Feature","id":"5132dd71a288f42e67356e8f","properties":{"_id":"5132dd71a288f42e67356e8f","PROVIDER NPI":1265539878,"PROVIDER NAME":"Chilakamarri, Srinivas","PROVIDER STATE":"Missouri","PROVIDER CITY":"St Louis","PROVIDER  ADDRESS":"10004 Kennerly Road, Suite 362B","PROVIDER ZIP 5 CD":63128,"PROVIDER ZIP 4 CD":"","PROVIDER PHONE NUM":3148490450,"PROVIDER PHONE EXT":"","PROGRAM YEAR":2011},"geometry":{"type":"Point","coordinates":[-90.376919,38.508743]}},{"type":"Feature","id":"5132dd71a288f42e67356e90","properties":{"_id":"5132dd71a288f42e67356e90","PROVIDER NPI":1073585337,"PROVIDER NAME":"Chilton, Jonathan","PROVIDER STATE":"Missouri","PROVIDER CITY":"Kansas City","PROVIDER  ADDRESS":"6420 Prospect Ave, Suite T411","PROVIDER ZIP 5 CD":64132,"PROVIDER ZIP 4 CD":1180,"PROVIDER PHONE NUM":8163632500,"PROVIDER PHONE EXT":"","PROGRAM YEAR":2011},"geometry":{"type":"Point","coordinates":[-94.556336,39.010381]}},{"type":"Feature","id":"5132dd71a288f42e67356e91","properties":{"_id":"5132dd71a288f42e67356e91","PROVIDER NPI":1104813633,"PROVIDER NAME":"Chobanian, Nishan","PROVIDER STATE":"Missouri","PROVIDER CITY":"Saint Louis","PROVIDER  ADDRESS":"607 S New Ballas Rd, Suite 2350","PROVIDER ZIP 5 CD":63141,"PROVIDER ZIP 4 CD":8222,"PROVIDER PHONE NUM":3142514260,"PROVIDER PHONE EXT":"","PROGRAM YEAR":2011},"geometry":{"type":"Point","coordinates":[-90.44351,38.644602]}},{"type":"Feature","id":"5132dd71a288f42e67356e92","properties":{"_id":"5132dd71a288f42e67356e92","PROVIDER NPI":1124011028,"PROVIDER NAME":"Chouhan, Lalithkumar","PROVIDER STATE":"Missouri","PROVIDER CITY":"Saint Louis","PROVIDER  ADDRESS":"11133 Dunn Rd, Ste 2346","PROVIDER ZIP 5 CD":63136,"PROVIDER ZIP 4 CD":6119,"PROVIDER PHONE NUM":3146535125,"PROVIDER PHONE EXT":"","PROGRAM YEAR":2011},"geometry":{"type":"Point","coordinates":[-90.239377,38.775351]}},{"type":"Feature","id":"5132dd71a288f42e67356e93","properties":{"_id":"5132dd71a288f42e67356e93","PROVIDER NPI":1962560060,"PROVIDER NAME":"Chowfin, Ashish","PROVIDER STATE":"Missouri","PROVIDER CITY":"Springfield","PROVIDER  ADDRESS":"3231 S National Ave","PROVIDER ZIP 5 CD":65807,"PROVIDER ZIP 4 CD":7304,"PROVIDER PHONE NUM":4178885658,"PROVIDER PHONE EXT":"","PROGRAM YEAR":2011},"geometry":{"type":"Point","coordinates":[-93.277606,37.155801]}},{"type":"Feature","id":"5132dd71a288f42e67356e94","properties":{"_id":"5132dd71a288f42e67356e94","PROVIDER NPI":1679653323,"PROVIDER NAME":"Ciaramita, Jeff","PROVIDER STATE":"Missouri","PROVIDER CITY":"Saint Louis","PROVIDER  ADDRESS":"625 S New Ballas Rd, Suite 2015","PROVIDER ZIP 5 CD":63141,"PROVIDER ZIP 4 CD":8253,"PROVIDER PHONE NUM":3142511700,"PROVIDER PHONE EXT":"","PROGRAM YEAR":2011},"geometry":{"type":"Point","coordinates":[-90.443512,38.644215]}},{"type":"Feature","id":"5132dd71a288f42e67356e95","properties":{"_id":"5132dd71a288f42e67356e95","PROVIDER NPI":1912911090,"PROVIDER NAME":"Clark, Autumn","PROVIDER STATE":"Missouri","PROVIDER CITY":"Springfield","PROVIDER  ADDRESS":"1965 S Fremont Ave, Suite 330","PROVIDER ZIP 5 CD":65804,"PROVIDER ZIP 4 CD":2201,"PROVIDER PHONE NUM":4178208180,"PROVIDER PHONE EXT":"","PROGRAM YEAR":2011},"geometry":{"type":"Point","coordinates":[-93.271612,37.178721]}},{"type":"Feature","id":"5132dd71a288f42e67356e96","properties":{"_id":"5132dd71a288f42e67356e96","PROVIDER NPI":1396830477,"PROVIDER NAME":"Clark, Lin","PROVIDER STATE":"Missouri","PROVIDER CITY":"Independence","PROVIDER  ADDRESS":"4911 S. Arrowhead Drive, Suite 101","PROVIDER ZIP 5 CD":64055,"PROVIDER ZIP 4 CD":"","PROVIDER PHONE NUM":8163733006,"PROVIDER PHONE EXT":"","PROGRAM YEAR":2011},"geometry":{"type":"Point","coordinates":[-94.359302,39.031288]}},{"type":"Feature","id":"5132dd71a288f42e67356e97","properties":{"_id":"5132dd71a288f42e67356e97","PROVIDER NPI":1093857781,"PROVIDER NAME":"Clarke, Scott","PROVIDER STATE":"Missouri","PROVIDER CITY":"Springfield","PROVIDER  ADDRESS":"1229 E Seminole St","PROVIDER ZIP 5 CD":65804,"PROVIDER ZIP 4 CD":2227,"PROVIDER PHONE NUM":4178202064,"PROVIDER PHONE EXT":"","PROGRAM YEAR":2011},"geometry":{"type":"Point","coordinates":[-93.275978,37.174771]}},{"type":"Feature","id":"5132dd71a288f42e67356e98","properties":{"_id":"5132dd71a288f42e67356e98","PROVIDER NPI":1780721431,"PROVIDER NAME":"Clement, Kathi","PROVIDER STATE":"Missouri","PROVIDER CITY":"Rolla","PROVIDER  ADDRESS":"1601 N Bishop Ave","PROVIDER ZIP 5 CD":65401,"PROVIDER ZIP 4 CD":2249,"PROVIDER PHONE NUM":5733648100,"PROVIDER PHONE EXT":"","PROGRAM YEAR":2011},"geometry":{"type":"Point","coordinates":[-91.775573,37.957138]}},{"type":"Feature","id":"5132dd71a288f42e67356e99","properties":{"_id":"5132dd71a288f42e67356e99","PROVIDER NPI":1467541433,"PROVIDER NAME":"Cochran, David","PROVIDER STATE":"Missouri","PROVIDER CITY":"Springfield","PROVIDER  ADDRESS":"1900 S National Ave, Suite 3600","PROVIDER ZIP 5 CD":65804,"PROVIDER ZIP 4 CD":2265,"PROVIDER PHONE NUM":4178203911,"PROVIDER PHONE EXT":"","PROGRAM YEAR":2011},"geometry":{"type":"Point","coordinates":[-93.276669,37.180169]}},{"type":"Feature","id":"5132dd71a288f42e67356e9a","properties":{"_id":"5132dd71a288f42e67356e9a","PROVIDER NPI":1427107283,"PROVIDER NAME":"Coger, Brenton","PROVIDER STATE":"Missouri","PROVIDER CITY":"Springfield","PROVIDER  ADDRESS":"1965 South Fremont Suite 130, St. John's Clinic","PROVIDER ZIP 5 CD":65804,"PROVIDER ZIP 4 CD":"","PROVIDER PHONE NUM":4178205149,"PROVIDER PHONE EXT":"","PROGRAM YEAR":2011},"geometry":{"type":"Point","coordinates":[-93.22874,37.184519]}},{"type":"Feature","id":"5132dd71a288f42e67356e9b","properties":{"_id":"5132dd71a288f42e67356e9b","PROVIDER NPI":1477634764,"PROVIDER NAME":"Cohen, Shari","PROVIDER STATE":"Missouri","PROVIDER CITY":"Saint Louis","PROVIDER  ADDRESS":"605 Old Ballas Rd, Suite 200","PROVIDER ZIP 5 CD":63141,"PROVIDER ZIP 4 CD":7000,"PROVIDER PHONE NUM":3148728740,"PROVIDER PHONE EXT":"","PROGRAM YEAR":2011},"geometry":{"type":"Point","coordinates":[-90.438629,38.668237]}},{"type":"Feature","id":"5132dd71a288f42e67356e9c","properties":{"_id":"5132dd71a288f42e67356e9c","PROVIDER NPI":1982610499,"PROVIDER NAME":"Cole, Sarah","PROVIDER STATE":"Missouri","PROVIDER CITY":"Saint Louis","PROVIDER  ADDRESS":"12680 Olive Blvd, Suite 300","PROVIDER ZIP 5 CD":63141,"PROVIDER ZIP 4 CD":6322,"PROVIDER PHONE NUM":3142518888,"PROVIDER PHONE EXT":"","PROGRAM YEAR":2011},"geometry":{"type":"Point","coordinates":[-90.470102,38.678664]}},{"type":"Feature","id":"5132dd71a288f42e67356e9d","properties":{"_id":"5132dd71a288f42e67356e9d","PROVIDER NPI":1982606695,"PROVIDER NAME":"Collier, Janet","PROVIDER STATE":"Missouri","PROVIDER CITY":"Kirkwood","PROVIDER  ADDRESS":"730 S Kirkwood Rd","PROVIDER ZIP 5 CD":63122,"PROVIDER ZIP 4 CD":5929,"PROVIDER PHONE NUM":3148212626,"PROVIDER PHONE EXT":"","PROGRAM YEAR":2011},"geometry":{"type":"Point","coordinates":[-90.406527,38.570937]}},{"type":"Feature","id":"5132dd71a288f42e67356e9e","properties":{"_id":"5132dd71a288f42e67356e9e","PROVIDER NPI":1841389517,"PROVIDER NAME":"Collins, Angela","PROVIDER STATE":"Missouri","PROVIDER CITY":"Ava","PROVIDER  ADDRESS":"1312 North Highway 5, Ava","PROVIDER ZIP 5 CD":65608,"PROVIDER ZIP 4 CD":38,"PROVIDER PHONE NUM":4176834045,"PROVIDER PHONE EXT":"","PROGRAM YEAR":2011},"geometry":{"type":"Point","coordinates":[-92.672974,36.96179]}},{"type":"Feature","id":"5132dd71a288f42e67356e9f","properties":{"_id":"5132dd71a288f42e67356e9f","PROVIDER NPI":1376587535,"PROVIDER NAME":"Collins, Karl","PROVIDER STATE":"Missouri","PROVIDER CITY":"Florissant","PROVIDER  ADDRESS":"111 Florissant Oaks Shop Ctr","PROVIDER ZIP 5 CD":63031,"PROVIDER ZIP 4 CD":3933,"PROVIDER PHONE NUM":3148378477,"PROVIDER PHONE EXT":"","PROGRAM YEAR":2011},"geometry":{"type":"Point","coordinates":[-90.334561,38.804876]}},{"type":"Feature","id":"5132dd71a288f42e67356ea0","properties":{"_id":"5132dd71a288f42e67356ea0","PROVIDER NPI":1225096621,"PROVIDER NAME":"Collyer, William","PROVIDER STATE":"Missouri","PROVIDER CITY":"Cape Girardeau","PROVIDER  ADDRESS":"3 Doctors Park","PROVIDER ZIP 5 CD":63703,"PROVIDER ZIP 4 CD":4927,"PROVIDER PHONE NUM":5733347748,"PROVIDER PHONE EXT":"","PROGRAM YEAR":2011},"geometry":{"type":"Point","coordinates":[-89.575377,37.299266]}},{"type":"Feature","id":"5132dd71a288f42e67356ea1","properties":{"_id":"5132dd71a288f42e67356ea1","PROVIDER NPI":1336112846,"PROVIDER NAME":"Colter, Kim","PROVIDER STATE":"Missouri","PROVIDER CITY":"Washington","PROVIDER  ADDRESS":"901 Patients First Dr","PROVIDER ZIP 5 CD":63090,"PROVIDER ZIP 4 CD":4700,"PROVIDER PHONE NUM":6362394100,"PROVIDER PHONE EXT":"","PROGRAM YEAR":2011},"geometry":{"type":"Point","coordinates":[-91.000734,38.553978]}},{"type":"Feature","id":"5132dd71a288f42e67356ea2","properties":{"_id":"5132dd71a288f42e67356ea2","PROVIDER NPI":1053493981,"PROVIDER NAME":"Colville, Martha","PROVIDER STATE":"Missouri","PROVIDER CITY":"Mountain View","PROVIDER  ADDRESS":"104 East Highway 60","PROVIDER ZIP 5 CD":65548,"PROVIDER ZIP 4 CD":"","PROVIDER PHONE NUM":4179342251,"PROVIDER PHONE EXT":"","PROGRAM YEAR":2011},"geometry":{"type":"Point","coordinates":[-91.702435,37.001675]}},{"type":"Feature","id":"5132dd71a288f42e67356ea3","properties":{"_id":"5132dd71a288f42e67356ea3","PROVIDER NPI":1982603452,"PROVIDER NAME":"Conley, Forest","PROVIDER STATE":"Missouri","PROVIDER CITY":"Moberly","PROVIDER  ADDRESS":"1145 S Morley St","PROVIDER ZIP 5 CD":65270,"PROVIDER ZIP 4 CD":1948,"PROVIDER PHONE NUM":6602633185,"PROVIDER PHONE EXT":"","PROGRAM YEAR":2011},"geometry":{"type":"Point","coordinates":[-92.434022,39.407528]}},{"type":"Feature","id":"5132dd71a288f42e67356ea4","properties":{"_id":"5132dd71a288f42e67356ea4","PROVIDER NPI":1124055074,"PROVIDER NAME":"Conrad, Edgar","PROVIDER STATE":"Missouri","PROVIDER CITY":"Joplin","PROVIDER  ADDRESS":"1200 Cunningham Suite 103","PROVIDER ZIP 5 CD":64804,"PROVIDER ZIP 4 CD":"","PROVIDER PHONE NUM":4177823292,"PROVIDER PHONE EXT":"","PROGRAM YEAR":2011},"geometry":{"type":"Point","coordinates":[-94.535939,37.062641]}},{"type":"Feature","id":"5132dd71a288f42e67356ea5","properties":{"_id":"5132dd71a288f42e67356ea5","PROVIDER NPI":1275731267,"PROVIDER NAME":"Conti, Anna","PROVIDER STATE":"Missouri","PROVIDER CITY":"Saint Louis","PROVIDER  ADDRESS":"621 S New Ballas Rd, Suite 281-A","PROVIDER ZIP 5 CD":63141,"PROVIDER ZIP 4 CD":8232,"PROVIDER PHONE NUM":3142516075,"PROVIDER PHONE EXT":"","PROGRAM YEAR":2011},"geometry":{"type":"Point","coordinates":[-90.443511,38.644332]}},{"type":"Feature","id":"5132dd71a288f42e67356ea6","properties":{"_id":"5132dd71a288f42e67356ea6","PROVIDER NPI":1730154477,"PROVIDER NAME":"Conway, Philip","PROVIDER STATE":"Missouri","PROVIDER CITY":"Hazelwood","PROVIDER  ADDRESS":"755 Dunn Rd, Suite 100","PROVIDER ZIP 5 CD":63042,"PROVIDER ZIP 4 CD":1751,"PROVIDER PHONE NUM":3143714020,"PROVIDER PHONE EXT":"","PROGRAM YEAR":2011},"geometry":{"type":"Point","coordinates":[-90.375342,38.782391]}},{"type":"Feature","id":"5132dd71a288f42e67356ea7","properties":{"_id":"5132dd71a288f42e67356ea7","PROVIDER NPI":1538113683,"PROVIDER NAME":"Cook, Stephen","PROVIDER STATE":"Missouri","PROVIDER CITY":"Warrensburg","PROVIDER  ADDRESS":"601 E Russell Ave","PROVIDER ZIP 5 CD":64093,"PROVIDER ZIP 4 CD":9605,"PROVIDER PHONE NUM":6607472020,"PROVIDER PHONE EXT":"","PROGRAM YEAR":2011},"geometry":{"type":"Point","coordinates":[-93.729674,38.773004]}},{"type":"Feature","id":"5132dd71a288f42e67356ea8","properties":{"_id":"5132dd71a288f42e67356ea8","PROVIDER NPI":1093743551,"PROVIDER NAME":"Coplin, Margaret","PROVIDER STATE":"Missouri","PROVIDER CITY":"Ballwin","PROVIDER  ADDRESS":"15945 Clayton Rd, Suite 120","PROVIDER ZIP 5 CD":63011,"PROVIDER ZIP 4 CD":2490,"PROVIDER PHONE NUM":3149891300,"PROVIDER PHONE EXT":"","PROGRAM YEAR":2011},"geometry":{"type":"Point","coordinates":[-90.590638,38.604792]}},{"type":"Feature","id":"5132dd71a288f42e67356ea9","properties":{"_id":"5132dd71a288f42e67356ea9","PROVIDER NPI":1144261223,"PROVIDER NAME":"Corcoran, Francis","PROVIDER STATE":"Missouri","PROVIDER CITY":"Joplin","PROVIDER  ADDRESS":"3020 Saint Johns Blvd, Ste A","PROVIDER ZIP 5 CD":64804,"PROVIDER ZIP 4 CD":1564,"PROVIDER PHONE NUM":4177815387,"PROVIDER PHONE EXT":"","PROGRAM YEAR":2011},"geometry":{"type":"Point","coordinates":[-94.185484,36.759167]}},{"type":"Feature","id":"5132dd71a288f42e67356eaa","properties":{"_id":"5132dd71a288f42e67356eaa","PROVIDER NPI":1184698987,"PROVIDER NAME":"Corder, J","PROVIDER STATE":"Missouri","PROVIDER CITY":"St Louis","PROVIDER  ADDRESS":"3009 N Ballas Rd, suite 300A","PROVIDER ZIP 5 CD":63131,"PROVIDER ZIP 4 CD":"","PROVIDER PHONE NUM":3148729900,"PROVIDER PHONE EXT":"","PROGRAM YEAR":2011},"geometry":{"type":"Point","coordinates":[-90.445824,38.623691]}},{"type":"Feature","id":"5132dd71a288f42e67356eab","properties":{"_id":"5132dd71a288f42e67356eab","PROVIDER NPI":1013913185,"PROVIDER NAME":"Coslick, Pamela","PROVIDER STATE":"Missouri","PROVIDER CITY":"Saint Peters","PROVIDER  ADDRESS":"65 Centre Pointe Dr","PROVIDER ZIP 5 CD":63304,"PROVIDER ZIP 4 CD":8519,"PROVIDER PHONE NUM":6369286929,"PROVIDER PHONE EXT":"","PROGRAM YEAR":2011},"geometry":{"type":"Point","coordinates":[-90.591759,38.744559]}},{"type":"Feature","id":"5132dd71a288f42e67356eac","properties":{"_id":"5132dd71a288f42e67356eac","PROVIDER NPI":1255486205,"PROVIDER NAME":"Cottingham, William","PROVIDER STATE":"Missouri","PROVIDER CITY":"Rolla","PROVIDER  ADDRESS":"1605 Martin Springs Dr, Suite 260","PROVIDER ZIP 5 CD":65401,"PROVIDER ZIP 4 CD":2931,"PROVIDER PHONE NUM":5734586358,"PROVIDER PHONE EXT":"","PROGRAM YEAR":2011},"geometry":{"type":"Point","coordinates":[-91.778596,37.955141]}},{"type":"Feature","id":"5132dd71a288f42e67356ead","properties":{"_id":"5132dd71a288f42e67356ead","PROVIDER NPI":1275730152,"PROVIDER NAME":"Couch, Amy","PROVIDER STATE":"Missouri","PROVIDER CITY":"Washington","PROVIDER  ADDRESS":"901 Patients First Dr.","PROVIDER ZIP 5 CD":63090,"PROVIDER ZIP 4 CD":"","PROVIDER PHONE NUM":6365490100,"PROVIDER PHONE EXT":"","PROGRAM YEAR":2011},"geometry":{"type":"Point","coordinates":[-91.000734,38.553978]}},