[{"type":"Feature","id":"5132dd72a288f42e673578a7","properties":{"_id":"5132dd72a288f42e673578a7","PROVIDER NPI":1326014028,"PROVIDER NAME":"Aaronson, Michael","PROVIDER STATE":"Nebraska","PROVIDER CITY":"Omaha","PROVIDER  ADDRESS":"8141 W Center Rd, Suite 200","PROVIDER ZIP 5 CD":68124,"PROVIDER ZIP 4 CD":3273,"PROVIDER PHONE NUM":4027173000,"PROVIDER PHONE EXT":"","PROGRAM YEAR":2011},"geometry":{"type":"Point","coordinates":[-96.037584,41.234111]}},{"type":"Feature","id":"5132dd72a288f42e673578a8","properties":{"_id":"5132dd72a288f42e673578a8","PROVIDER NPI":1336180702,"PROVIDER NAME":"Acosta-Carlson, Francisca","PROVIDER STATE":"Nebraska","PROVIDER CITY":"Lexington","PROVIDER  ADDRESS":"1103 Buffalo Bnd","PROVIDER ZIP 5 CD":68850,"PROVIDER ZIP 4 CD":1528,"PROVIDER PHONE NUM":3083246386,"PROVIDER PHONE EXT":631,"PROGRAM YEAR":2011},"geometry":{"type":"Point","coordinates":[-99.759273,40.784507]}},{"type":"Feature","id":"5132dd72a288f42e673578a9","properties":{"_id":"5132dd72a288f42e673578a9","PROVIDER NPI":1942280672,"PROVIDER NAME":"Agarwal, Himanshu","PROVIDER STATE":"Nebraska","PROVIDER CITY":"Omaha","PROVIDER  ADDRESS":"7500 Mercy Rd","PROVIDER ZIP 5 CD":68124,"PROVIDER ZIP 4 CD":2319,"PROVIDER PHONE NUM":4023985880,"PROVIDER PHONE EXT":"","PROGRAM YEAR":2011},"geometry":{"type":"Point","coordinates":[-96.028715,41.237905]}},{"type":"Feature","id":"5132dd72a288f42e673578aa","properties":{"_id":"5132dd72a288f42e673578aa","PROVIDER NPI":1720137961,"PROVIDER NAME":"Al-Turk, Mohammad","PROVIDER STATE":"Nebraska","PROVIDER CITY":"Omaha","PROVIDER  ADDRESS":"1010 N 96th St Ste 200","PROVIDER ZIP 5 CD":68114,"PROVIDER ZIP 4 CD":2499,"PROVIDER PHONE NUM":4023434328,"PROVIDER PHONE EXT":"","PROGRAM YEAR":2011},"geometry":{"type":"Point","coordinates":[-96.062188,41.269273]}},{"type":"Feature","id":"5132dd72a288f42e673578ab","properties":{"_id":"5132dd72a288f42e673578ab","PROVIDER NPI":1164549523,"PROVIDER NAME":"ANANTHRAM, MANJULA","PROVIDER STATE":"Nebraska","PROVIDER CITY":"Omaha","PROVIDER  ADDRESS":"988095 Nebraska Medical Ctr","PROVIDER ZIP 5 CD":68198,"PROVIDER ZIP 4 CD":8095,"PROVIDER PHONE NUM":4025599800,"PROVIDER PHONE EXT":"","PROGRAM YEAR":2011},"geometry":{"type":"Point","coordinates":[-96.143884,41.315052]}},{"type":"Feature","id":"5132dd72a288f42e673578ac","properties":{"_id":"5132dd72a288f42e673578ac","PROVIDER NPI":1972525251,"PROVIDER NAME":"ANDERSEN, MARK","PROVIDER STATE":"Nebraska","PROVIDER CITY":"Omaha","PROVIDER  ADDRESS":"14450 Eagle Run Dr, Suite 104","PROVIDER ZIP 5 CD":68116,"PROVIDER ZIP 4 CD":1493,"PROVIDER PHONE NUM":4024980300,"PROVIDER PHONE EXT":"","PROGRAM YEAR":2011},"geometry":{"type":"Point","coordinates":[-96.079871,41.199304]}},{"type":"Feature","id":"5132dd72a288f42e673578ad","properties":{"_id":"5132dd72a288f42e673578ad","PROVIDER NPI":1609876606,"PROVIDER NAME":"Anderson, Derrick","PROVIDER STATE":"Nebraska","PROVIDER CITY":"Omaha","PROVIDER  ADDRESS":"2734 N 61st St","PROVIDER ZIP 5 CD":68104,"PROVIDER ZIP 4 CD":4020,"PROVIDER PHONE NUM":4025530222,"PROVIDER PHONE EXT":"","PROGRAM YEAR":2011},"geometry":{"type":"Point","coordinates":[-96.007247,41.283496]}},{"type":"Feature","id":"5132dd72a288f42e673578ae","properties":{"_id":"5132dd72a288f42e673578ae","PROVIDER NPI":1891797155,"PROVIDER NAME":"Arkfeld, Dean","PROVIDER STATE":"Nebraska","PROVIDER CITY":"Omaha","PROVIDER  ADDRESS":"16820 Frances St, Suite 100","PROVIDER ZIP 5 CD":68130,"PROVIDER ZIP 4 CD":"","PROVIDER PHONE NUM":4029336600,"PROVIDER PHONE EXT":"","PROGRAM YEAR":2011},"geometry":{"type":"Point","coordinates":[-96.068578,41.303218]}},{"type":"Feature","id":"5132dd72a288f42e673578af","properties":{"_id":"5132dd72a288f42e673578af","PROVIDER NPI":1124057559,"PROVIDER NAME":"Baker, Claire","PROVIDER STATE":"Nebraska","PROVIDER CITY":"Omaha","PROVIDER  ADDRESS":"7831 Chicago Ct","PROVIDER ZIP 5 CD":68114,"PROVIDER ZIP 4 CD":"","PROVIDER PHONE NUM":4025612740,"PROVIDER PHONE EXT":"","PROGRAM YEAR":2011},"geometry":{"type":"Point","coordinates":[-96.037612,41.262547]}},{"type":"Feature","id":"5132dd72a288f42e673578b0","properties":{"_id":"5132dd72a288f42e673578b0","PROVIDER NPI":1568476679,"PROVIDER NAME":"Beacom, Matthew","PROVIDER STATE":"Nebraska","PROVIDER CITY":"Fremont","PROVIDER  ADDRESS":"1625 E Military Ave","PROVIDER ZIP 5 CD":68025,"PROVIDER ZIP 4 CD":5463,"PROVIDER PHONE NUM":4027218830,"PROVIDER PHONE EXT":"","PROGRAM YEAR":2011},"geometry":{"type":"Point","coordinates":[-96.477053,41.434587]}},{"type":"Feature","id":"5132dd72a288f42e673578b1","properties":{"_id":"5132dd72a288f42e673578b1","PROVIDER NPI":1184682080,"PROVIDER NAME":"Beamon, Kristin","PROVIDER STATE":"Nebraska","PROVIDER CITY":"Scottsbluff","PROVIDER  ADDRESS":"24 W 17th St","PROVIDER ZIP 5 CD":69361,"PROVIDER ZIP 4 CD":3156,"PROVIDER PHONE NUM":3086300551,"PROVIDER PHONE EXT":"","PROGRAM YEAR":2011},"geometry":{"type":"Point","coordinates":[-103.662977,41.863189]}},{"type":"Feature","id":"5132dd72a288f42e673578b2","properties":{"_id":"5132dd72a288f42e673578b2","PROVIDER NPI":1669709879,"PROVIDER NAME":"Behrend, Ryan","PROVIDER STATE":"Nebraska","PROVIDER CITY":"Kimball","PROVIDER  ADDRESS":"111 E 2nd St","PROVIDER ZIP 5 CD":69145,"PROVIDER ZIP 4 CD":1208,"PROVIDER PHONE NUM":3082353601,"PROVIDER PHONE EXT":"","PROGRAM YEAR":2011},"geometry":{"type":"Point","coordinates":[-103.662876,41.237194]}},{"type":"Feature","id":"5132dd72a288f42e673578b3","properties":{"_id":"5132dd72a288f42e673578b3","PROVIDER NPI":1225141211,"PROVIDER NAME":"Benes, Michelle","PROVIDER STATE":"Nebraska","PROVIDER CITY":"Omaha","PROVIDER  ADDRESS":"16909 Lakeside Hills Ct, Sutie 300","PROVIDER ZIP 5 CD":68130,"PROVIDER ZIP 4 CD":4664,"PROVIDER PHONE NUM":4027585400,"PROVIDER PHONE EXT":"","PROGRAM YEAR":2011},"geometry":{"type":"Point","coordinates":[-96.178753,41.237424]}},{"type":"Feature","id":"5132dd72a288f42e673578b4","properties":{"_id":"5132dd72a288f42e673578b4","PROVIDER NPI":1083807952,"PROVIDER NAME":"Beran, Margaret","PROVIDER STATE":"Nebraska","PROVIDER CITY":"Omaha","PROVIDER  ADDRESS":"6829 N 72nd St, Suite 4500","PROVIDER ZIP 5 CD":68122,"PROVIDER ZIP 4 CD":1723,"PROVIDER PHONE NUM":4025723790,"PROVIDER PHONE EXT":"","PROGRAM YEAR":2011},"geometry":{"type":"Point","coordinates":[-96.023757,41.32019]}},{"type":"Feature","id":"5132dd72a288f42e673578b5","properties":{"_id":"5132dd72a288f42e673578b5","PROVIDER NPI":1538175567,"PROVIDER NAME":"Bergman, Christopher","PROVIDER STATE":"Nebraska","PROVIDER CITY":"Omaha","PROVIDER  ADDRESS":"11606 Nicholas St, Suite 200","PROVIDER ZIP 5 CD":68154,"PROVIDER ZIP 4 CD":4478,"PROVIDER PHONE NUM":4024933712,"PROVIDER PHONE EXT":"","PROGRAM YEAR":2011},"geometry":{"type":"Point","coordinates":[-96.113022,41.269952]}},{"type":"Feature","id":"5132dd72a288f42e673578b6","properties":{"_id":"5132dd72a288f42e673578b6","PROVIDER NPI":1750330189,"PROVIDER NAME":"Bertolini, Patrick","PROVIDER STATE":"Nebraska","PROVIDER CITY":"Lincoln","PROVIDER  ADDRESS":"3540 Village Dr, Suite 100","PROVIDER ZIP 5 CD":68516,"PROVIDER ZIP 4 CD":4706,"PROVIDER PHONE NUM":4024207113,"PROVIDER PHONE EXT":"","PROGRAM YEAR":2011},"geometry":{"type":"Point","coordinates":[-96.667622,40.755278]}},{"type":"Feature","id":"5132dd72a288f42e673578b7","properties":{"_id":"5132dd72a288f42e673578b7","PROVIDER NPI":1184773327,"PROVIDER NAME":"Besse, Thomas","PROVIDER STATE":"Nebraska","PROVIDER CITY":"Omaha","PROVIDER  ADDRESS":"8141 W Center Rd, Suite 200","PROVIDER ZIP 5 CD":68124,"PROVIDER ZIP 4 CD":3273,"PROVIDER PHONE NUM":4023913870,"PROVIDER PHONE EXT":"","PROGRAM YEAR":2011},"geometry":{"type":"Point","coordinates":[-96.037584,41.234111]}},{"type":"Feature","id":"5132dd72a288f42e673578b8","properties":{"_id":"5132dd72a288f42e673578b8","PROVIDER NPI":1053339846,"PROVIDER NAME":"Bigelow, Scott","PROVIDER STATE":"Nebraska","PROVIDER CITY":"Lincoln","PROVIDER  ADDRESS":"6900 A St, Suite 100","PROVIDER ZIP 5 CD":68510,"PROVIDER ZIP 4 CD":4120,"PROVIDER PHONE NUM":4024362000,"PROVIDER PHONE EXT":"","PROGRAM YEAR":2011},"geometry":{"type":"Point","coordinates":[-96.626961,40.798989]}},{"type":"Feature","id":"5132dd72a288f42e673578b9","properties":{"_id":"5132dd72a288f42e673578b9","PROVIDER NPI":1881663847,"PROVIDER NAME":"Birkholtz-Wier, Marlene","PROVIDER STATE":"Nebraska","PROVIDER CITY":"Ogallala","PROVIDER  ADDRESS":"2601 N Spruce St","PROVIDER ZIP 5 CD":69153,"PROVIDER ZIP 4 CD":2465,"PROVIDER PHONE NUM":3082843645,"PROVIDER PHONE EXT":"","PROGRAM YEAR":2011},"geometry":{"type":"Point","coordinates":[-101.720371,41.150852]}},{"type":"Feature","id":"5132dd72a288f42e673578ba","properties":{"_id":"5132dd72a288f42e673578ba","PROVIDER NPI":1992731574,"PROVIDER NAME":"Bisenius, Marjorie","PROVIDER STATE":"Nebraska","PROVIDER CITY":"Omaha","PROVIDER  ADDRESS":"2727 S 144th St, #280","PROVIDER ZIP 5 CD":68144,"PROVIDER ZIP 4 CD":5225,"PROVIDER PHONE NUM":4027785490,"PROVIDER PHONE EXT":"","PROGRAM YEAR":2011},"geometry":{"type":"Point","coordinates":[-96.138511,41.233708]}},{"type":"Feature","id":"5132dd72a288f42e673578bb","properties":{"_id":"5132dd72a288f42e673578bb","PROVIDER NPI":1285609685,"PROVIDER NAME":"Blad, Kenneth","PROVIDER STATE":"Nebraska","PROVIDER CITY":"Omaha","PROVIDER  ADDRESS":"2727 S 144th St, #280","PROVIDER ZIP 5 CD":68144,"PROVIDER ZIP 4 CD":5225,"PROVIDER PHONE NUM":4027785490,"PROVIDER PHONE EXT":"","PROGRAM YEAR":2011},"geometry":{"type":"Point","coordinates":[-96.138511,41.233708]}},{"type":"Feature","id":"5132dd72a288f42e673578bc","properties":{"_id":"5132dd72a288f42e673578bc","PROVIDER NPI":1295735702,"PROVIDER NAME":"Blair, Brandon","PROVIDER STATE":"Nebraska","PROVIDER CITY":"Ord","PROVIDER  ADDRESS":"1511 M Street","PROVIDER ZIP 5 CD":68862,"PROVIDER ZIP 4 CD":1428,"PROVIDER PHONE NUM":3087283229,"PROVIDER PHONE EXT":"","PROGRAM YEAR":2011},"geometry":{"type":"Point","coordinates":[-98.928233,41.602055]}},{"type":"Feature","id":"5132dd72a288f42e673578bd","properties":{"_id":"5132dd72a288f42e673578bd","PROVIDER NPI":1265453161,"PROVIDER NAME":"Blake, Rachel","PROVIDER STATE":"Nebraska","PROVIDER CITY":"Lincoln","PROVIDER  ADDRESS":"2900 S 70th St, Suite 310","PROVIDER ZIP 5 CD":68506,"PROVIDER ZIP 4 CD":3688,"PROVIDER PHONE NUM":4024345235,"PROVIDER PHONE EXT":"","PROGRAM YEAR":2011},"geometry":{"type":"Point","coordinates":[-96.624924,40.783658]}},{"type":"Feature","id":"5132dd72a288f42e673578be","properties":{"_id":"5132dd72a288f42e673578be","PROVIDER NPI":1548351893,"PROVIDER NAME":"Blomstedt, Jason","PROVIDER STATE":"Nebraska","PROVIDER CITY":"Mc Cook","PROVIDER  ADDRESS":"1401 E H St","PROVIDER ZIP 5 CD":69001,"PROVIDER ZIP 4 CD":3589,"PROVIDER PHONE NUM":3083444110,"PROVIDER PHONE EXT":"","PROGRAM YEAR":2011},"geometry":{"type":"Point","coordinates":[-100.608219,40.204409]}},{"type":"Feature","id":"5132dd72a288f42e673578bf","properties":{"_id":"5132dd72a288f42e673578bf","PROVIDER NPI":1487716395,"PROVIDER NAME":"Blumenstock, Bradley","PROVIDER STATE":"Nebraska","PROVIDER CITY":"ONeill","PROVIDER  ADDRESS":"214 N 10th St, POBox 378","PROVIDER ZIP 5 CD":68763,"PROVIDER ZIP 4 CD":1604,"PROVIDER PHONE NUM":4023362505,"PROVIDER PHONE EXT":"","PROGRAM YEAR":2011},"geometry":{"type":"Point","coordinates":[-98.665685,42.370456]}},{"type":"Feature","id":"5132dd72a288f42e673578c0","properties":{"_id":"5132dd72a288f42e673578c0","PROVIDER NPI":1164475729,"PROVIDER NAME":"Bodnar, Dawn","PROVIDER STATE":"Nebraska","PROVIDER CITY":"Omaha","PROVIDER  ADDRESS":"7500 Mercy Rd","PROVIDER ZIP 5 CD":68124,"PROVIDER ZIP 4 CD":2319,"PROVIDER PHONE NUM":4023985880,"PROVIDER PHONE EXT":"","PROGRAM YEAR":2011},"geometry":{"type":"Point","coordinates":[-96.028715,41.237905]}},{"type":"Feature","id":"5132dd72a288f42e673578c1","properties":{"_id":"5132dd72a288f42e673578c1","PROVIDER NPI":1891803896,"PROVIDER NAME":"BOHART, ANDREW","PROVIDER STATE":"Nebraska","PROVIDER CITY":"Lincoln","PROVIDER  ADDRESS":"4424 S 86th St","PROVIDER ZIP 5 CD":68526,"PROVIDER ZIP 4 CD":9225,"PROVIDER PHONE NUM":4024838500,"PROVIDER PHONE EXT":"","PROGRAM YEAR":2011},"geometry":{"type":"Point","coordinates":[-96.602489,40.746322]}},{"type":"Feature","id":"5132dd72a288f42e673578c2","properties":{"_id":"5132dd72a288f42e673578c2","PROVIDER NPI":1710928130,"PROVIDER NAME":"Bohlen, Barry","PROVIDER STATE":"Nebraska","PROVIDER CITY":"Hastings","PROVIDER  ADDRESS":"2207 Osborne Dr W, Suite 100","PROVIDER ZIP 5 CD":68901,"PROVIDER ZIP 4 CD":9112,"PROVIDER PHONE NUM":4024622139,"PROVIDER PHONE EXT":"","PROGRAM YEAR":2011},"geometry":{"type":"Point","coordinates":[-98.382945,40.607956]}},{"type":"Feature","id":"5132dd72a288f42e673578c3","properties":{"_id":"5132dd72a288f42e673578c3","PROVIDER NPI":1811041304,"PROVIDER NAME":"Bossert, Robert","PROVIDER STATE":"Nebraska","PROVIDER CITY":"Omaha","PROVIDER  ADDRESS":"17001 Lakeside Hills Plz, Suite 100","PROVIDER ZIP 5 CD":68130,"PROVIDER ZIP 4 CD":4670,"PROVIDER PHONE NUM":4026977200,"PROVIDER PHONE EXT":111,"PROGRAM YEAR":2011},"geometry":{"type":"Point","coordinates":[-96.068578,41.303218]}},{"type":"Feature","id":"5132dd72a288f42e673578c4","properties":{"_id":"5132dd72a288f42e673578c4","PROVIDER NPI":1982613790,"PROVIDER NAME":"Bott, Matthew","PROVIDER STATE":"Nebraska","PROVIDER CITY":"Omaha","PROVIDER  ADDRESS":"16909 Lakeside Hills Ct, Suite 300","PROVIDER ZIP 5 CD":68130,"PROVIDER ZIP 4 CD":4664,"PROVIDER PHONE NUM":4027585400,"PROVIDER PHONE EXT":"","PROGRAM YEAR":2011},"geometry":{"type":"Point","coordinates":[-96.178753,41.237424]}},{"type":"Feature","id":"5132dd72a288f42e673578c5","properties":{"_id":"5132dd72a288f42e673578c5","PROVIDER NPI":1801945043,"PROVIDER NAME":"Bowen, J.","PROVIDER STATE":"Nebraska","PROVIDER CITY":"Omaha","PROVIDER  ADDRESS":"16909 Lakeside Hills Ct, Suite 300","PROVIDER ZIP 5 CD":68130,"PROVIDER ZIP 4 CD":4664,"PROVIDER PHONE NUM":4027585400,"PROVIDER PHONE EXT":"","PROGRAM YEAR":2011},"geometry":{"type":"Point","coordinates":[-96.178753,41.237424]}},{"type":"Feature","id":"5132dd72a288f42e673578c6","properties":{"_id":"5132dd72a288f42e673578c6","PROVIDER NPI":1114992674,"PROVIDER NAME":"Brenner, Michael","PROVIDER STATE":"Nebraska","PROVIDER CITY":"South Sioux City","PROVIDER  ADDRESS":"3250 Plaza Dr","PROVIDER ZIP 5 CD":68776,"PROVIDER ZIP 4 CD":3144,"PROVIDER PHONE NUM":4024124220,"PROVIDER PHONE EXT":"","PROGRAM YEAR":2011},"geometry":{"type":"Point","coordinates":[-96.427164,42.459678]}},{"type":"Feature","id":"5132dd72a288f42e673578c7","properties":{"_id":"5132dd72a288f42e673578c7","PROVIDER NPI":1578591103,"PROVIDER NAME":"Brittan, Jeffrey","PROVIDER STATE":"Nebraska","PROVIDER CITY":"North Platte","PROVIDER  ADDRESS":"611 W Francis St","PROVIDER ZIP 5 CD":69101,"PROVIDER ZIP 4 CD":620,"PROVIDER PHONE NUM":3085342532,"PROVIDER PHONE EXT":"","PROGRAM YEAR":2011},"geometry":{"type":"Point","coordinates":[-100.770161,41.122643]}},{"type":"Feature","id":"5132dd72a288f42e673578c8","properties":{"_id":"5132dd72a288f42e673578c8","PROVIDER NPI":1710036959,"PROVIDER NAME":"Brown, Larry","PROVIDER STATE":"Nebraska","PROVIDER CITY":"Bellevue","PROVIDER  ADDRESS":"3308 Samson Way","PROVIDER ZIP 5 CD":68123,"PROVIDER ZIP 4 CD":3234,"PROVIDER PHONE NUM":4028271577,"PROVIDER PHONE EXT":"","PROGRAM YEAR":2011},"geometry":{"type":"Point","coordinates":[-95.939269,41.115628]}},{"type":"Feature","id":"5132dd72a288f42e673578c9","properties":{"_id":"5132dd72a288f42e673578c9","PROVIDER NPI":1902809387,"PROVIDER NAME":"Burd, Timothy","PROVIDER STATE":"Nebraska","PROVIDER CITY":"Omaha","PROVIDER  ADDRESS":"13616 California St, Ste 100","PROVIDER ZIP 5 CD":68154,"PROVIDER ZIP 4 CD":5335,"PROVIDER PHONE NUM":4024960404,"PROVIDER PHONE EXT":"","PROGRAM YEAR":2011},"geometry":{"type":"Point","coordinates":[-96.148888,41.264566]}},{"type":"Feature","id":"5132dd72a288f42e673578ca","properties":{"_id":"5132dd72a288f42e673578ca","PROVIDER NPI":1437373081,"PROVIDER NAME":"Burhan, Khalil","PROVIDER STATE":"Nebraska","PROVIDER CITY":"Bellevue","PROVIDER  ADDRESS":"Creighton Family Medicine, 3802 Raynor Parkway","PROVIDER ZIP 5 CD":68123,"PROVIDER ZIP 4 CD":"","PROVIDER PHONE NUM":4022803550,"PROVIDER PHONE EXT":"","PROGRAM YEAR":2011},"geometry":{"type":"Point","coordinates":[-95.97278,41.147385]}},{"type":"Feature","id":"5132dd72a288f42e673578cb","properties":{"_id":"5132dd72a288f42e673578cb","PROVIDER NPI":1548235955,"PROVIDER NAME":"Burke, Jill","PROVIDER STATE":"Nebraska","PROVIDER CITY":"Omaha","PROVIDER  ADDRESS":"4239 Farnam St, Suite 734","PROVIDER ZIP 5 CD":68131,"PROVIDER ZIP 4 CD":2868,"PROVIDER PHONE NUM":4025522700,"PROVIDER PHONE EXT":"","PROGRAM YEAR":2011},"geometry":{"type":"Point","coordinates":[-95.976226,41.257736]}},{"type":"Feature","id":"5132dd72a288f42e673578cc","properties":{"_id":"5132dd72a288f42e673578cc","PROVIDER NPI":1649248220,"PROVIDER NAME":"Byrd, John","PROVIDER STATE":"Nebraska","PROVIDER CITY":"Ogallala","PROVIDER  ADDRESS":"2601 N Spruce St","PROVIDER ZIP 5 CD":69153,"PROVIDER ZIP 4 CD":2465,"PROVIDER PHONE NUM":3082843645,"PROVIDER PHONE EXT":"","PROGRAM YEAR":2011},"geometry":{"type":"Point","coordinates":[-101.720371,41.150852]}},{"type":"Feature","id":"5132dd72a288f42e673578cd","properties":{"_id":"5132dd72a288f42e673578cd","PROVIDER NPI":1831206739,"PROVIDER NAME":"BYRD, PHYLLIS","PROVIDER STATE":"Nebraska","PROVIDER CITY":"Omaha","PROVIDER  ADDRESS":"4242 Farnam St, #150","PROVIDER ZIP 5 CD":68131,"PROVIDER ZIP 4 CD":2806,"PROVIDER PHONE NUM":4025526747,"PROVIDER PHONE EXT":"","PROGRAM YEAR":2011},"geometry":{"type":"Point","coordinates":[-95.976269,41.257887]}},{"type":"Feature","id":"5132dd72a288f42e673578ce","properties":{"_id":"5132dd72a288f42e673578ce","PROVIDER NPI":1770529190,"PROVIDER NAME":"Campbell, Melvin","PROVIDER STATE":"Nebraska","PROVIDER CITY":"Ainsworth","PROVIDER  ADDRESS":"913 E Zero St","PROVIDER ZIP 5 CD":69210,"PROVIDER ZIP 4 CD":287,"PROVIDER PHONE NUM":4023871900,"PROVIDER PHONE EXT":"","PROGRAM YEAR":2011},"geometry":{"type":"Point","coordinates":[-99.85175,42.544831]}},{"type":"Feature","id":"5132dd72a288f42e673578cf","properties":{"_id":"5132dd72a288f42e673578cf","PROVIDER NPI":1760459093,"PROVIDER NAME":"Carollo, Scott","PROVIDER STATE":"Nebraska","PROVIDER CITY":"Omaha","PROVIDER  ADDRESS":"7500 Mercy Rd","PROVIDER ZIP 5 CD":68124,"PROVIDER ZIP 4 CD":2319,"PROVIDER PHONE NUM":4023985880,"PROVIDER PHONE EXT":"","PROGRAM YEAR":2011},"geometry":{"type":"Point","coordinates":[-96.028715,41.237905]}},{"type":"Feature","id":"5132dd72a288f42e673578d0","properties":{"_id":"5132dd72a288f42e673578d0","PROVIDER NPI":1124135579,"PROVIDER NAME":"Carraher, James","PROVIDER STATE":"Nebraska","PROVIDER CITY":"Lincoln","PROVIDER  ADDRESS":"3201 Pioneers Blvd Ste 304","PROVIDER ZIP 5 CD":68502,"PROVIDER ZIP 4 CD":5963,"PROVIDER PHONE NUM":4024832987,"PROVIDER PHONE EXT":"","PROGRAM YEAR":2011},"geometry":{"type":"Point","coordinates":[-96.674037,40.769872]}},{"type":"Feature","id":"5132dd72a288f42e673578d1","properties":{"_id":"5132dd72a288f42e673578d1","PROVIDER NPI":1730265976,"PROVIDER NAME":"Carstens, Jeffrey","PROVIDER STATE":"Nebraska","PROVIDER CITY":"Omaha","PROVIDER  ADDRESS":"7500 Mercy Rd","PROVIDER ZIP 5 CD":68124,"PROVIDER ZIP 4 CD":2319,"PROVIDER PHONE NUM":4023985880,"PROVIDER PHONE EXT":"","PROGRAM YEAR":2011},"geometry":{"type":"Point","coordinates":[-96.028715,41.237905]}},{"type":"Feature","id":"5132dd72a288f42e673578d2","properties":{"_id":"5132dd72a288f42e673578d2","PROVIDER NPI":1801819537,"PROVIDER NAME":"Chanlatte-Garcia, Jacqueline","PROVIDER STATE":"Nebraska","PROVIDER CITY":"Omaha","PROVIDER  ADDRESS":"4242 Farnam St Ste 142","PROVIDER ZIP 5 CD":68131,"PROVIDER ZIP 4 CD":2850,"PROVIDER PHONE NUM":4025522212,"PROVIDER PHONE EXT":"","PROGRAM YEAR":2011},"geometry":{"type":"Point","coordinates":[-95.976269,41.257887]}},{"type":"Feature","id":"5132dd72a288f42e673578d3","properties":{"_id":"5132dd72a288f42e673578d3","PROVIDER NPI":1114967601,"PROVIDER NAME":"Chapman, Cheryl","PROVIDER STATE":"Nebraska","PROVIDER CITY":"Gretna","PROVIDER  ADDRESS":"814 Village Sq","PROVIDER ZIP 5 CD":68028,"PROVIDER ZIP 4 CD":7914,"PROVIDER PHONE NUM":4023320220,"PROVIDER PHONE EXT":"","PROGRAM YEAR":2011},"geometry":{"type":"Point","coordinates":[-96.239594,41.145859]}},{"type":"Feature","id":"5132dd72a288f42e673578d4","properties":{"_id":"5132dd72a288f42e673578d4","PROVIDER NPI":1841260478,"PROVIDER NAME":"Chatwell, Rick","PROVIDER STATE":"Nebraska","PROVIDER CITY":"Lincoln","PROVIDER  ADDRESS":"3901 Pine Lake Rd, Suite 120","PROVIDER ZIP 5 CD":68516,"PROVIDER ZIP 4 CD":5497,"PROVIDER PHONE NUM":4024201212,"PROVIDER PHONE EXT":3417,"PROGRAM YEAR":2011},"geometry":{"type":"Point","coordinates":[-96.616844,40.740783]}},{"type":"Feature","id":"5132dd72a288f42e673578d5","properties":{"_id":"5132dd72a288f42e673578d5","PROVIDER NPI":1568568384,"PROVIDER NAME":"Cheatham, Kyle","PROVIDER STATE":"Nebraska","PROVIDER CITY":"Omaha","PROVIDER  ADDRESS":"9900 Nicholas St, Ste 250","PROVIDER ZIP 5 CD":68114,"PROVIDER ZIP 4 CD":2149,"PROVIDER PHONE NUM":4024936500,"PROVIDER PHONE EXT":"","PROGRAM YEAR":2011},"geometry":{"type":"Point","coordinates":[-96.035017,41.26969]}},{"type":"Feature","id":"5132dd72a288f42e673578d6","properties":{"_id":"5132dd72a288f42e673578d6","PROVIDER NPI":1982616090,"PROVIDER NAME":"Cheloha, Kenneth","PROVIDER STATE":"Nebraska","PROVIDER CITY":"Lincoln","PROVIDER  ADDRESS":"3901 Pine Lake Rd, Suite 220","PROVIDER ZIP 5 CD":68516,"PROVIDER ZIP 4 CD":5497,"PROVIDER PHONE NUM":4024213240,"PROVIDER PHONE EXT":"","PROGRAM YEAR":2011},"geometry":{"type":"Point","coordinates":[-96.616844,40.740783]}},{"type":"Feature","id":"5132dd72a288f42e673578d7","properties":{"_id":"5132dd72a288f42e673578d7","PROVIDER NPI":1376587824,"PROVIDER NAME":"Chingren, Gary","PROVIDER STATE":"Nebraska","PROVIDER CITY":"Hastings","PROVIDER  ADDRESS":"2207 Osborne Dr W, Suite 100","PROVIDER ZIP 5 CD":68901,"PROVIDER ZIP 4 CD":9112,"PROVIDER PHONE NUM":4024622139,"PROVIDER PHONE EXT":"","PROGRAM YEAR":2011},"geometry":{"type":"Point","coordinates":[-98.382945,40.607956]}},{"type":"Feature","id":"5132dd72a288f42e673578d8","properties":{"_id":"5132dd72a288f42e673578d8","PROVIDER NPI":1194804112,"PROVIDER NAME":"Christensen, Michael","PROVIDER STATE":"Nebraska","PROVIDER CITY":"Bridgeport","PROVIDER  ADDRESS":"805 Main Street","PROVIDER ZIP 5 CD":69336,"PROVIDER ZIP 4 CD":759,"PROVIDER PHONE NUM":3082621155,"PROVIDER PHONE EXT":"","PROGRAM YEAR":2011},"geometry":{"type":"Point","coordinates":[-103.09962,41.667142]}},{"type":"Feature","id":"5132dd72a288f42e673578d9","properties":{"_id":"5132dd72a288f42e673578d9","PROVIDER NPI":1710957311,"PROVIDER NAME":"Churchill, Melvin","PROVIDER STATE":"Nebraska","PROVIDER CITY":"Lincoln","PROVIDER  ADDRESS":"3901 Pine Lake Rd, Suite 120","PROVIDER ZIP 5 CD":68516,"PROVIDER ZIP 4 CD":5497,"PROVIDER PHONE NUM":4024201212,"PROVIDER PHONE EXT":3417,"PROGRAM YEAR":2011},"geometry":{"type":"Point","coordinates":[-96.616844,40.740783]}},{"type":"Feature","id":"5132dd72a288f42e673578da","properties":{"_id":"5132dd72a288f42e673578da","PROVIDER NPI":1538187893,"PROVIDER NAME":"Citta, Jason","PROVIDER STATE":"Nebraska","PROVIDER CITY":"North Platte","PROVIDER  ADDRESS":"611 W Francis St, Suite 100","PROVIDER ZIP 5 CD":69101,"PROVIDER ZIP 4 CD":620,"PROVIDER PHONE NUM":3085342532,"PROVIDER PHONE EXT":"","PROGRAM YEAR":2011},"geometry":{"type":"Point","coordinates":[-100.757898,41.122631]}},{"type":"Feature","id":"5132dd72a288f42e673578db","properties":{"_id":"5132dd72a288f42e673578db","PROVIDER NPI":1831270636,"PROVIDER NAME":"Clark, Nanci","PROVIDER STATE":"Nebraska","PROVIDER CITY":"Omaha","PROVIDER  ADDRESS":"7811 Chicago Ct","PROVIDER ZIP 5 CD":68114,"PROVIDER ZIP 4 CD":3654,"PROVIDER PHONE NUM":4029262600,"PROVIDER PHONE EXT":"","PROGRAM YEAR":2011},"geometry":{"type":"Point","coordinates":[-96.037325,41.262578]}},{"type":"Feature","id":"5132dd72a288f42e673578dc","properties":{"_id":"5132dd72a288f42e673578dc","PROVIDER NPI":1285631721,"PROVIDER NAME":"Colglazier, Clifford","PROVIDER STATE":"Nebraska","PROVIDER CITY":"Grant","PROVIDER  ADDRESS":"945 Washington Ave","PROVIDER ZIP 5 CD":69140,"PROVIDER ZIP 4 CD":3044,"PROVIDER PHONE NUM":3083522122,"PROVIDER PHONE EXT":"","PROGRAM YEAR":2011},"geometry":{"type":"Point","coordinates":[-101.723978,40.849409]}},{"type":"Feature","id":"5132dd72a288f42e673578dd","properties":{"_id":"5132dd72a288f42e673578dd","PROVIDER NPI":1730154147,"PROVIDER NAME":"Collins, Linda","PROVIDER STATE":"Nebraska","PROVIDER CITY":"Omaha","PROVIDER  ADDRESS":"4239 Farnam St, Suite 734","PROVIDER ZIP 5 CD":68131,"PROVIDER ZIP 4 CD":2868,"PROVIDER PHONE NUM":4025522700,"PROVIDER PHONE EXT":"","PROGRAM YEAR":2011},"geometry":{"type":"Point","coordinates":[-95.976226,41.257736]}},{"type":"Feature","id":"5132dd72a288f42e673578de","properties":{"_id":"5132dd72a288f42e673578de","PROVIDER NPI":1881616167,"PROVIDER NAME":"CONNOLLY, CHRISTOPHER","PROVIDER STATE":"Nebraska","PROVIDER CITY":"Omaha","PROVIDER  ADDRESS":"14450 Eagle Run Dr, SUITE 104","PROVIDER ZIP 5 CD":68116,"PROVIDER ZIP 4 CD":1493,"PROVIDER PHONE NUM":4024980300,"PROVIDER PHONE EXT":"","PROGRAM YEAR":2011},"geometry":{"type":"Point","coordinates":[-96.079871,41.199304]}},{"type":"Feature","id":"5132dd72a288f42e673578df","properties":{"_id":"5132dd72a288f42e673578df","PROVIDER NPI":1366436701,"PROVIDER NAME":"Cook, Jeffrey","PROVIDER STATE":"Nebraska","PROVIDER CITY":"Sidney","PROVIDER  ADDRESS":"900 Pine St","PROVIDER ZIP 5 CD":69162,"PROVIDER ZIP 4 CD":61,"PROVIDER PHONE NUM":3082544041,"PROVIDER PHONE EXT":19,"PROGRAM YEAR":2011},"geometry":{"type":"Point","coordinates":[-102.975607,41.138012]}},{"type":"Feature","id":"5132dd72a288f42e673578e0","properties":{"_id":"5132dd72a288f42e673578e0","PROVIDER NPI":1487874962,"PROVIDER NAME":"Cooper, Erin","PROVIDER STATE":"Nebraska","PROVIDER CITY":"Fremont","PROVIDER  ADDRESS":"2540 North Healthy Way","PROVIDER ZIP 5 CD":68025,"PROVIDER ZIP 4 CD":2300,"PROVIDER PHONE NUM":4027271091,"PROVIDER PHONE EXT":"","PROGRAM YEAR":2011},"geometry":{"type":"Point","coordinates":[-96.501672,41.487786]}},{"type":"Feature","id":"5132dd72a288f42e673578e1","properties":{"_id":"5132dd72a288f42e673578e1","PROVIDER NPI":1336299320,"PROVIDER NAME":"Cote, John","PROVIDER STATE":"Nebraska","PROVIDER CITY":"Omaha","PROVIDER  ADDRESS":"8141 W Center Rd, Suite 200","PROVIDER ZIP 5 CD":68124,"PROVIDER ZIP 4 CD":3273,"PROVIDER PHONE NUM":4023913870,"PROVIDER PHONE EXT":"","PROGRAM YEAR":2011},"geometry":{"type":"Point","coordinates":[-96.037584,41.234111]}},{"type":"Feature","id":"5132dd72a288f42e673578e2","properties":{"_id":"5132dd72a288f42e673578e2","PROVIDER NPI":1629287602,"PROVIDER NAME":"Couchonnal, Luis","PROVIDER STATE":"Nebraska","PROVIDER CITY":"Omaha","PROVIDER  ADDRESS":"7500 Mercy Rd","PROVIDER ZIP 5 CD":68124,"PROVIDER ZIP 4 CD":2319,"PROVIDER PHONE NUM":4023985880,"PROVIDER PHONE EXT":"","PROGRAM YEAR":2011},"geometry":{"type":"Point","coordinates":[-96.028715,41.237905]}},{"type":"Feature","id":"5132dd72a288f42e673578e3","properties":{"_id":"5132dd72a288f42e673578e3","PROVIDER NPI":1063562056,"PROVIDER NAME":"Cronican, Patrick","PROVIDER STATE":"Nebraska","PROVIDER CITY":"Omaha","PROVIDER  ADDRESS":"5014 L St","PROVIDER ZIP 5 CD":68117,"PROVIDER ZIP 4 CD":1329,"PROVIDER PHONE NUM":4027334433,"PROVIDER PHONE EXT":"","PROGRAM YEAR":2011},"geometry":{"type":"Point","coordinates":[-95.991149,41.212601]}},{"type":"Feature","id":"5132dd72a288f42e673578e4","properties":{"_id":"5132dd72a288f42e673578e4","PROVIDER NPI":1104810795,"PROVIDER NAME":"Crotty, John","PROVIDER STATE":"Nebraska","PROVIDER CITY":"Auburn","PROVIDER  ADDRESS":"922 Alden Dr","PROVIDER ZIP 5 CD":68305,"PROVIDER ZIP 4 CD":3021,"PROVIDER PHONE NUM":4022743218,"PROVIDER PHONE EXT":"","PROGRAM YEAR":2011},"geometry":{"type":"Point","coordinates":[-95.838571,40.381427]}},{"type":"Feature","id":"5132dd72a288f42e673578e5","properties":{"_id":"5132dd72a288f42e673578e5","PROVIDER NPI":1851329114,"PROVIDER NAME":"Cullen, Michael","PROVIDER STATE":"Nebraska","PROVIDER CITY":"Omaha","PROVIDER  ADDRESS":"16909 Burke St., suite 200","PROVIDER ZIP 5 CD":68118,"PROVIDER ZIP 4 CD":2268,"PROVIDER PHONE NUM":4023338856,"PROVIDER PHONE EXT":"","PROGRAM YEAR":2011},"geometry":{"type":"Point","coordinates":[-96.176931,41.259807]}},{"type":"Feature","id":"5132dd72a288f42e673578e6","properties":{"_id":"5132dd72a288f42e673578e6","PROVIDER NPI":1396771978,"PROVIDER NAME":"Darst, Donald","PROVIDER STATE":"Nebraska","PROVIDER CITY":"Omaha","PROVIDER  ADDRESS":"4242 Farnam St, #150","PROVIDER ZIP 5 CD":68131,"PROVIDER ZIP 4 CD":2806,"PROVIDER PHONE NUM":4025526747,"PROVIDER PHONE EXT":"","PROGRAM YEAR":2011},"geometry":{"type":"Point","coordinates":[-95.976269,41.257887]}},{"type":"Feature","id":"5132dd72a288f42e673578e7","properties":{"_id":"5132dd72a288f42e673578e7","PROVIDER NPI":1376626416,"PROVIDER NAME":"Davis, Mark","PROVIDER STATE":"Nebraska","PROVIDER CITY":"Norfolk","PROVIDER  ADDRESS":"301 N 31st Street","PROVIDER ZIP 5 CD":68701,"PROVIDER ZIP 4 CD":"","PROVIDER PHONE NUM":4026444600,"PROVIDER PHONE EXT":"","PROGRAM YEAR":2011},"geometry":{"type":"Point","coordinates":[-97.455962,42.034524]}},{"type":"Feature","id":"5132dd72a288f42e673578e8","properties":{"_id":"5132dd72a288f42e673578e8","PROVIDER NPI":1841279080,"PROVIDER NAME":"Davy, Timothy","PROVIDER STATE":"Nebraska","PROVIDER CITY":"Norfolk","PROVIDER  ADDRESS":"900 W Norfolk Ave, Suite 100","PROVIDER ZIP 5 CD":68701,"PROVIDER ZIP 4 CD":5056,"PROVIDER PHONE NUM":4023712326,"PROVIDER PHONE EXT":"","PROGRAM YEAR":2011},"geometry":{"type":"Point","coordinates":[-97.368176,42.032979]}},{"type":"Feature","id":"5132dd72a288f42e673578e9","properties":{"_id":"5132dd72a288f42e673578e9","PROVIDER NPI":1588673735,"PROVIDER NAME":"Denkinger, Angela","PROVIDER STATE":"Nebraska","PROVIDER CITY":"Norfolk","PROVIDER  ADDRESS":"214 N 7th St, Suite 7","PROVIDER ZIP 5 CD":68701,"PROVIDER ZIP 4 CD":4083,"PROVIDER PHONE NUM":4023714673,"PROVIDER PHONE EXT":"","PROGRAM YEAR":2011},"geometry":{"type":"Point","coordinates":[-97.416885,42.035094]}},{"type":"Feature","id":"5132dd72a288f42e673578ea","properties":{"_id":"5132dd72a288f42e673578ea","PROVIDER NPI":1134194541,"PROVIDER NAME":"DeVries, Frank","PROVIDER STATE":"Nebraska","PROVIDER CITY":"Omaha","PROVIDER  ADDRESS":"4239 Farnam St, Suite 734","PROVIDER ZIP 5 CD":68131,"PROVIDER ZIP 4 CD":2868,"PROVIDER PHONE NUM":4025522700,"PROVIDER PHONE EXT":"","PROGRAM YEAR":2011},"geometry":{"type":"Point","coordinates":[-95.976226,41.257736]}},{"type":"Feature","id":"5132dd72a288f42e673578eb","properties":{"_id":"5132dd72a288f42e673578eb","PROVIDER NPI":1134283567,"PROVIDER NAME":"Diercks, Mark","PROVIDER STATE":"Nebraska","PROVIDER CITY":"Omaha","PROVIDER  ADDRESS":"2027 Dodge Street, Suite 504","PROVIDER ZIP 5 CD":68102,"PROVIDER ZIP 4 CD":1229,"PROVIDER PHONE NUM":4023481996,"PROVIDER PHONE EXT":"","PROGRAM YEAR":2011},"geometry":{"type":"Point","coordinates":[-95.942488,41.259676]}},{"type":"Feature","id":"5132dd72a288f42e673578ec","properties":{"_id":"5132dd72a288f42e673578ec","PROVIDER NPI":1700851847,"PROVIDER NAME":"Dilley, Colleen","PROVIDER STATE":"Nebraska","PROVIDER CITY":"Fremont","PROVIDER  ADDRESS":"700 E 29th St","PROVIDER ZIP 5 CD":68025,"PROVIDER ZIP 4 CD":2384,"PROVIDER PHONE NUM":4027213133,"PROVIDER PHONE EXT":"","PROGRAM YEAR":2011},"geometry":{"type":"Point","coordinates":[-96.490122,41.456762]}},{"type":"Feature","id":"5132dd72a288f42e673578ed","properties":{"_id":"5132dd72a288f42e673578ed","PROVIDER NPI":1093761041,"PROVIDER NAME":"Dix, Nicole","PROVIDER STATE":"Nebraska","PROVIDER CITY":"Fremont","PROVIDER  ADDRESS":"700 E 29th St","PROVIDER ZIP 5 CD":68025,"PROVIDER ZIP 4 CD":2384,"PROVIDER PHONE NUM":4027213133,"PROVIDER PHONE EXT":"","PROGRAM YEAR":2011},"geometry":{"type":"Point","coordinates":[-96.490122,41.456762]}},{"type":"Feature","id":"5132dd72a288f42e673578ee","properties":{"_id":"5132dd72a288f42e673578ee","PROVIDER NPI":1063610533,"PROVIDER NAME":"Drakulich, Desinee","PROVIDER STATE":"Nebraska","PROVIDER CITY":"Omaha","PROVIDER  ADDRESS":"12660 Q St","PROVIDER ZIP 5 CD":68137,"PROVIDER ZIP 4 CD":3332,"PROVIDER PHONE NUM":4028963300,"PROVIDER PHONE EXT":"","PROGRAM YEAR":2011},"geometry":{"type":"Point","coordinates":[-96.111585,41.205266]}},{"type":"Feature","id":"5132dd72a288f42e673578ef","properties":{"_id":"5132dd72a288f42e673578ef","PROVIDER NPI":1326198318,"PROVIDER NAME":"Dunning, J.","PROVIDER STATE":"Nebraska","PROVIDER CITY":"Omaha","PROVIDER  ADDRESS":"16909 Lakeside Hills Ct, Suite 300","PROVIDER ZIP 5 CD":68130,"PROVIDER ZIP 4 CD":4664,"PROVIDER PHONE NUM":4027585400,"PROVIDER PHONE EXT":"","PROGRAM YEAR":2011},"geometry":{"type":"Point","coordinates":[-96.178753,41.237424]}},{"type":"Feature","id":"5132dd72a288f42e673578f0","properties":{"_id":"5132dd72a288f42e673578f0","PROVIDER NPI":1205848314,"PROVIDER NAME":"Einspahr, Daniel","PROVIDER STATE":"Nebraska","PROVIDER CITY":"Lincoln","PROVIDER  ADDRESS":"3901 Pine Lake Rd, Suite 220","PROVIDER ZIP 5 CD":68516,"PROVIDER ZIP 4 CD":5497,"PROVIDER PHONE NUM":4024213240,"PROVIDER PHONE EXT":"","PROGRAM YEAR":2011},"geometry":{"type":"Point","coordinates":[-96.616844,40.740783]}},{"type":"Feature","id":"5132dd72a288f42e673578f1","properties":{"_id":"5132dd72a288f42e673578f1","PROVIDER NPI":1851319743,"PROVIDER NAME":"EIRINBERG, LEWIS","PROVIDER STATE":"Nebraska","PROVIDER CITY":"Omaha","PROVIDER  ADDRESS":"14450 Eagle Run Dr, SUITE 104","PROVIDER ZIP 5 CD":68116,"PROVIDER ZIP 4 CD":1493,"PROVIDER PHONE NUM":4024980380,"PROVIDER PHONE EXT":"","PROGRAM YEAR":2011},"geometry":{"type":"Point","coordinates":[-96.079871,41.199304]}},{"type":"Feature","id":"5132dd72a288f42e673578f2","properties":{"_id":"5132dd72a288f42e673578f2","PROVIDER NPI":1013152396,"PROVIDER NAME":"Ericksen, Alicia","PROVIDER STATE":"Nebraska","PROVIDER CITY":"North Platte","PROVIDER  ADDRESS":"815 South Maple St","PROVIDER ZIP 5 CD":69101,"PROVIDER ZIP 4 CD":"","PROVIDER PHONE NUM":3085323600,"PROVIDER PHONE EXT":"","PROGRAM YEAR":2011},"geometry":{"type":"Point","coordinates":[-100.770263,41.127752]}},{"type":"Feature","id":"5132dd72a288f42e673578f3","properties":{"_id":"5132dd72a288f42e673578f3","PROVIDER NPI":1992796049,"PROVIDER NAME":"Ernst, Ronald","PROVIDER STATE":"Nebraska","PROVIDER CITY":"Columbus","PROVIDER  ADDRESS":"4508 38th St, Suite 141","PROVIDER ZIP 5 CD":68601,"PROVIDER ZIP 4 CD":1668,"PROVIDER PHONE NUM":4025645333,"PROVIDER PHONE EXT":"","PROGRAM YEAR":2011},"geometry":{"type":"Point","coordinates":[-97.382677,41.453191]}},{"type":"Feature","id":"5132dd72a288f42e673578f4","properties":{"_id":"5132dd72a288f42e673578f4","PROVIDER NPI":1952528036,"PROVIDER NAME":"Evans, Erin","PROVIDER STATE":"Nebraska","PROVIDER CITY":"Omaha","PROVIDER  ADDRESS":"2808 S 80th Ave, Suite 110","PROVIDER ZIP 5 CD":68124,"PROVIDER ZIP 4 CD":3253,"PROVIDER PHONE NUM":4023913870,"PROVIDER PHONE EXT":"","PROGRAM YEAR":2011},"geometry":{"type":"Point","coordinates":[-96.038903,41.233401]}},{"type":"Feature","id":"5132dd72a288f42e673578f5","properties":{"_id":"5132dd72a288f42e673578f5","PROVIDER NPI":1255309233,"PROVIDER NAME":"Fangman, Timothy","PROVIDER STATE":"Nebraska","PROVIDER CITY":"Omaha","PROVIDER  ADDRESS":"7500 Mercy Rd","PROVIDER ZIP 5 CD":68124,"PROVIDER ZIP 4 CD":2319,"PROVIDER PHONE NUM":4023985880,"PROVIDER PHONE EXT":"","PROGRAM YEAR":2011},"geometry":{"type":"Point","coordinates":[-96.028715,41.237905]}},{"type":"Feature","id":"5132dd72a288f42e673578f6","properties":{"_id":"5132dd72a288f42e673578f6","PROVIDER NPI":1285636530,"PROVIDER NAME":"Filips, Roger","PROVIDER STATE":"Nebraska","PROVIDER CITY":"Hartington","PROVIDER  ADDRESS":"202 S Robinson Ave","PROVIDER ZIP 5 CD":68739,"PROVIDER ZIP 4 CD":548,"PROVIDER PHONE NUM":4022542020,"PROVIDER PHONE EXT":"","PROGRAM YEAR":2011},"geometry":{"type":"Point","coordinates":[-97.269426,42.618854]}},{"type":"Feature","id":"5132dd72a288f42e673578f7","properties":{"_id":"5132dd72a288f42e673578f7","PROVIDER NPI":1124093695,"PROVIDER NAME":"Folchert, Kevin","PROVIDER STATE":"Nebraska","PROVIDER CITY":"South Sioux City","PROVIDER  ADDRESS":"3250 Plaza Dr","PROVIDER ZIP 5 CD":68776,"PROVIDER ZIP 4 CD":3144,"PROVIDER PHONE NUM":4024124220,"PROVIDER PHONE EXT":"","PROGRAM YEAR":2011},"geometry":{"type":"Point","coordinates":[-96.427164,42.459678]}},{"type":"Feature","id":"5132dd72a288f42e673578f8","properties":{"_id":"5132dd72a288f42e673578f8","PROVIDER NPI":1639229677,"PROVIDER NAME":"Ford, Barry","PROVIDER STATE":"Nebraska","PROVIDER CITY":"Omaha","PROVIDER  ADDRESS":"2255 S 132nd St","PROVIDER ZIP 5 CD":68144,"PROVIDER ZIP 4 CD":2573,"PROVIDER PHONE NUM":4027173390,"PROVIDER PHONE EXT":"","PROGRAM YEAR":2011},"geometry":{"type":"Point","coordinates":[-96.119438,41.23787]}},{"type":"Feature","id":"5132dd72a288f42e673578f9","properties":{"_id":"5132dd72a288f42e673578f9","PROVIDER NPI":1265476741,"PROVIDER NAME":"Ford, Edward","PROVIDER STATE":"Nebraska","PROVIDER CITY":"Lexington","PROVIDER  ADDRESS":"1103 Buffalo Bnd","PROVIDER ZIP 5 CD":68850,"PROVIDER ZIP 4 CD":1528,"PROVIDER PHONE NUM":3083246386,"PROVIDER PHONE EXT":631,"PROGRAM YEAR":2011},"geometry":{"type":"Point","coordinates":[-99.759273,40.784507]}},{"type":"Feature","id":"5132dd72a288f42e673578fa","properties":{"_id":"5132dd72a288f42e673578fa","PROVIDER NPI":1174567572,"PROVIDER NAME":"Ford, John","PROVIDER STATE":"Nebraska","PROVIDER CITY":"Lexington","PROVIDER  ADDRESS":"1103 Buffalo Bnd","PROVIDER ZIP 5 CD":68850,"PROVIDER ZIP 4 CD":1528,"PROVIDER PHONE NUM":3083246386,"PROVIDER PHONE EXT":631,"PROGRAM YEAR":2011},"geometry":{"type":"Point","coordinates":[-99.759273,40.784507]}},{"type":"Feature","id":"5132dd72a288f42e673578fb","properties":{"_id":"5132dd72a288f42e673578fb","PROVIDER NPI":1053383554,"PROVIDER NAME":"Fornander, Wade","PROVIDER STATE":"Nebraska","PROVIDER CITY":"Mc Cook","PROVIDER  ADDRESS":"1401 E H St","PROVIDER ZIP 5 CD":69001,"PROVIDER ZIP 4 CD":3432,"PROVIDER PHONE NUM":3083444110,"PROVIDER PHONE EXT":"","PROGRAM YEAR":2011},"geometry":{"type":"Point","coordinates":[-100.608219,40.204409]}},{"type":"Feature","id":"5132dd72a288f42e673578fc","properties":{"_id":"5132dd72a288f42e673578fc","PROVIDER NPI":1003819699,"PROVIDER NAME":"French, Richard","PROVIDER STATE":"Nebraska","PROVIDER CITY":"Hastings","PROVIDER  ADDRESS":"2115 N Kansas Ave, Ste 105A","PROVIDER ZIP 5 CD":68901,"PROVIDER ZIP 4 CD":2615,"PROVIDER PHONE NUM":4024632454,"PROVIDER PHONE EXT":123,"PROGRAM YEAR":2011},"geometry":{"type":"Point","coordinates":[-98.477516,40.626117]}},{"type":"Feature","id":"5132dd72a288f42e673578fd","properties":{"_id":"5132dd72a288f42e673578fd","PROVIDER NPI":1558470799,"PROVIDER NAME":"Friesen, Corwin","PROVIDER STATE":"Nebraska","PROVIDER CITY":"Lincoln","PROVIDER  ADDRESS":"1600 S 48th St, Suite 400","PROVIDER ZIP 5 CD":68506,"PROVIDER ZIP 4 CD":1275,"PROVIDER PHONE NUM":4024758877,"PROVIDER PHONE EXT":101,"PROGRAM YEAR":2011},"geometry":{"type":"Point","coordinates":[-96.653608,40.796577]}},{"type":"Feature","id":"5132dd72a288f42e673578fe","properties":{"_id":"5132dd72a288f42e673578fe","PROVIDER NPI":1326157108,"PROVIDER NAME":"Frock, James","PROVIDER STATE":"Nebraska","PROVIDER CITY":"Omaha","PROVIDER  ADDRESS":"3316 Dodge St","PROVIDER ZIP 5 CD":68131,"PROVIDER ZIP 4 CD":3403,"PROVIDER PHONE NUM":4023413141,"PROVIDER PHONE EXT":"","PROGRAM YEAR":2011},"geometry":{"type":"Point","coordinates":[-95.961771,41.259819]}},{"type":"Feature","id":"5132dd72a288f42e673578ff","properties":{"_id":"5132dd72a288f42e673578ff","PROVIDER NPI":1952451940,"PROVIDER NAME":"Frumkin, Michael","PROVIDER STATE":"Nebraska","PROVIDER CITY":"Omaha","PROVIDER  ADDRESS":"5014 L St","PROVIDER ZIP 5 CD":68117,"PROVIDER ZIP 4 CD":1329,"PROVIDER PHONE NUM":4027334433,"PROVIDER PHONE EXT":"","PROGRAM YEAR":2011},"geometry":{"type":"Point","coordinates":[-95.991149,41.212601]}},{"type":"Feature","id":"5132dd72a288f42e67357900","properties":{"_id":"5132dd72a288f42e67357900","PROVIDER NPI":1053314443,"PROVIDER NAME":"Fuller, Jonathan","PROVIDER STATE":"Nebraska","PROVIDER CITY":"Omaha","PROVIDER  ADDRESS":"13616 California St, Ste 100","PROVIDER ZIP 5 CD":68154,"PROVIDER ZIP 4 CD":5335,"PROVIDER PHONE NUM":4024960404,"PROVIDER PHONE EXT":"","PROGRAM YEAR":2011},"geometry":{"type":"Point","coordinates":[-96.148888,41.264566]}},{"type":"Feature","id":"5132dd72a288f42e67357901","properties":{"_id":"5132dd72a288f42e67357901","PROVIDER NPI":1861542854,"PROVIDER NAME":"Fulton, Kristen","PROVIDER STATE":"Nebraska","PROVIDER CITY":"LA Vista","PROVIDER  ADDRESS":"8074 S 84th St","PROVIDER ZIP 5 CD":68128,"PROVIDER ZIP 4 CD":3303,"PROVIDER PHONE NUM":4025931700,"PROVIDER PHONE EXT":"","PROGRAM YEAR":2011},"geometry":{"type":"Point","coordinates":[-96.043053,41.179817]}},{"type":"Feature","id":"5132dd72a288f42e67357902","properties":{"_id":"5132dd72a288f42e67357902","PROVIDER NPI":1770633760,"PROVIDER NAME":"Fulton, Michael","PROVIDER STATE":"Nebraska","PROVIDER CITY":"LA Vista","PROVIDER  ADDRESS":"8074 S 84th St","PROVIDER ZIP 5 CD":68128,"PROVIDER ZIP 4 CD":3303,"PROVIDER PHONE NUM":4025931700,"PROVIDER PHONE EXT":"","PROGRAM YEAR":2011},"geometry":{"type":"Point","coordinates":[-96.043053,41.179817]}},{"type":"Feature","id":"5132dd72a288f42e67357903","properties":{"_id":"5132dd72a288f42e67357903","PROVIDER NPI":1144334624,"PROVIDER NAME":"Furstenau, Jennifer","PROVIDER STATE":"Nebraska","PROVIDER CITY":"Norfolk","PROVIDER  ADDRESS":"3610 W Norfolk Ave","PROVIDER ZIP 5 CD":68701,"PROVIDER ZIP 4 CD":7702,"PROVIDER PHONE NUM":4023718230,"PROVIDER PHONE EXT":"","PROGRAM YEAR":2011},"geometry":{"type":"Point","coordinates":[-97.453324,42.032605]}},{"type":"Feature","id":"5132dd72a288f42e67357904","properties":{"_id":"5132dd72a288f42e67357904","PROVIDER NPI":1588992614,"PROVIDER NAME":"Gartner, Emily","PROVIDER STATE":"Nebraska","PROVIDER CITY":"Omaha","PROVIDER  ADDRESS":"14438 W Center Rd","PROVIDER ZIP 5 CD":68144,"PROVIDER ZIP 4 CD":3217,"PROVIDER PHONE NUM":4022102212,"PROVIDER PHONE EXT":"","PROGRAM YEAR":2011},"geometry":{"type":"Point","coordinates":[-96.139156,41.233908]}},{"type":"Feature","id":"5132dd72a288f42e67357905","properties":{"_id":"5132dd72a288f42e67357905","PROVIDER NPI":1972608297,"PROVIDER NAME":"Gautreaux, Keith","PROVIDER STATE":"Nebraska","PROVIDER CITY":"Broken Bow","PROVIDER  ADDRESS":"145 Memorial Dr","PROVIDER ZIP 5 CD":68822,"PROVIDER ZIP 4 CD":1378,"PROVIDER PHONE NUM":3088722486,"PROVIDER PHONE EXT":"","PROGRAM YEAR":2011},"geometry":{"type":"Point","coordinates":[-99.630956,41.409112]}},{"type":"Feature","id":"5132dd72a288f42e67357906","properties":{"_id":"5132dd72a288f42e67357906","PROVIDER NPI":1962551440,"PROVIDER NAME":"Gill, James","PROVIDER STATE":"Nebraska","PROVIDER CITY":"Omaha","PROVIDER  ADDRESS":"13616 California St, Ste 100","PROVIDER ZIP 5 CD":68154,"PROVIDER ZIP 4 CD":5335,"PROVIDER PHONE NUM":4024960404,"PROVIDER PHONE EXT":"","PROGRAM YEAR":2011},"geometry":{"type":"Point","coordinates":[-96.148888,41.264566]}},{"type":"Feature","id":"5132dd72a288f42e67357907","properties":{"_id":"5132dd72a288f42e67357907","PROVIDER NPI":1669449997,"PROVIDER NAME":"Gleed, Kent","PROVIDER STATE":"Nebraska","PROVIDER CITY":"Omaha","PROVIDER  ADDRESS":"7500 Mercy Rd","PROVIDER ZIP 5 CD":68124,"PROVIDER ZIP 4 CD":2319,"PROVIDER PHONE NUM":4023985880,"PROVIDER PHONE EXT":"","PROGRAM YEAR":2011},"geometry":{"type":"Point","coordinates":[-96.028715,41.237905]}},{"type":"Feature","id":"5132dd72a288f42e67357908","properties":{"_id":"5132dd72a288f42e67357908","PROVIDER NPI":1801942412,"PROVIDER NAME":"Godina, Gabriel","PROVIDER STATE":"Nebraska","PROVIDER CITY":"Ogallala","PROVIDER  ADDRESS":"2601 North Spruce Street, Ogallala Community Hospital","PROVIDER ZIP 5 CD":69153,"PROVIDER ZIP 4 CD":2465,"PROVIDER PHONE NUM":3082843645,"PROVIDER PHONE EXT":"","PROGRAM YEAR":2011},"geometry":{"type":"Point","coordinates":[-101.720371,41.150852]}},{"type":"Feature","id":"5132dd72a288f42e67357909","properties":{"_id":"5132dd72a288f42e67357909","PROVIDER NPI":1982718276,"PROVIDER NAME":"Goetsch, Courtney","PROVIDER STATE":"Nebraska","PROVIDER CITY":"Norfolk","PROVIDER  ADDRESS":"3610 W Norfolk Ave","PROVIDER ZIP 5 CD":68701,"PROVIDER ZIP 4 CD":7702,"PROVIDER PHONE NUM":4023718230,"PROVIDER PHONE EXT":"","PROGRAM YEAR":2011},"geometry":{"type":"Point","coordinates":[-97.453324,42.032605]}},{"type":"Feature","id":"5132dd72a288f42e6735790a","properties":{"_id":"5132dd72a288f42e6735790a","PROVIDER NPI":1548225816,"PROVIDER NAME":"Goldsmith, Jon","PROVIDER STATE":"Nebraska","PROVIDER CITY":"Omaha","PROVIDER  ADDRESS":"1411 N 72nd St, Suite 1","PROVIDER ZIP 5 CD":68114,"PROVIDER ZIP 4 CD":1900,"PROVIDER PHONE NUM":4029338540,"PROVIDER PHONE EXT":"","PROGRAM YEAR":2011},"geometry":{"type":"Point","coordinates":[-96.023774,41.272447]}},{"type":"Feature","id":"5132dd72a288f42e6735790b","properties":{"_id":"5132dd72a288f42e6735790b","PROVIDER NPI":1508868845,"PROVIDER NAME":"Goldstein, Michael","PROVIDER STATE":"Nebraska","PROVIDER CITY":"Omaha","PROVIDER  ADDRESS":"16820 Frances St, Suite 100","PROVIDER ZIP 5 CD":68130,"PROVIDER ZIP 4 CD":"","PROVIDER PHONE NUM":4029336600,"PROVIDER PHONE EXT":"","PROGRAM YEAR":2011},"geometry":{"type":"Point","coordinates":[-96.068578,41.303218]}},{"type":"Feature","id":"5132dd72a288f42e6735790c","properties":{"_id":"5132dd72a288f42e6735790c","PROVIDER NPI":1689724676,"PROVIDER NAME":"Gordon, Josette","PROVIDER STATE":"Nebraska","PROVIDER CITY":"Omaha","PROVIDER  ADDRESS":"2734 N 61st St","PROVIDER ZIP 5 CD":68104,"PROVIDER ZIP 4 CD":4020,"PROVIDER PHONE NUM":4025530222,"PROVIDER PHONE EXT":"","PROGRAM YEAR":2011},"geometry":{"type":"Point","coordinates":[-96.007247,41.283496]}},{"type":"Feature","id":"5132dd72a288f42e6735790d","properties":{"_id":"5132dd72a288f42e6735790d","PROVIDER NPI":1225031479,"PROVIDER NAME":"Gordon, Peter","PROVIDER STATE":"Nebraska","PROVIDER CITY":"Omaha","PROVIDER  ADDRESS":"111 S 90th St","PROVIDER ZIP 5 CD":68114,"PROVIDER ZIP 4 CD":3907,"PROVIDER PHONE NUM":4023979800,"PROVIDER PHONE EXT":"","PROGRAM YEAR":2011},"geometry":{"type":"Point","coordinates":[-96.052472,41.258212]}},{"type":"Feature","id":"5132dd72a288f42e6735790e","properties":{"_id":"5132dd72a288f42e6735790e","PROVIDER NPI":1023031341,"PROVIDER NAME":"Gove, Nicholas","PROVIDER STATE":"Nebraska","PROVIDER CITY":"Lincoln","PROVIDER  ADDRESS":"6900 A St, Suite 100","PROVIDER ZIP 5 CD":68510,"PROVIDER ZIP 4 CD":4120,"PROVIDER PHONE NUM":4024362000,"PROVIDER PHONE EXT":"","PROGRAM YEAR":2011},"geometry":{"type":"Point","coordinates":[-96.626961,40.798989]}},{"type":"Feature","id":"5132dd72a288f42e6735790f","properties":{"_id":"5132dd72a288f42e6735790f","PROVIDER NPI":1568671360,"PROVIDER NAME":"Gupta, Kirtibala","PROVIDER STATE":"Nebraska","PROVIDER CITY":"Omaha","PROVIDER  ADDRESS":"8141 W Center Rd","PROVIDER ZIP 5 CD":68124,"PROVIDER ZIP 4 CD":3273,"PROVIDER PHONE NUM":4027173000,"PROVIDER PHONE EXT":"","PROGRAM YEAR":2011},"geometry":{"type":"Point","coordinates":[-96.039203,41.234197]}},{"type":"Feature","id":"5132dd72a288f42e67357910","properties":{"_id":"5132dd72a288f42e67357910","PROVIDER NPI":1962451229,"PROVIDER NAME":"gutschenritter, john","PROVIDER STATE":"Nebraska","PROVIDER CITY":"North Platte","PROVIDER  ADDRESS":"1225 S Poplar St, suite 400","PROVIDER ZIP 5 CD":69101,"PROVIDER ZIP 4 CD":7785,"PROVIDER PHONE NUM":3085347100,"PROVIDER PHONE EXT":"","PROGRAM YEAR":2011},"geometry":{"type":"Point","coordinates":[-100.756674,41.124297]}},{"type":"Feature","id":"5132dd72a288f42e67357911","properties":{"_id":"5132dd72a288f42e67357911","PROVIDER NPI":1386718807,"PROVIDER NAME":"Gutshall, Carl","PROVIDER STATE":"Nebraska","PROVIDER CITY":"ONeill","PROVIDER  ADDRESS":"214 N 10th St, PO Box 378","PROVIDER ZIP 5 CD":68763,"PROVIDER ZIP 4 CD":1604,"PROVIDER PHONE NUM":4023362505,"PROVIDER PHONE EXT":"","PROGRAM YEAR":2011},"geometry":{"type":"Point","coordinates":[-98.665685,42.370456]}},{"type":"Feature","id":"5132dd72a288f42e67357912","properties":{"_id":"5132dd72a288f42e67357912","PROVIDER NPI":1538116876,"PROVIDER NAME":"Hamann, Julie","PROVIDER STATE":"Nebraska","PROVIDER CITY":"Lincoln","PROVIDER  ADDRESS":"4424 S 86th St","PROVIDER ZIP 5 CD":68526,"PROVIDER ZIP 4 CD":9225,"PROVIDER PHONE NUM":4024838500,"PROVIDER PHONE EXT":"","PROGRAM YEAR":2011},"geometry":{"type":"Point","coordinates":[-96.602489,40.746322]}},{"type":"Feature","id":"5132dd72a288f42e67357913","properties":{"_id":"5132dd72a288f42e67357913","PROVIDER NPI":1265598841,"PROVIDER NAME":"Hanus, Staci","PROVIDER STATE":"Nebraska","PROVIDER CITY":"Lincoln","PROVIDER  ADDRESS":"1500 S 48th St, Suite 610","PROVIDER ZIP 5 CD":68506,"PROVIDER ZIP 4 CD":1276,"PROVIDER PHONE NUM":4024834448,"PROVIDER PHONE EXT":"","PROGRAM YEAR":2011},"geometry":{"type":"Point","coordinates":[-96.653675,40.797893]}},{"type":"Feature","id":"5132dd72a288f42e67357914","properties":{"_id":"5132dd72a288f42e67357914","PROVIDER NPI":1356457733,"PROVIDER NAME":"Hapke, Manju","PROVIDER STATE":"Nebraska","PROVIDER CITY":"Omaha","PROVIDER  ADDRESS":"5005 S 153rd St, Suite 100","PROVIDER ZIP 5 CD":68137,"PROVIDER ZIP 4 CD":5069,"PROVIDER PHONE NUM":4027179100,"PROVIDER PHONE EXT":"","PROGRAM YEAR":2011},"geometry":{"type":"Point","coordinates":[-96.15251,41.215924]}},{"type":"Feature","id":"5132dd72a288f42e67357915","properties":{"_id":"5132dd72a288f42e67357915","PROVIDER NPI":1134279136,"PROVIDER NAME":"Harper-Harrison, Gina","PROVIDER STATE":"Nebraska","PROVIDER CITY":"Papillion","PROVIDER  ADDRESS":"11109 S 84th St, Suite 4800","PROVIDER ZIP 5 CD":68046,"PROVIDER ZIP 4 CD":4123,"PROVIDER PHONE NUM":4028274915,"PROVIDER PHONE EXT":"","PROGRAM YEAR":2011},"geometry":{"type":"Point","coordinates":[-96.04293,41.138484]}},{"type":"Feature","id":"5132dd72a288f42e67357916","properties":{"_id":"5132dd72a288f42e67357916","PROVIDER NPI":1043360043,"PROVIDER NAME":"Harris, John","PROVIDER STATE":"Nebraska","PROVIDER CITY":"Bellevue","PROVIDER  ADDRESS":"3308 Samson Way","PROVIDER ZIP 5 CD":68123,"PROVIDER ZIP 4 CD":3234,"PROVIDER PHONE NUM":4028271577,"PROVIDER PHONE EXT":"","PROGRAM YEAR":2011},"geometry":{"type":"Point","coordinates":[-95.939269,41.115628]}},{"type":"Feature","id":"5132dd72a288f42e67357917","properties":{"_id":"5132dd72a288f42e67357917","PROVIDER NPI":1952451957,"PROVIDER NAME":"Hatcher, Anthony","PROVIDER STATE":"Nebraska","PROVIDER CITY":"Omaha","PROVIDER  ADDRESS":"10109 Maple St","PROVIDER ZIP 5 CD":68134,"PROVIDER ZIP 4 CD":5554,"PROVIDER PHONE NUM":4025723500,"PROVIDER PHONE EXT":"","PROGRAM YEAR":2011},"geometry":{"type":"Point","coordinates":[-96.070484,41.285049]}},{"type":"Feature","id":"5132dd72a288f42e67357918","properties":{"_id":"5132dd72a288f42e67357918","PROVIDER NPI":1821023920,"PROVIDER NAME":"Hatcher, Jeffry","PROVIDER STATE":"Nebraska","PROVIDER CITY":"Omaha","PROVIDER  ADDRESS":"6828 N 72nd St, Suite 3100","PROVIDER ZIP 5 CD":68122,"PROVIDER ZIP 4 CD":1700,"PROVIDER PHONE NUM":4025723900,"PROVIDER PHONE EXT":"","PROGRAM YEAR":2011},"geometry":{"type":"Point","coordinates":[-96.023907,41.32019]}},{"type":"Feature","id":"5132dd72a288f42e67357919","properties":{"_id":"5132dd72a288f42e67357919","PROVIDER NPI":1124093232,"PROVIDER NAME":"Hattan, Michael","PROVIDER STATE":"Nebraska","PROVIDER CITY":"South Sioux City","PROVIDER  ADDRESS":"3250 Plaza Dr","PROVIDER ZIP 5 CD":68776,"PROVIDER ZIP 4 CD":3144,"PROVIDER PHONE NUM":4024124220,"PROVIDER PHONE EXT":"","PROGRAM YEAR":2011},"geometry":{"type":"Point","coordinates":[-96.427164,42.459678]}},{"type":"Feature","id":"5132dd72a288f42e6735791a","properties":{"_id":"5132dd72a288f42e6735791a","PROVIDER NPI":1649450479,"PROVIDER NAME":"Hentzen, Douglas","PROVIDER STATE":"Nebraska","PROVIDER CITY":"Hastings","PROVIDER  ADDRESS":"2115 N Kansas Ave","PROVIDER ZIP 5 CD":68901,"PROVIDER ZIP 4 CD":2640,"PROVIDER PHONE NUM":4025954000,"PROVIDER PHONE EXT":123,"PROGRAM YEAR":2011},"geometry":{"type":"Point","coordinates":[-98.386027,40.606411]}},{"type":"Feature","id":"5132dd72a288f42e6735791b","properties":{"_id":"5132dd72a288f42e6735791b","PROVIDER NPI":1598741142,"PROVIDER NAME":"HERMAN, ANDREA","PROVIDER STATE":"Nebraska","PROVIDER CITY":"Omaha","PROVIDER  ADDRESS":"5014 L St","PROVIDER ZIP 5 CD":68117,"PROVIDER ZIP 4 CD":1329,"PROVIDER PHONE NUM":4027334433,"PROVIDER PHONE EXT":"","PROGRAM YEAR":2011},"geometry":{"type":"Point","coordinates":[-95.991149,41.212601]}},{"type":"Feature","id":"5132dd72a288f42e6735791c","properties":{"_id":"5132dd72a288f42e6735791c","PROVIDER NPI":1528040524,"PROVIDER NAME":"Higgins, Dion","PROVIDER STATE":"Nebraska","PROVIDER CITY":"Nebraska City","PROVIDER  ADDRESS":"605 1st Corso","PROVIDER ZIP 5 CD":68410,"PROVIDER ZIP 4 CD":2423,"PROVIDER PHONE NUM":4028736999,"PROVIDER PHONE EXT":"","PROGRAM YEAR":2011},"geometry":{"type":"Point","coordinates":[-95.852571,40.675547]}},{"type":"Feature","id":"5132dd72a288f42e6735791d","properties":{"_id":"5132dd72a288f42e6735791d","PROVIDER NPI":1649498403,"PROVIDER NAME":"Hill, Brett","PROVIDER STATE":"Nebraska","PROVIDER CITY":"Omaha","PROVIDER  ADDRESS":"111 S 90th St","PROVIDER ZIP 5 CD":68114,"PROVIDER ZIP 4 CD":3907,"PROVIDER PHONE NUM":4023979800,"PROVIDER PHONE EXT":"","PROGRAM YEAR":2011},"geometry":{"type":"Point","coordinates":[-96.052472,41.258212]}},{"type":"Feature","id":"5132dd72a288f42e6735791e","properties":{"_id":"5132dd72a288f42e6735791e","PROVIDER NPI":1760537997,"PROVIDER NAME":"Hill, Daniel","PROVIDER STATE":"Nebraska","PROVIDER CITY":"Omaha","PROVIDER  ADDRESS":"9717 Q St","PROVIDER ZIP 5 CD":68127,"PROVIDER ZIP 4 CD":3272,"PROVIDER PHONE NUM":4025371740,"PROVIDER PHONE EXT":"","PROGRAM YEAR":2011},"geometry":{"type":"Point","coordinates":[-96.064983,41.205241]}},{"type":"Feature","id":"5132dd72a288f42e6735791f","properties":{"_id":"5132dd72a288f42e6735791f","PROVIDER NPI":1487688776,"PROVIDER NAME":"Hilliard, Russell","PROVIDER STATE":"Nebraska","PROVIDER CITY":"Kearney","PROVIDER  ADDRESS":"3907 6th Ave","PROVIDER ZIP 5 CD":68845,"PROVIDER ZIP 4 CD":3392,"PROVIDER PHONE NUM":3088652767,"PROVIDER PHONE EXT":"","PROGRAM YEAR":2011},"geometry":{"type":"Point","coordinates":[-99.089415,40.713952]}},{"type":"Feature","id":"5132dd72a288f42e67357920","properties":{"_id":"5132dd72a288f42e67357920","PROVIDER NPI":1881867737,"PROVIDER NAME":"Holmquist, Brent","PROVIDER STATE":"Nebraska","PROVIDER CITY":"Omaha","PROVIDER  ADDRESS":"10109 Maple St","PROVIDER ZIP 5 CD":68134,"PROVIDER ZIP 4 CD":5554,"PROVIDER PHONE NUM":4025723500,"PROVIDER PHONE EXT":"","PROGRAM YEAR":2011},"geometry":{"type":"Point","coordinates":[-96.070484,41.285049]}},{"type":"Feature","id":"5132dd72a288f42e67357921","properties":{"_id":"5132dd72a288f42e67357921","PROVIDER NPI":1932176260,"PROVIDER NAME":"Huerter, Shirley","PROVIDER STATE":"Nebraska","PROVIDER CITY":"Omaha","PROVIDER  ADDRESS":"7500 Mercy Rd","PROVIDER ZIP 5 CD":68124,"PROVIDER ZIP 4 CD":2319,"PROVIDER PHONE NUM":4023985880,"PROVIDER PHONE EXT":"","PROGRAM YEAR":2011},"geometry":{"type":"Point","coordinates":[-96.028715,41.237905]}},{"type":"Feature","id":"5132dd72a288f42e67357922","properties":{"_id":"5132dd72a288f42e67357922","PROVIDER NPI":1386607182,"PROVIDER NAME":"Huffman, Michael","PROVIDER STATE":"Nebraska","PROVIDER CITY":"Lincoln","PROVIDER  ADDRESS":"5200 S 56th St, Suite 2","PROVIDER ZIP 5 CD":68516,"PROVIDER ZIP 4 CD":1884,"PROVIDER PHONE NUM":4024216200,"PROVIDER PHONE EXT":"","PROGRAM YEAR":2011},"geometry":{"type":"Point","coordinates":[-96.644247,40.759797]}},{"type":"Feature","id":"5132dd72a288f42e67357923","properties":{"_id":"5132dd72a288f42e67357923","PROVIDER NPI":1588604987,"PROVIDER NAME":"Hughes, Keith","PROVIDER STATE":"Nebraska","PROVIDER CITY":"Lincoln","PROVIDER  ADDRESS":"8033 S 15th St, Suite D","PROVIDER ZIP 5 CD":68512,"PROVIDER ZIP 4 CD":9611,"PROVIDER PHONE NUM":4024200400,"PROVIDER PHONE EXT":"","PROGRAM YEAR":2011},"geometry":{"type":"Point","coordinates":[-96.700377,40.732038]}},{"type":"Feature","id":"5132dd72a288f42e67357924","properties":{"_id":"5132dd72a288f42e67357924","PROVIDER NPI":1932140134,"PROVIDER NAME":"Hurd, Sarah","PROVIDER STATE":"Nebraska","PROVIDER CITY":"Papillion","PROVIDER  ADDRESS":"11109 S 84th St, #5800","PROVIDER ZIP 5 CD":68046,"PROVIDER ZIP 4 CD":4123,"PROVIDER PHONE NUM":4028274987,"PROVIDER PHONE EXT":"","PROGRAM YEAR":2011},"geometry":{"type":"Point","coordinates":[-96.04293,41.138484]}},{"type":"Feature","id":"5132dd72a288f42e67357925","properties":{"_id":"5132dd72a288f42e67357925","PROVIDER NPI":1811004252,"PROVIDER NAME":"Hurlbut, Greggory","PROVIDER STATE":"Nebraska","PROVIDER CITY":"Lincoln","PROVIDER  ADDRESS":"3201 Pioneers Blvd Ste 304","PROVIDER ZIP 5 CD":68502,"PROVIDER ZIP 4 CD":5963,"PROVIDER PHONE NUM":4024832987,"PROVIDER PHONE EXT":"","PROGRAM YEAR":2011},"geometry":{"type":"Point","coordinates":[-96.674037,40.769872]}},{"type":"Feature","id":"5132dd72a288f42e67357926","properties":{"_id":"5132dd72a288f42e67357926","PROVIDER NPI":1669571212,"PROVIDER NAME":"Husain, Rubab","PROVIDER STATE":"Nebraska","PROVIDER CITY":"Lincoln","PROVIDER  ADDRESS":"4424 S 86th St","PROVIDER ZIP 5 CD":68526,"PROVIDER ZIP 4 CD":9225,"PROVIDER PHONE NUM":4024838500,"PROVIDER PHONE EXT":"","PROGRAM YEAR":2011},"geometry":{"type":"Point","coordinates":[-96.602489,40.746322]}},{"type":"Feature","id":"5132dd72a288f42e67357927","properties":{"_id":"5132dd72a288f42e67357927","PROVIDER NPI":1194823302,"PROVIDER NAME":"Imig, Carmella","PROVIDER STATE":"Nebraska","PROVIDER CITY":"Gretna","PROVIDER  ADDRESS":"818 Village Square","PROVIDER ZIP 5 CD":68028,"PROVIDER ZIP 4 CD":4522,"PROVIDER PHONE NUM":4023324559,"PROVIDER PHONE EXT":"","PROGRAM YEAR":2011},"geometry":{"type":"Point","coordinates":[-96.239596,41.145881]}},{"type":"Feature","id":"5132dd72a288f42e67357928","properties":{"_id":"5132dd72a288f42e67357928","PROVIDER NPI":1760532766,"PROVIDER NAME":"Inguanzo, Christine","PROVIDER STATE":"Nebraska","PROVIDER CITY":"LA Vista","PROVIDER  ADDRESS":"8074 S 84th St","PROVIDER ZIP 5 CD":68128,"PROVIDER ZIP 4 CD":3303,"PROVIDER PHONE NUM":4025931700,"PROVIDER PHONE EXT":"","PROGRAM YEAR":2011},"geometry":{"type":"Point","coordinates":[-96.043053,41.179817]}},{"type":"Feature","id":"5132dd72a288f42e67357929","properties":{"_id":"5132dd72a288f42e67357929","PROVIDER NPI":1346446234,"PROVIDER NAME":"Isherwood, Ryan","PROVIDER STATE":"Nebraska","PROVIDER CITY":"Gretna","PROVIDER  ADDRESS":"102 W Highway 370","PROVIDER ZIP 5 CD":68028,"PROVIDER ZIP 4 CD":4522,"PROVIDER PHONE NUM":4023322772,"PROVIDER PHONE EXT":"","PROGRAM YEAR":2011},"geometry":{"type":"Point","coordinates":[-96.239017,41.146839]}},{"type":"Feature","id":"5132dd72a288f42e6735792a","properties":{"_id":"5132dd72a288f42e6735792a","PROVIDER NPI":1568578797,"PROVIDER NAME":"Istas, Joedy","PROVIDER STATE":"Nebraska","PROVIDER CITY":"Omaha","PROVIDER  ADDRESS":"5908 S 142nd St","PROVIDER ZIP 5 CD":68137,"PROVIDER ZIP 4 CD":2800,"PROVIDER PHONE NUM":4023541923,"PROVIDER PHONE EXT":"","PROGRAM YEAR":2011},"geometry":{"type":"Point","coordinates":[-96.135924,41.199085]}},{"type":"Feature","id":"5132dd72a288f42e6735792b","properties":{"_id":"5132dd72a288f42e6735792b","PROVIDER NPI":1386614907,"PROVIDER NAME":"Jacobs, Alan","PROVIDER STATE":"Nebraska","PROVIDER CITY":"Lincoln","PROVIDER  ADDRESS":"3901 Pine Lake Rd, Suite 120","PROVIDER ZIP 5 CD":68516,"PROVIDER ZIP 4 CD":5497,"PROVIDER PHONE NUM":4024201212,"PROVIDER PHONE EXT":3417,"PROGRAM YEAR":2011},"geometry":{"type":"Point","coordinates":[-96.616844,40.740783]}},{"type":"Feature","id":"5132dd72a288f42e6735792c","properties":{"_id":"5132dd72a288f42e6735792c","PROVIDER NPI":1487666509,"PROVIDER NAME":"Jain, Ritoo","PROVIDER STATE":"Nebraska","PROVIDER CITY":"Lincoln","PROVIDER  ADDRESS":"3901 Pine Lake Rd, Suite 220","PROVIDER ZIP 5 CD":68516,"PROVIDER ZIP 4 CD":5497,"PROVIDER PHONE NUM":4024213240,"PROVIDER PHONE EXT":"","PROGRAM YEAR":2011},"geometry":{"type":"Point","coordinates":[-96.616844,40.740783]}},{"type":"Feature","id":"5132dd72a288f42e6735792d","properties":{"_id":"5132dd72a288f42e6735792d","PROVIDER NPI":1083616502,"PROVIDER NAME":"Jameson, David","PROVIDER STATE":"Nebraska","PROVIDER CITY":"Stromsburg","PROVIDER  ADDRESS":"1356 - 126th Road","PROVIDER ZIP 5 CD":68666,"PROVIDER ZIP 4 CD":6240,"PROVIDER PHONE NUM":4027642491,"PROVIDER PHONE EXT":"","PROGRAM YEAR":2011},"geometry":{"type":"Point","coordinates":[-97.530442,41.119479]}},{"type":"Feature","id":"5132dd72a288f42e6735792e","properties":{"_id":"5132dd72a288f42e6735792e","PROVIDER NPI":1396895397,"PROVIDER NAME":"Janssen, Cindy","PROVIDER STATE":"Nebraska","PROVIDER CITY":"Omaha","PROVIDER  ADDRESS":"9717 Q St","PROVIDER ZIP 5 CD":68127,"PROVIDER ZIP 4 CD":3272,"PROVIDER PHONE NUM":4025371700,"PROVIDER PHONE EXT":"","PROGRAM YEAR":2011},"geometry":{"type":"Point","coordinates":[-96.064983,41.205241]}},{"type":"Feature","id":"5132dd72a288f42e6735792f","properties":{"_id":"5132dd72a288f42e6735792f","PROVIDER NPI":1154379014,"PROVIDER NAME":"Janssen, Misty","PROVIDER STATE":"Nebraska","PROVIDER CITY":"Omaha","PROVIDER  ADDRESS":"10109 Maple St","PROVIDER ZIP 5 CD":68134,"PROVIDER ZIP 4 CD":5554,"PROVIDER PHONE NUM":4025723500,"PROVIDER PHONE EXT":"","PROGRAM YEAR":2011},"geometry":{"type":"Point","coordinates":[-96.070484,41.285049]}},{"type":"Feature","id":"5132dd72a288f42e67357930","properties":{"_id":"5132dd72a288f42e67357930","PROVIDER NPI":1477521441,"PROVIDER NAME":"Jarzobski, Joseph","PROVIDER STATE":"Nebraska","PROVIDER CITY":"Omaha","PROVIDER  ADDRESS":"7500 Mercy Rd","PROVIDER ZIP 5 CD":68124,"PROVIDER ZIP 4 CD":2319,"PROVIDER PHONE NUM":4023985880,"PROVIDER PHONE EXT":"","PROGRAM YEAR":2011},"geometry":{"type":"Point","coordinates":[-96.028715,41.237905]}},{"type":"Feature","id":"5132dd72a288f42e67357931","properties":{"_id":"5132dd72a288f42e67357931","PROVIDER NPI":1841220712,"PROVIDER NAME":"Jensen, Gerald","PROVIDER STATE":"Nebraska","PROVIDER CITY":"Kearney","PROVIDER  ADDRESS":"3907 6th Ave","PROVIDER ZIP 5 CD":68845,"PROVIDER ZIP 4 CD":3392,"PROVIDER PHONE NUM":3088652767,"PROVIDER PHONE EXT":"","PROGRAM YEAR":2011},"geometry":{"type":"Point","coordinates":[-99.089415,40.713952]}},{"type":"Feature","id":"5132dd72a288f42e67357932","properties":{"_id":"5132dd72a288f42e67357932","PROVIDER NPI":1972505220,"PROVIDER NAME":"Jepson, Brett","PROVIDER STATE":"Nebraska","PROVIDER CITY":"Omaha","PROVIDER  ADDRESS":"111 S 90th St","PROVIDER ZIP 5 CD":68114,"PROVIDER ZIP 4 CD":3907,"PROVIDER PHONE NUM":4023979800,"PROVIDER PHONE EXT":"","PROGRAM YEAR":2011},"geometry":{"type":"Point","coordinates":[-96.052472,41.258212]}},{"type":"Feature","id":"5132dd72a288f42e67357933","properties":{"_id":"5132dd72a288f42e67357933","PROVIDER NPI":1780667832,"PROVIDER NAME":"Johnson, David","PROVIDER STATE":"Nebraska","PROVIDER CITY":"Chadron","PROVIDER  ADDRESS":"825 Centennial Dr","PROVIDER ZIP 5 CD":69337,"PROVIDER ZIP 4 CD":9400,"PROVIDER PHONE NUM":3084324441,"PROVIDER PHONE EXT":"","PROGRAM YEAR":2011},"geometry":{"type":"Point","coordinates":[-103.013275,42.821169]}},{"type":"Feature","id":"5132dd72a288f42e67357934","properties":{"_id":"5132dd72a288f42e67357934","PROVIDER NPI":1316920465,"PROVIDER NAME":"Johnson, Kristin","PROVIDER STATE":"Nebraska","PROVIDER CITY":"Chadron","PROVIDER  ADDRESS":"825 Centennial Dr","PROVIDER ZIP 5 CD":69337,"PROVIDER ZIP 4 CD":9400,"PROVIDER PHONE NUM":3084324441,"PROVIDER PHONE EXT":"","PROGRAM YEAR":2011},"geometry":{"type":"Point","coordinates":[-103.013275,42.821169]}},{"type":"Feature","id":"5132dd72a288f42e67357935","properties":{"_id":"5132dd72a288f42e67357935","PROVIDER NPI":1760442644,"PROVIDER NAME":"Johnson, Kurt","PROVIDER STATE":"Nebraska","PROVIDER CITY":"Ogallala","PROVIDER  ADDRESS":"2601 N Spruce St","PROVIDER ZIP 5 CD":69153,"PROVIDER ZIP 4 CD":2465,"PROVIDER PHONE NUM":3082843645,"PROVIDER PHONE EXT":"","PROGRAM YEAR":2011},"geometry":{"type":"Point","coordinates":[-101.720371,41.150852]}},{"type":"Feature","id":"5132dd72a288f42e67357936","properties":{"_id":"5132dd72a288f42e67357936","PROVIDER NPI":1316084098,"PROVIDER NAME":"Jones, Kevin","PROVIDER STATE":"Nebraska","PROVIDER CITY":"Bellevue","PROVIDER  ADDRESS":"2206 Longo Dr, Suite 100","PROVIDER ZIP 5 CD":68005,"PROVIDER ZIP 4 CD":2977,"PROVIDER PHONE NUM":4022913373,"PROVIDER PHONE EXT":"","PROGRAM YEAR":2011},"geometry":{"type":"Point","coordinates":[-95.923995,41.155795]}},{"type":"Feature","id":"5132dd72a288f42e67357937","properties":{"_id":"5132dd72a288f42e67357937","PROVIDER NPI":1720022981,"PROVIDER NAME":"Jones, Mark","PROVIDER STATE":"Nebraska","PROVIDER CITY":"Lexington","PROVIDER  ADDRESS":"1103 Buffalo Bnd","PROVIDER ZIP 5 CD":68850,"PROVIDER ZIP 4 CD":1528,"PROVIDER PHONE NUM":3083246386,"PROVIDER PHONE EXT":631,"PROGRAM YEAR":2011},"geometry":{"type":"Point","coordinates":[-99.759273,40.784507]}},{"type":"Feature","id":"5132dd72a288f42e67357938","properties":{"_id":"5132dd72a288f42e67357938","PROVIDER NPI":1316169196,"PROVIDER NAME":"Jones, Peggy","PROVIDER STATE":"Nebraska","PROVIDER CITY":"Bellevue","PROVIDER  ADDRESS":"3308 Samson Way","PROVIDER ZIP 5 CD":68123,"PROVIDER ZIP 4 CD":3234,"PROVIDER PHONE NUM":4028983180,"PROVIDER PHONE EXT":"","PROGRAM YEAR":2011},"geometry":{"type":"Point","coordinates":[-95.939269,41.115628]}},{"type":"Feature","id":"5132dd72a288f42e67357939","properties":{"_id":"5132dd72a288f42e67357939","PROVIDER NPI":1306871603,"PROVIDER NAME":"Jones, Shaleah","PROVIDER STATE":"Nebraska","PROVIDER CITY":"Broken Bow","PROVIDER  ADDRESS":"145 Memorial Dr","PROVIDER ZIP 5 CD":68822,"PROVIDER ZIP 4 CD":1378,"PROVIDER PHONE NUM":3088722486,"PROVIDER PHONE EXT":"","PROGRAM YEAR":2011},"geometry":{"type":"Point","coordinates":[-99.630956,41.409112]}},{"type":"Feature","id":"5132dd72a288f42e6735793a","properties":{"_id":"5132dd72a288f42e6735793a","PROVIDER NPI":1689792319,"PROVIDER NAME":"Kadavy, Amy","PROVIDER STATE":"Nebraska","PROVIDER CITY":"York","PROVIDER  ADDRESS":"222 E 6th St","PROVIDER ZIP 5 CD":68467,"PROVIDER ZIP 4 CD":3015,"PROVIDER PHONE NUM":4023624592,"PROVIDER PHONE EXT":"","PROGRAM YEAR":2011},"geometry":{"type":"Point","coordinates":[-97.591625,40.866812]}},{"type":"Feature","id":"5132dd72a288f42e6735793b","properties":{"_id":"5132dd72a288f42e6735793b","PROVIDER NPI":1366544033,"PROVIDER NAME":"Kahnk, Robert","PROVIDER STATE":"Nebraska","PROVIDER CITY":"Broken Bow","PROVIDER  ADDRESS":"145 Memorial Dr","PROVIDER ZIP 5 CD":68822,"PROVIDER ZIP 4 CD":"","PROVIDER PHONE NUM":3088722486,"PROVIDER PHONE EXT":"","PROGRAM YEAR":2011},"geometry":{"type":"Point","coordinates":[-99.630956,41.409112]}},{"type":"Feature","id":"5132dd72a288f42e6735793c","properties":{"_id":"5132dd72a288f42e6735793c","PROVIDER NPI":1295730141,"PROVIDER NAME":"Kant, Richard","PROVIDER STATE":"Nebraska","PROVIDER CITY":"York","PROVIDER  ADDRESS":"222 E 6th St","PROVIDER ZIP 5 CD":68467,"PROVIDER ZIP 4 CD":3015,"PROVIDER PHONE NUM":4023624592,"PROVIDER PHONE EXT":"","PROGRAM YEAR":2011},"geometry":{"type":"Point","coordinates":[-97.591625,40.866812]}},{"type":"Feature","id":"5132dd72a288f42e6735793d","properties":{"_id":"5132dd72a288f42e6735793d","PROVIDER NPI":1770558801,"PROVIDER NAME":"Keasling, Gerald","PROVIDER STATE":"Nebraska","PROVIDER CITY":"Fremont","PROVIDER  ADDRESS":"700 E 29th St","PROVIDER ZIP 5 CD":68025,"PROVIDER ZIP 4 CD":2384,"PROVIDER PHONE NUM":4027213133,"PROVIDER PHONE EXT":"","PROGRAM YEAR":2011},"geometry":{"type":"Point","coordinates":[-96.490122,41.456762]}},{"type":"Feature","id":"5132dd72a288f42e6735793e","properties":{"_id":"5132dd72a288f42e6735793e","PROVIDER NPI":1548459159,"PROVIDER NAME":"Keasling, Susan","PROVIDER STATE":"Nebraska","PROVIDER CITY":"Omaha","PROVIDER  ADDRESS":"16909 Lakeside Hills Ct, Suite 300","PROVIDER ZIP 5 CD":68130,"PROVIDER ZIP 4 CD":4664,"PROVIDER PHONE NUM":4023434328,"PROVIDER PHONE EXT":"","PROGRAM YEAR":2011},"geometry":{"type":"Point","coordinates":[-96.178753,41.237424]}},{"type":"Feature","id":"5132dd72a288f42e6735793f","properties":{"_id":"5132dd72a288f42e6735793f","PROVIDER NPI":1871651968,"PROVIDER NAME":"Keller, David","PROVIDER STATE":"Nebraska","PROVIDER CITY":"Omaha","PROVIDER  ADDRESS":"16909 Lakeside Hills Ct, Suite 300","PROVIDER ZIP 5 CD":68130,"PROVIDER ZIP 4 CD":4664,"PROVIDER PHONE NUM":4027585011,"PROVIDER PHONE EXT":"","PROGRAM YEAR":2011},"geometry":{"type":"Point","coordinates":[-96.178753,41.237424]}},{"type":"Feature","id":"5132dd72a288f42e67357940","properties":{"_id":"5132dd72a288f42e67357940","PROVIDER NPI":1013908656,"PROVIDER NAME":"Kennel, Melinda","PROVIDER STATE":"Nebraska","PROVIDER CITY":"Broken Bow","PROVIDER  ADDRESS":"408 S 8th Ave","PROVIDER ZIP 5 CD":68822,"PROVIDER ZIP 4 CD":2009,"PROVIDER PHONE NUM":3088722291,"PROVIDER PHONE EXT":"","PROGRAM YEAR":2011},"geometry":{"type":"Point","coordinates":[-99.639325,41.402594]}},{"type":"Feature","id":"5132dd72a288f42e67357941","properties":{"_id":"5132dd72a288f42e67357941","PROVIDER NPI":1740249176,"PROVIDER NAME":"Kester, Amanda","PROVIDER STATE":"Nebraska","PROVIDER CITY":"Omaha","PROVIDER  ADDRESS":"16909 Lakeside Hills Ct, Suite 300","PROVIDER ZIP 5 CD":68130,"PROVIDER ZIP 4 CD":4664,"PROVIDER PHONE NUM":4027585400,"PROVIDER PHONE EXT":"","PROGRAM YEAR":2011},"geometry":{"type":"Point","coordinates":[-96.178753,41.237424]}},{"type":"Feature","id":"5132dd72a288f42e67357942","properties":{"_id":"5132dd72a288f42e67357942","PROVIDER NPI":1093794935,"PROVIDER NAME":"Khan, Ansar","PROVIDER STATE":"Nebraska","PROVIDER CITY":"Fremont","PROVIDER  ADDRESS":"2735 N Clarkson St","PROVIDER ZIP 5 CD":68025,"PROVIDER ZIP 4 CD":"","PROVIDER PHONE NUM":4027275000,"PROVIDER PHONE EXT":"","PROGRAM YEAR":2011},"geometry":{"type":"Point","coordinates":[-96.490112,41.455515]}},{"type":"Feature","id":"5132dd72a288f42e67357943","properties":{"_id":"5132dd72a288f42e67357943","PROVIDER NPI":1043390578,"PROVIDER NAME":"Klawitter, Elizabeth","PROVIDER STATE":"Nebraska","PROVIDER CITY":"Omaha","PROVIDER  ADDRESS":"11071 W Maple Rd","PROVIDER ZIP 5 CD":68164,"PROVIDER ZIP 4 CD":2604,"PROVIDER PHONE NUM":4023154344,"PROVIDER PHONE EXT":"","PROGRAM YEAR":2011},"geometry":{"type":"Point","coordinates":[-96.08504,41.288442]}},{"type":"Feature","id":"5132dd72a288f42e67357944","properties":{"_id":"5132dd72a288f42e67357944","PROVIDER NPI":1730117615,"PROVIDER NAME":"KLEIN, HARRY","PROVIDER STATE":"Nebraska","PROVIDER CITY":"Omaha","PROVIDER  ADDRESS":"1805 N 145th St","PROVIDER ZIP 5 CD":68154,"PROVIDER ZIP 4 CD":1179,"PROVIDER PHONE NUM":4023931000,"PROVIDER PHONE EXT":"","PROGRAM YEAR":2011},"geometry":{"type":"Point","coordinates":[-96.140674,41.276389]}},{"type":"Feature","id":"5132dd72a288f42e67357945","properties":{"_id":"5132dd72a288f42e67357945","PROVIDER NPI":1285675637,"PROVIDER NAME":"Kloch, Gregory","PROVIDER STATE":"Nebraska","PROVIDER CITY":"Lexington","PROVIDER  ADDRESS":"1103 Buffalo Bnd","PROVIDER ZIP 5 CD":68850,"PROVIDER ZIP 4 CD":1528,"PROVIDER PHONE NUM":3083246386,"PROVIDER PHONE EXT":631,"PROGRAM YEAR":2011},"geometry":{"type":"Point","coordinates":[-99.759273,40.784507]}},{"type":"Feature","id":"5132dd72a288f42e67357946","properties":{"_id":"5132dd72a288f42e67357946","PROVIDER NPI":1194797639,"PROVIDER NAME":"Klug, Richard","PROVIDER STATE":"Nebraska","PROVIDER CITY":"Mc Cook","PROVIDER  ADDRESS":"1401 E H St","PROVIDER ZIP 5 CD":69001,"PROVIDER ZIP 4 CD":3432,"PROVIDER PHONE NUM":3083444110,"PROVIDER PHONE EXT":"","PROGRAM YEAR":2011},"geometry":{"type":"Point","coordinates":[-100.608219,40.204409]}},{"type":"Feature","id":"5132dd72a288f42e67357947","properties":{"_id":"5132dd72a288f42e67357947","PROVIDER NPI":1245205947,"PROVIDER NAME":"Koch, Douglas","PROVIDER STATE":"Nebraska","PROVIDER CITY":"Lincoln","PROVIDER  ADDRESS":"6900 A St, Ste 100","PROVIDER ZIP 5 CD":68510,"PROVIDER ZIP 4 CD":4120,"PROVIDER PHONE NUM":4024362000,"PROVIDER PHONE EXT":"","PROGRAM YEAR":2011},"geometry":{"type":"Point","coordinates":[-96.626961,40.798989]}},{"type":"Feature","id":"5132dd72a288f42e67357948","properties":{"_id":"5132dd72a288f42e67357948","PROVIDER NPI":1922151968,"PROVIDER NAME":"Kolbeck, Terrence","PROVIDER STATE":"Nebraska","PROVIDER CITY":"Omaha","PROVIDER  ADDRESS":"17001 Lakeside Hills Plz, suite 100","PROVIDER ZIP 5 CD":68130,"PROVIDER ZIP 4 CD":4670,"PROVIDER PHONE NUM":4026977200,"PROVIDER PHONE EXT":111,"PROGRAM YEAR":2011},"geometry":{"type":"Point","coordinates":[-96.068578,41.303218]}},{"type":"Feature","id":"5132dd72a288f42e67357949","properties":{"_id":"5132dd72a288f42e67357949","PROVIDER NPI":1023011152,"PROVIDER NAME":"Konigsberg, Harvey","PROVIDER STATE":"Nebraska","PROVIDER CITY":"Omaha","PROVIDER  ADDRESS":"111 S 90th St","PROVIDER ZIP 5 CD":68114,"PROVIDER ZIP 4 CD":3907,"PROVIDER PHONE NUM":4023979800,"PROVIDER PHONE EXT":"","PROGRAM YEAR":2011},"geometry":{"type":"Point","coordinates":[-96.052472,41.258212]}},{"type":"Feature","id":"5132dd72a288f42e6735794a","properties":{"_id":"5132dd72a288f42e6735794a","PROVIDER NPI":1356460547,"PROVIDER NAME":"Konigsberg, Sarah","PROVIDER STATE":"Nebraska","PROVIDER CITY":"Omaha","PROVIDER  ADDRESS":"7831 Chicago Court","PROVIDER ZIP 5 CD":68114,"PROVIDER ZIP 4 CD":"","PROVIDER PHONE NUM":4025612740,"PROVIDER PHONE EXT":"","PROGRAM YEAR":2011},"geometry":{"type":"Point","coordinates":[-96.037612,41.262547]}},{"type":"Feature","id":"5132dd72a288f42e6735794b","properties":{"_id":"5132dd72a288f42e6735794b","PROVIDER NPI":1760484059,"PROVIDER NAME":"Koukol, Steven","PROVIDER STATE":"Nebraska","PROVIDER CITY":"Omaha","PROVIDER  ADDRESS":"111 S 90th St","PROVIDER ZIP 5 CD":68114,"PROVIDER ZIP 4 CD":3907,"PROVIDER PHONE NUM":4023979800,"PROVIDER PHONE EXT":114,"PROGRAM YEAR":2011},"geometry":{"type":"Point","coordinates":[-96.052472,41.258212]}},{"type":"Feature","id":"5132dd72a288f42e6735794c","properties":{"_id":"5132dd72a288f42e6735794c","PROVIDER NPI":1871689414,"PROVIDER NAME":"Kramper, Ralph","PROVIDER STATE":"Nebraska","PROVIDER CITY":"Omaha","PROVIDER  ADDRESS":"12728 Augusta Avenue","PROVIDER ZIP 5 CD":68144,"PROVIDER ZIP 4 CD":3754,"PROVIDER PHONE NUM":4023301410,"PROVIDER PHONE EXT":"","PROGRAM YEAR":2011},"geometry":{"type":"Point","coordinates":[-96.11112,41.229451]}},{"type":"Feature","id":"5132dd72a288f42e6735794d","properties":{"_id":"5132dd72a288f42e6735794d","PROVIDER NPI":1730137027,"PROVIDER NAME":"Krings, Kerry","PROVIDER STATE":"Nebraska","PROVIDER CITY":"Columbus","PROVIDER  ADDRESS":"1371 29th Ave","PROVIDER ZIP 5 CD":68601,"PROVIDER ZIP 4 CD":4926,"PROVIDER PHONE NUM":4025640545,"PROVIDER PHONE EXT":"","PROGRAM YEAR":2011},"geometry":{"type":"Point","coordinates":[-97.363116,41.430045]}},{"type":"Feature","id":"5132dd72a288f42e6735794e","properties":{"_id":"5132dd72a288f42e6735794e","PROVIDER NPI":1689677866,"PROVIDER NAME":"Kroeger, Robert","PROVIDER STATE":"Nebraska","PROVIDER CITY":"Omaha","PROVIDER  ADDRESS":"111 S 90th St","PROVIDER ZIP 5 CD":68114,"PROVIDER ZIP 4 CD":3907,"PROVIDER PHONE NUM":4023979800,"PROVIDER PHONE EXT":"","PROGRAM YEAR":2011},"geometry":{"type":"Point","coordinates":[-96.052472,41.258212]}},{"type":"Feature","id":"5132dd72a288f42e6735794f","properties":{"_id":"5132dd72a288f42e6735794f","PROVIDER NPI":1124120464,"PROVIDER NAME":"Krugman, Robert","PROVIDER STATE":"Nebraska","PROVIDER CITY":"Wayne","PROVIDER  ADDRESS":"214 Pearl Street","PROVIDER ZIP 5 CD":68787,"PROVIDER ZIP 4 CD":"","PROVIDER PHONE NUM":4023753000,"PROVIDER PHONE EXT":"","PROGRAM YEAR":2011},"geometry":{"type":"Point","coordinates":[-97.019338,42.230426]}},{"type":"Feature","id":"5132dd72a288f42e67357950","properties":{"_id":"5132dd72a288f42e67357950","PROVIDER NPI":1104841444,"PROVIDER NAME":"Lancaster, Rebecca","PROVIDER STATE":"Nebraska","PROVIDER CITY":"Omaha","PROVIDER  ADDRESS":"2727 S 144th St, Suite 280","PROVIDER ZIP 5 CD":68144,"PROVIDER ZIP 4 CD":5225,"PROVIDER PHONE NUM":4027785490,"PROVIDER PHONE EXT":"","PROGRAM YEAR":2011},"geometry":{"type":"Point","coordinates":[-96.139934,41.231138]}},{"type":"Feature","id":"5132dd72a288f42e67357951","properties":{"_id":"5132dd72a288f42e67357951","PROVIDER NPI":1568465300,"PROVIDER NAME":"LARSEN, KEVIN","PROVIDER STATE":"Nebraska","PROVIDER CITY":"Grand Island","PROVIDER  ADDRESS":"620 N Diers Ave, PO Box 5020","PROVIDER ZIP 5 CD":68802,"PROVIDER ZIP 4 CD":5020,"PROVIDER PHONE NUM":3083810404,"PROVIDER PHONE EXT":"","PROGRAM YEAR":2011},"geometry":{"type":"Point","coordinates":[-98.50213,40.872457]}},{"type":"Feature","id":"5132dd72a288f42e67357952","properties":{"_id":"5132dd72a288f42e67357952","PROVIDER NPI":1336294487,"PROVIDER NAME":"Law, Angela","PROVIDER STATE":"Nebraska","PROVIDER CITY":"Omaha","PROVIDER  ADDRESS":"16909 Lakeside Hills Ct Ste 300","PROVIDER ZIP 5 CD":68130,"PROVIDER ZIP 4 CD":4661,"PROVIDER PHONE NUM":4027585400,"PROVIDER PHONE EXT":"","PROGRAM YEAR":2011},"geometry":{"type":"Point","coordinates":[-96.181361,41.236767]}},{"type":"Feature","id":"5132dd72a288f42e67357953","properties":{"_id":"5132dd72a288f42e67357953","PROVIDER NPI":1104911296,"PROVIDER NAME":"Lawlor, Andrea","PROVIDER STATE":"Nebraska","PROVIDER CITY":"Omaha","PROVIDER  ADDRESS":"12728 Augusta Avenue","PROVIDER ZIP 5 CD":68144,"PROVIDER ZIP 4 CD":3752,"PROVIDER PHONE NUM":4023301410,"PROVIDER PHONE EXT":"","PROGRAM YEAR":2011},"geometry":{"type":"Point","coordinates":[-96.11112,41.229451]}},{"type":"Feature","id":"5132dd72a288f42e67357954","properties":{"_id":"5132dd72a288f42e67357954","PROVIDER NPI":1639144314,"PROVIDER NAME":"Lawson, Keith","PROVIDER STATE":"Nebraska","PROVIDER CITY":"Lincoln","PROVIDER  ADDRESS":"6900 A St, Suite 100","PROVIDER ZIP 5 CD":68510,"PROVIDER ZIP 4 CD":4120,"PROVIDER PHONE NUM":4024362000,"PROVIDER PHONE EXT":"","PROGRAM YEAR":2011},"geometry":{"type":"Point","coordinates":[-96.626961,40.798989]}},{"type":"Feature","id":"5132dd72a288f42e67357955","properties":{"_id":"5132dd72a288f42e67357955","PROVIDER NPI":1629043773,"PROVIDER NAME":"Leahy, Mark","PROVIDER STATE":"Nebraska","PROVIDER CITY":"Fremont","PROVIDER  ADDRESS":"700 E 29th St","PROVIDER ZIP 5 CD":68025,"PROVIDER ZIP 4 CD":2384,"PROVIDER PHONE NUM":4027213133,"PROVIDER PHONE EXT":"","PROGRAM YEAR":2011},"geometry":{"type":"Point","coordinates":[-96.490122,41.456762]}},{"type":"Feature","id":"5132dd72a288f42e67357956","properties":{"_id":"5132dd72a288f42e67357956","PROVIDER NPI":1730252297,"PROVIDER NAME":"Leishman-Barb, Andrea","PROVIDER STATE":"Nebraska","PROVIDER CITY":"Omaha","PROVIDER  ADDRESS":"4239 Farnam St, Ste 734","PROVIDER ZIP 5 CD":68131,"PROVIDER ZIP 4 CD":2812,"PROVIDER PHONE NUM":4025522700,"PROVIDER PHONE EXT":"","PROGRAM YEAR":2011},"geometry":{"type":"Point","coordinates":[-95.976226,41.257736]}},{"type":"Feature","id":"5132dd72a288f42e67357957","properties":{"_id":"5132dd72a288f42e67357957","PROVIDER NPI":1013910280,"PROVIDER NAME":"Leu, Patrick","PROVIDER STATE":"Nebraska","PROVIDER CITY":"Omaha","PROVIDER  ADDRESS":"111 S 90th St","PROVIDER ZIP 5 CD":68114,"PROVIDER ZIP 4 CD":3907,"PROVIDER PHONE NUM":4023979800,"PROVIDER PHONE EXT":"","PROGRAM YEAR":2011},"geometry":{"type":"Point","coordinates":[-96.052472,41.258212]}},{"type":"Feature","id":"5132dd72a288f42e67357958","properties":{"_id":"5132dd72a288f42e67357958","PROVIDER NPI":1356343628,"PROVIDER NAME":"Lim, Stephen","PROVIDER STATE":"Nebraska","PROVIDER CITY":"Omaha","PROVIDER  ADDRESS":"111 S 90th St","PROVIDER ZIP 5 CD":68114,"PROVIDER ZIP 4 CD":3907,"PROVIDER PHONE NUM":4023979800,"PROVIDER PHONE EXT":"","PROGRAM YEAR":2011},"geometry":{"type":"Point","coordinates":[-96.052472,41.258212]}},{"type":"Feature","id":"5132dd72a288f42e67357959","properties":{"_id":"5132dd72a288f42e67357959","PROVIDER NPI":1801071279,"PROVIDER NAME":"Linn, Justin","PROVIDER STATE":"Nebraska","PROVIDER CITY":"Columbus","PROVIDER  ADDRESS":"915 23rd St, Suite 100","PROVIDER ZIP 5 CD":68601,"PROVIDER ZIP 4 CD":3694,"PROVIDER PHONE NUM":4025646565,"PROVIDER PHONE EXT":"","PROGRAM YEAR":2011},"geometry":{"type":"Point","coordinates":[-97.337339,41.438328]}},{"type":"Feature","id":"5132dd72a288f42e6735795a","properties":{"_id":"5132dd72a288f42e6735795a","PROVIDER NPI":1992748354,"PROVIDER NAME":"Linn, Nicholas","PROVIDER STATE":"Nebraska","PROVIDER CITY":"Norfolk","PROVIDER  ADDRESS":"900 W Omaha Ave","PROVIDER ZIP 5 CD":68701,"PROVIDER ZIP 4 CD":5842,"PROVIDER PHONE NUM":4023718864,"PROVIDER PHONE EXT":"","PROGRAM YEAR":2011},"geometry":{"type":"Point","coordinates":[-97.446267,42.018003]}},{"type":"Feature","id":"5132dd72a288f42e6735795b","properties":{"_id":"5132dd72a288f42e6735795b","PROVIDER NPI":1376546945,"PROVIDER NAME":"Little, David","PROVIDER STATE":"Nebraska","PROVIDER CITY":"Hastings","PROVIDER  ADDRESS":"2115 N Kansas Ave, Ste 105A","PROVIDER ZIP 5 CD":68901,"PROVIDER ZIP 4 CD":2615,"PROVIDER PHONE NUM":4024632454,"PROVIDER PHONE EXT":123,"PROGRAM YEAR":2011},"geometry":{"type":"Point","coordinates":[-98.477516,40.626117]}},{"type":"Feature","id":"5132dd72a288f42e6735795c","properties":{"_id":"5132dd72a288f42e6735795c","PROVIDER NPI":1528063930,"PROVIDER NAME":"Little, Jonathan","PROVIDER STATE":"Nebraska","PROVIDER CITY":"Bellevue","PROVIDER  ADDRESS":"1313 Harlan Dr.","PROVIDER ZIP 5 CD":68005,"PROVIDER ZIP 4 CD":"","PROVIDER PHONE NUM":4022913123,"PROVIDER PHONE EXT":"","PROGRAM YEAR":2011},"geometry":{"type":"Point","coordinates":[-95.909615,41.141527]}},{"type":"Feature","id":"5132dd72a288f42e6735795d","properties":{"_id":"5132dd72a288f42e6735795d","PROVIDER NPI":1669672523,"PROVIDER NAME":"Liu, Jennifer","PROVIDER STATE":"Nebraska","PROVIDER CITY":"Omaha","PROVIDER  ADDRESS":"16909 Lakeside Hills, Ste 300","PROVIDER ZIP 5 CD":68130,"PROVIDER ZIP 4 CD":"","PROVIDER PHONE NUM":4023434328,"PROVIDER PHONE EXT":"","PROGRAM YEAR":2011},"geometry":{"type":"Point","coordinates":[-96.178753,41.237424]}},{"type":"Feature","id":"5132dd72a288f42e6735795e","properties":{"_id":"5132dd72a288f42e6735795e","PROVIDER NPI":1801802806,"PROVIDER NAME":"Liu, Sao","PROVIDER STATE":"Nebraska","PROVIDER CITY":"Omaha","PROVIDER  ADDRESS":"11606 Nicholas St, Suite 200","PROVIDER ZIP 5 CD":68154,"PROVIDER ZIP 4 CD":4478,"PROVIDER PHONE NUM":4024933712,"PROVIDER PHONE EXT":"","PROGRAM YEAR":2011},"geometry":{"type":"Point","coordinates":[-96.113022,41.269952]}},{"type":"Feature","id":"5132dd72a288f42e6735795f","properties":{"_id":"5132dd72a288f42e6735795f","PROVIDER NPI":1548275472,"PROVIDER NAME":"Liu, Sao","PROVIDER STATE":"Nebraska","PROVIDER CITY":"Omaha","PROVIDER  ADDRESS":"11606 Nicholas St, Suite 200","PROVIDER ZIP 5 CD":68154,"PROVIDER ZIP 4 CD":4478,"PROVIDER PHONE NUM":4024933712,"PROVIDER PHONE EXT":"","PROGRAM YEAR":2011},"geometry":{"type":"Point","coordinates":[-96.113022,41.269952]}},{"type":"Feature","id":"5132dd72a288f42e67357960","properties":{"_id":"5132dd72a288f42e67357960","PROVIDER NPI":1215153465,"PROVIDER NAME":"Liu, Yongge","PROVIDER STATE":"Nebraska","PROVIDER CITY":"Omaha","PROVIDER  ADDRESS":"9717 Q St","PROVIDER ZIP 5 CD":68127,"PROVIDER ZIP 4 CD":3272,"PROVIDER PHONE NUM":4025371700,"PROVIDER PHONE EXT":"","PROGRAM YEAR":2011},"geometry":{"type":"Point","coordinates":[-96.064983,41.205241]}},{"type":"Feature","id":"5132dd72a288f42e67357961","properties":{"_id":"5132dd72a288f42e67357961","PROVIDER NPI":1770586182,"PROVIDER NAME":"Longley, Michael","PROVIDER STATE":"Nebraska","PROVIDER CITY":"Omaha","PROVIDER  ADDRESS":"13616 California St, Ste 100","PROVIDER ZIP 5 CD":68154,"PROVIDER ZIP 4 CD":5335,"PROVIDER PHONE NUM":4024960404,"PROVIDER PHONE EXT":"","PROGRAM YEAR":2011},"geometry":{"type":"Point","coordinates":[-96.148888,41.264566]}},{"type":"Feature","id":"5132dd72a288f42e67357962","properties":{"_id":"5132dd72a288f42e67357962","PROVIDER NPI":1477555753,"PROVIDER NAME":"Longo, Gernon","PROVIDER STATE":"Nebraska","PROVIDER CITY":"Omaha","PROVIDER  ADDRESS":"111 S 90TH ST","PROVIDER ZIP 5 CD":68114,"PROVIDER ZIP 4 CD":"","PROVIDER PHONE NUM":4023979800,"PROVIDER PHONE EXT":"","PROGRAM YEAR":2011},"geometry":{"type":"Point","coordinates":[-96.052472,41.258212]}},{"type":"Feature","id":"5132dd72a288f42e67357963","properties":{"_id":"5132dd72a288f42e67357963","PROVIDER NPI":1669522660,"PROVIDER NAME":"Lowndes, William","PROVIDER STATE":"Nebraska","PROVIDER CITY":"Gretna","PROVIDER  ADDRESS":"102 W Highway 370","PROVIDER ZIP 5 CD":68028,"PROVIDER ZIP 4 CD":4522,"PROVIDER PHONE NUM":4023322772,"PROVIDER PHONE EXT":"","PROGRAM YEAR":2011},"geometry":{"type":"Point","coordinates":[-96.239017,41.146839]}},{"type":"Feature","id":"5132dd72a288f42e67357964","properties":{"_id":"5132dd72a288f42e67357964","PROVIDER NPI":1609878610,"PROVIDER NAME":"Lueninghoener, Peter","PROVIDER STATE":"Nebraska","PROVIDER CITY":"Oneill","PROVIDER  ADDRESS":"304 E Douglas St","PROVIDER ZIP 5 CD":68763,"PROVIDER ZIP 4 CD":1830,"PROVIDER PHONE NUM":4023364222,"PROVIDER PHONE EXT":"","PROGRAM YEAR":2011},"geometry":{"type":"Point","coordinates":[-98.635543,42.457538]}},{"type":"Feature","id":"5132dd72a288f42e67357965","properties":{"_id":"5132dd72a288f42e67357965","PROVIDER NPI":1992924443,"PROVIDER NAME":"Lund, Bryce","PROVIDER STATE":"Nebraska","PROVIDER CITY":"Fremont","PROVIDER  ADDRESS":"2560 North Healthy Way","PROVIDER ZIP 5 CD":68025,"PROVIDER ZIP 4 CD":2315,"PROVIDER PHONE NUM":4027275863,"PROVIDER PHONE EXT":"","PROGRAM YEAR":2011},"geometry":{"type":"Point","coordinates":[-96.501672,41.487786]}},{"type":"Feature","id":"5132dd72a288f42e67357966","properties":{"_id":"5132dd72a288f42e67357966","PROVIDER NPI":1912015694,"PROVIDER NAME":"Malene, Dawn","PROVIDER STATE":"Nebraska","PROVIDER CITY":"Omaha","PROVIDER  ADDRESS":"5005 S 153rd St, Suite 100","PROVIDER ZIP 5 CD":68137,"PROVIDER ZIP 4 CD":5069,"PROVIDER PHONE NUM":4027179100,"PROVIDER PHONE EXT":"","PROGRAM YEAR":2011},"geometry":{"type":"Point","coordinates":[-96.15251,41.215924]}},{"type":"Feature","id":"5132dd72a288f42e67357967","properties":{"_id":"5132dd72a288f42e67357967","PROVIDER NPI":1578613576,"PROVIDER NAME":"Malley, Pamela","PROVIDER STATE":"Nebraska","PROVIDER CITY":"Omaha","PROVIDER  ADDRESS":"1010 N 96th St Ste 200","PROVIDER ZIP 5 CD":68114,"PROVIDER ZIP 4 CD":2499,"PROVIDER PHONE NUM":4023434328,"PROVIDER PHONE EXT":"","PROGRAM YEAR":2011},"geometry":{"type":"Point","coordinates":[-96.062188,41.269273]}},{"type":"Feature","id":"5132dd72a288f42e67357968","properties":{"_id":"5132dd72a288f42e67357968","PROVIDER NPI":1811926041,"PROVIDER NAME":"Mantler, Edward","PROVIDER STATE":"Nebraska","PROVIDER CITY":"Papillion","PROVIDER  ADDRESS":"555 Fortune Dr","PROVIDER ZIP 5 CD":68046,"PROVIDER ZIP 4 CD":3421,"PROVIDER PHONE NUM":4025023600,"PROVIDER PHONE EXT":"","PROGRAM YEAR":2011},"geometry":{"type":"Point","coordinates":[-96.027651,41.16153]}},{"type":"Feature","id":"5132dd72a288f42e67357969","properties":{"_id":"5132dd72a288f42e67357969","PROVIDER NPI":1639175003,"PROVIDER NAME":"Mantz, Donald","PROVIDER STATE":"Nebraska","PROVIDER CITY":"Elkhorn","PROVIDER  ADDRESS":"1130 North 204th Street","PROVIDER ZIP 5 CD":68022,"PROVIDER ZIP 4 CD":"","PROVIDER PHONE NUM":4022893377,"PROVIDER PHONE EXT":"","PROGRAM YEAR":2011},"geometry":{"type":"Point","coordinates":[-96.234499,41.267426]}},{"type":"Feature","id":"5132dd72a288f42e6735796a","properties":{"_id":"5132dd72a288f42e6735796a","PROVIDER NPI":1003926957,"PROVIDER NAME":"Martin, Todd","PROVIDER STATE":"Nebraska","PROVIDER CITY":"Lincoln","PROVIDER  ADDRESS":"1600 S 48th St, Suite 400","PROVIDER ZIP 5 CD":68506,"PROVIDER ZIP 4 CD":1275,"PROVIDER PHONE NUM":4024758877,"PROVIDER PHONE EXT":"","PROGRAM YEAR":2011},"geometry":{"type":"Point","coordinates":[-96.653608,40.796577]}},{"type":"Feature","id":"5132dd72a288f42e6735796b","properties":{"_id":"5132dd72a288f42e6735796b","PROVIDER NPI":1801887534,"PROVIDER NAME":"McCartney, Roger","PROVIDER STATE":"Nebraska","PROVIDER CITY":"Ord","PROVIDER  ADDRESS":"1501 M St","PROVIDER ZIP 5 CD":68862,"PROVIDER ZIP 4 CD":1428,"PROVIDER PHONE NUM":3087283229,"PROVIDER PHONE EXT":"","PROGRAM YEAR":2011},"geometry":{"type":"Point","coordinates":[-98.928143,41.602129]}},{"type":"Feature","id":"5132dd72a288f42e6735796c","properties":{"_id":"5132dd72a288f42e6735796c","PROVIDER NPI":1114920592,"PROVIDER NAME":"McClellan, John","PROVIDER STATE":"Nebraska","PROVIDER CITY":"Omaha","PROVIDER  ADDRESS":"13616 California St, Ste 100","PROVIDER ZIP 5 CD":68154,"PROVIDER ZIP 4 CD":5335,"PROVIDER PHONE NUM":4024960404,"PROVIDER PHONE EXT":"","PROGRAM YEAR":2011},"geometry":{"type":"Point","coordinates":[-96.148888,41.264566]}},{"type":"Feature","id":"5132dd72a288f42e6735796d","properties":{"_id":"5132dd72a288f42e6735796d","PROVIDER NPI":1962483826,"PROVIDER NAME":"McConnell, Douglas","PROVIDER STATE":"Nebraska","PROVIDER CITY":"Kimball","PROVIDER  ADDRESS":"111 E 2nd St","PROVIDER ZIP 5 CD":69145,"PROVIDER ZIP 4 CD":1208,"PROVIDER PHONE NUM":3082353601,"PROVIDER PHONE EXT":"","PROGRAM YEAR":2011},"geometry":{"type":"Point","coordinates":[-103.662876,41.237194]}},{"type":"Feature","id":"5132dd72a288f42e6735796e","properties":{"_id":"5132dd72a288f42e6735796e","PROVIDER NPI":1912980327,"PROVIDER NAME":"McLain, Jerry","PROVIDER STATE":"Nebraska","PROVIDER CITY":"Chadron","PROVIDER  ADDRESS":"825 Centennial Dr","PROVIDER ZIP 5 CD":69337,"PROVIDER ZIP 4 CD":9400,"PROVIDER PHONE NUM":3084324441,"PROVIDER PHONE EXT":"","PROGRAM YEAR":2011},"geometry":{"type":"Point","coordinates":[-103.013275,42.821169]}},{"type":"Feature","id":"5132dd72a288f42e6735796f","properties":{"_id":"5132dd72a288f42e6735796f","PROVIDER NPI":1528071669,"PROVIDER NAME":"McMillan, Holly","PROVIDER STATE":"Nebraska","PROVIDER CITY":"Lincoln","PROVIDER  ADDRESS":"3901 Pine Lake Rd, Suite 220","PROVIDER ZIP 5 CD":68516,"PROVIDER ZIP 4 CD":5497,"PROVIDER PHONE NUM":4024213240,"PROVIDER PHONE EXT":"","PROGRAM YEAR":2011},"geometry":{"type":"Point","coordinates":[-96.616844,40.740783]}},{"type":"Feature","id":"5132dd72a288f42e67357970","properties":{"_id":"5132dd72a288f42e67357970","PROVIDER NPI":1740330745,"PROVIDER NAME":"Meier, Craig","PROVIDER STATE":"Nebraska","PROVIDER CITY":"Omaha","PROVIDER  ADDRESS":"1010 N 96th St Ste 200","PROVIDER ZIP 5 CD":68114,"PROVIDER ZIP 4 CD":2499,"PROVIDER PHONE NUM":4023434328,"PROVIDER PHONE EXT":"","PROGRAM YEAR":2011},"geometry":{"type":"Point","coordinates":[-96.062188,41.269273]}},{"type":"Feature","id":"5132dd72a288f42e67357971","properties":{"_id":"5132dd72a288f42e67357971","PROVIDER NPI":1407883705,"PROVIDER NAME":"Messbarger, Robert","PROVIDER STATE":"Nebraska","PROVIDER CITY":"Kearney","PROVIDER  ADDRESS":"3907 6th Ave","PROVIDER ZIP 5 CD":68845,"PROVIDER ZIP 4 CD":3392,"PROVIDER PHONE NUM":3088652767,"PROVIDER PHONE EXT":"","PROGRAM YEAR":2011},"geometry":{"type":"Point","coordinates":[-99.089415,40.713952]}},{"type":"Feature","id":"5132dd72a288f42e67357972","properties":{"_id":"5132dd72a288f42e67357972","PROVIDER NPI":1417069287,"PROVIDER NAME":"Mickey, Daniel","PROVIDER STATE":"Nebraska","PROVIDER CITY":"Columbus","PROVIDER  ADDRESS":"1371 29th Ave","PROVIDER ZIP 5 CD":68601,"PROVIDER ZIP 4 CD":"","PROVIDER PHONE NUM":4025640545,"PROVIDER PHONE EXT":"","PROGRAM YEAR":2011},"geometry":{"type":"Point","coordinates":[-97.363116,41.430045]}},{"type":"Feature","id":"5132dd72a288f42e67357973","properties":{"_id":"5132dd72a288f42e67357973","PROVIDER NPI":1306956727,"PROVIDER NAME":"Miller, Annette","PROVIDER STATE":"Nebraska","PROVIDER CITY":"Ainsworth","PROVIDER  ADDRESS":"913 E Zero St","PROVIDER ZIP 5 CD":69210,"PROVIDER ZIP 4 CD":287,"PROVIDER PHONE NUM":4023871900,"PROVIDER PHONE EXT":"","PROGRAM YEAR":2011},"geometry":{"type":"Point","coordinates":[-99.85175,42.544831]}},{"type":"Feature","id":"5132dd72a288f42e67357974","properties":{"_id":"5132dd72a288f42e67357974","PROVIDER NPI":1407081797,"PROVIDER NAME":"Miller, Bruce","PROVIDER STATE":"Nebraska","PROVIDER CITY":"Lincoln","PROVIDER  ADDRESS":"6900 A St","PROVIDER ZIP 5 CD":68510,"PROVIDER ZIP 4 CD":4120,"PROVIDER PHONE NUM":4024362000,"PROVIDER PHONE EXT":"","PROGRAM YEAR":2011},"geometry":{"type":"Point","coordinates":[-96.626961,40.798989]}},{"type":"Feature","id":"5132dd72a288f42e67357975","properties":{"_id":"5132dd72a288f42e67357975","PROVIDER NPI":1013026178,"PROVIDER NAME":"Miller, James","PROVIDER STATE":"Nebraska","PROVIDER CITY":"Hastings","PROVIDER  ADDRESS":"1021 W 14th St","PROVIDER ZIP 5 CD":68901,"PROVIDER ZIP 4 CD":3046,"PROVIDER PHONE NUM":4024628456,"PROVIDER PHONE EXT":"","PROGRAM YEAR":2011},"geometry":{"type":"Point","coordinates":[-98.393389,40.6006]}},{"type":"Feature","id":"5132dd72a288f42e67357976","properties":{"_id":"5132dd72a288f42e67357976","PROVIDER NPI":1063456465,"PROVIDER NAME":"Miller, Joseph","PROVIDER STATE":"Nebraska","PROVIDER CITY":"Lexington","PROVIDER  ADDRESS":"1103 Buffalo Bnd","PROVIDER ZIP 5 CD":68850,"PROVIDER ZIP 4 CD":1528,"PROVIDER PHONE NUM":3083246386,"PROVIDER PHONE EXT":631,"PROGRAM YEAR":2011},"geometry":{"type":"Point","coordinates":[-99.759273,40.784507]}},{"type":"Feature","id":"5132dd72a288f42e67357977","properties":{"_id":"5132dd72a288f42e67357977","PROVIDER NPI":1316908387,"PROVIDER NAME":"MILLER, KAREN","PROVIDER STATE":"Nebraska","PROVIDER CITY":"Omaha","PROVIDER  ADDRESS":"10109 Maple St","PROVIDER ZIP 5 CD":68134,"PROVIDER ZIP 4 CD":5554,"PROVIDER PHONE NUM":4025723500,"PROVIDER PHONE EXT":"","PROGRAM YEAR":2011},"geometry":{"type":"Point","coordinates":[-96.070484,41.285049]}},{"type":"Feature","id":"5132dd72a288f42e67357978","properties":{"_id":"5132dd72a288f42e67357978","PROVIDER NPI":1285740431,"PROVIDER NAME":"Miller, Steven","PROVIDER STATE":"Nebraska","PROVIDER CITY":"Norfolk","PROVIDER  ADDRESS":"3610 W Norfolk Ave","PROVIDER ZIP 5 CD":68701,"PROVIDER ZIP 4 CD":7702,"PROVIDER PHONE NUM":4023718230,"PROVIDER PHONE EXT":"","PROGRAM YEAR":2011},"geometry":{"type":"Point","coordinates":[-97.453324,42.032605]}},{"type":"Feature","id":"5132dd72a288f42e67357979","properties":{"_id":"5132dd72a288f42e67357979","PROVIDER NPI":1891897997,"PROVIDER NAME":"Minnick, David","PROVIDER STATE":"Nebraska","PROVIDER CITY":"Broken Bow","PROVIDER  ADDRESS":"145 Memorial Dr","PROVIDER ZIP 5 CD":68822,"PROVIDER ZIP 4 CD":"","PROVIDER PHONE NUM":3088722486,"PROVIDER PHONE EXT":"","PROGRAM YEAR":2011},"geometry":{"type":"Point","coordinates":[-99.630956,41.409112]}},{"type":"Feature","id":"5132dd72a288f42e6735797a","properties":{"_id":"5132dd72a288f42e6735797a","PROVIDER NPI":1558321505,"PROVIDER NAME":"Moore, Patrick","PROVIDER STATE":"Nebraska","PROVIDER CITY":"Kearney","PROVIDER  ADDRESS":"3811 29th Ave, Ste3","PROVIDER ZIP 5 CD":68845,"PROVIDER ZIP 4 CD":1280,"PROVIDER PHONE NUM":3082372621,"PROVIDER PHONE EXT":"","PROGRAM YEAR":2011},"geometry":{"type":"Point","coordinates":[-99.120382,40.713888]}},{"type":"Feature","id":"5132dd72a288f42e6735797b","properties":{"_id":"5132dd72a288f42e6735797b","PROVIDER NPI":1922013531,"PROVIDER NAME":"Morgan, HEATHER","PROVIDER STATE":"Nebraska","PROVIDER CITY":"Omaha","PROVIDER  ADDRESS":"16909 Lakeside Hills Ct, Suite 300","PROVIDER ZIP 5 CD":68130,"PROVIDER ZIP 4 CD":4664,"PROVIDER PHONE NUM":4027585045,"PROVIDER PHONE EXT":"","PROGRAM YEAR":2011},"geometry":{"type":"Point","coordinates":[-96.178753,41.237424]}},{"type":"Feature","id":"5132dd72a288f42e6735797c","properties":{"_id":"5132dd72a288f42e6735797c","PROVIDER NPI":1841219771,"PROVIDER NAME":"Morgan, Linda","PROVIDER STATE":"Nebraska","PROVIDER CITY":"Omaha","PROVIDER  ADDRESS":"11606 Nicholas St, Suite 200","PROVIDER ZIP 5 CD":68154,"PROVIDER ZIP 4 CD":4478,"PROVIDER PHONE NUM":4024932020,"PROVIDER PHONE EXT":"","PROGRAM YEAR":2011},"geometry":{"type":"Point","coordinates":[-96.113022,41.269952]}},{"type":"Feature","id":"5132dd72a288f42e6735797d","properties":{"_id":"5132dd72a288f42e6735797d","PROVIDER NPI":1144211293,"PROVIDER NAME":"Morse, Myron","PROVIDER STATE":"Nebraska","PROVIDER CITY":"Columbus","PROVIDER  ADDRESS":"4508 38th St, Suite 141","PROVIDER ZIP 5 CD":68601,"PROVIDER ZIP 4 CD":1668,"PROVIDER PHONE NUM":4025645333,"PROVIDER PHONE EXT":"","PROGRAM YEAR":2011},"geometry":{"type":"Point","coordinates":[-97.382677,41.453191]}},{"type":"Feature","id":"5132dd72a288f42e6735797e","properties":{"_id":"5132dd72a288f42e6735797e","PROVIDER NPI":1174526198,"PROVIDER NAME":"Morton, Jon","PROVIDER STATE":"Nebraska","PROVIDER CITY":"Omaha","PROVIDER  ADDRESS":"111 S 90th St","PROVIDER ZIP 5 CD":68114,"PROVIDER ZIP 4 CD":3907,"PROVIDER PHONE NUM":4023979800,"PROVIDER PHONE EXT":"","PROGRAM YEAR":2011},"geometry":{"type":"Point","coordinates":[-96.052472,41.258212]}},{"type":"Feature","id":"5132dd72a288f42e6735797f","properties":{"_id":"5132dd72a288f42e6735797f","PROVIDER NPI":1386662278,"PROVIDER NAME":"MOSEMAN, LYNNETTE","PROVIDER STATE":"Nebraska","PROVIDER CITY":"Omaha","PROVIDER  ADDRESS":"14450 Eagle Run Dr, SUITE 104","PROVIDER ZIP 5 CD":68116,"PROVIDER ZIP 4 CD":1493,"PROVIDER PHONE NUM":4024980380,"PROVIDER PHONE EXT":"","PROGRAM YEAR":2011},"geometry":{"type":"Point","coordinates":[-96.079871,41.199304]}},{"type":"Feature","id":"5132dd72a288f42e67357980","properties":{"_id":"5132dd72a288f42e67357980","PROVIDER NPI":1629008552,"PROVIDER NAME":"Moshman, Gordon","PROVIDER STATE":"Nebraska","PROVIDER CITY":"Omaha","PROVIDER  ADDRESS":"2727 S 144th St, #280","PROVIDER ZIP 5 CD":68144,"PROVIDER ZIP 4 CD":5225,"PROVIDER PHONE NUM":4027785490,"PROVIDER PHONE EXT":"","PROGRAM YEAR":2011},"geometry":{"type":"Point","coordinates":[-96.138511,41.233708]}},{"type":"Feature","id":"5132dd72a288f42e67357981","properties":{"_id":"5132dd72a288f42e67357981","PROVIDER NPI":1821081365,"PROVIDER NAME":"Mullendore, Sean","PROVIDER STATE":"Nebraska","PROVIDER CITY":"Bellevue","PROVIDER  ADDRESS":"3308 Samson Way, Suite 101","PROVIDER ZIP 5 CD":68123,"PROVIDER ZIP 4 CD":3194,"PROVIDER PHONE NUM":4028271577,"PROVIDER PHONE EXT":"","PROGRAM YEAR":2011},"geometry":{"type":"Point","coordinates":[-95.950982,41.17292]}},{"type":"Feature","id":"5132dd72a288f42e67357982","properties":{"_id":"5132dd72a288f42e67357982","PROVIDER NPI":1508989427,"PROVIDER NAME":"Murdock, Shawn","PROVIDER STATE":"Nebraska","PROVIDER CITY":"North Platte","PROVIDER  ADDRESS":"611 W Francis St Ste 100","PROVIDER ZIP 5 CD":69101,"PROVIDER ZIP 4 CD":614,"PROVIDER PHONE NUM":3085343222,"PROVIDER PHONE EXT":"","PROGRAM YEAR":2011},"geometry":{"type":"Point","coordinates":[-100.770161,41.122643]}},{"type":"Feature","id":"5132dd72a288f42e67357983","properties":{"_id":"5132dd72a288f42e67357983","PROVIDER NPI":1043374457,"PROVIDER NAME":"Murdock-Langan, Patricia","PROVIDER STATE":"Nebraska","PROVIDER CITY":"Omaha","PROVIDER  ADDRESS":"16909 Lakeside Hills Ct, Suite 300","PROVIDER ZIP 5 CD":68130,"PROVIDER ZIP 4 CD":4664,"PROVIDER PHONE NUM":4027585011,"PROVIDER PHONE EXT":"","PROGRAM YEAR":2011},"geometry":{"type":"Point","coordinates":[-96.178753,41.237424]}},{"type":"Feature","id":"5132dd72a288f42e67357984","properties":{"_id":"5132dd72a288f42e67357984","PROVIDER NPI":1124172663,"PROVIDER NAME":"Nabity, Michael","PROVIDER STATE":"Nebraska","PROVIDER CITY":"Omaha","PROVIDER  ADDRESS":"17001 Lakeside Hills Plz, Suite 100","PROVIDER ZIP 5 CD":68130,"PROVIDER ZIP 4 CD":4670,"PROVIDER PHONE NUM":4026977200,"PROVIDER PHONE EXT":111,"PROGRAM YEAR":2011},"geometry":{"type":"Point","coordinates":[-96.068578,41.303218]}},{"type":"Feature","id":"5132dd72a288f42e67357985","properties":{"_id":"5132dd72a288f42e67357985","PROVIDER NPI":1356346084,"PROVIDER NAME":"Naegele, Robert","PROVIDER STATE":"Nebraska","PROVIDER CITY":"Papillion","PROVIDER  ADDRESS":"555 Fortune Dr","PROVIDER ZIP 5 CD":68046,"PROVIDER ZIP 4 CD":3421,"PROVIDER PHONE NUM":4025023600,"PROVIDER PHONE EXT":"","PROGRAM YEAR":2011},"geometry":{"type":"Point","coordinates":[-96.027651,41.16153]}},