[{"type":"Feature","id":"5132dd72a288f42e67357add","properties":{"_id":"5132dd72a288f42e67357add","PROVIDER NPI":1609834852,"PROVIDER NAME":"Adaoag, Aaron","PROVIDER STATE":"Nevada","PROVIDER CITY":"Las Vegas","PROVIDER  ADDRESS":"9816 Gilespie Street, 550","PROVIDER ZIP 5 CD":89183,"PROVIDER ZIP 4 CD":7602,"PROVIDER PHONE NUM":7022026336,"PROVIDER PHONE EXT":"","PROGRAM YEAR":2011},"geometry":{"type":"Point","coordinates":[-115.163392,36.011153]}},{"type":"Feature","id":"5132dd72a288f42e67357ade","properties":{"_id":"5132dd72a288f42e67357ade","PROVIDER NPI":1659578623,"PROVIDER NAME":"Agarwal, Swati","PROVIDER STATE":"Nevada","PROVIDER CITY":"Henderson","PROVIDER  ADDRESS":"2598 Windmill Pkwy","PROVIDER ZIP 5 CD":89074,"PROVIDER ZIP 4 CD":5476,"PROVIDER PHONE NUM":7028966043,"PROVIDER PHONE EXT":"","PROGRAM YEAR":2011},"geometry":{"type":"Point","coordinates":[-115.100266,36.042389]}},{"type":"Feature","id":"5132dd72a288f42e67357adf","properties":{"_id":"5132dd72a288f42e67357adf","PROVIDER NPI":1497732119,"PROVIDER NAME":"Albretsen, Raymond","PROVIDER STATE":"Nevada","PROVIDER CITY":"Fernley","PROVIDER  ADDRESS":"45 W Cedar St, 120","PROVIDER ZIP 5 CD":89408,"PROVIDER ZIP 4 CD":9007,"PROVIDER PHONE NUM":7755755888,"PROVIDER PHONE EXT":"","PROGRAM YEAR":2011},"geometry":{"type":"Point","coordinates":[-119.251475,39.605106]}},{"type":"Feature","id":"5132dd72a288f42e67357ae0","properties":{"_id":"5132dd72a288f42e67357ae0","PROVIDER NPI":1710980743,"PROVIDER NAME":"Allen, Evan","PROVIDER STATE":"Nevada","PROVIDER CITY":"Henderson","PROVIDER  ADDRESS":"2510 Wigwam Pkwy, Suite 109","PROVIDER ZIP 5 CD":89074,"PROVIDER ZIP 4 CD":7114,"PROVIDER PHONE NUM":7025418240,"PROVIDER PHONE EXT":"","PROGRAM YEAR":2011},"geometry":{"type":"Point","coordinates":[-115.106368,36.033605]}},{"type":"Feature","id":"5132dd72a288f42e67357ae1","properties":{"_id":"5132dd72a288f42e67357ae1","PROVIDER NPI":1174596142,"PROVIDER NAME":"Allen, Lawrence","PROVIDER STATE":"Nevada","PROVIDER CITY":"Las Vegas","PROVIDER  ADDRESS":"3012 S Durango Dr, Suite 1","PROVIDER ZIP 5 CD":89117,"PROVIDER ZIP 4 CD":9186,"PROVIDER PHONE NUM":7023660640,"PROVIDER PHONE EXT":"","PROGRAM YEAR":2011},"geometry":{"type":"Point","coordinates":[-115.278882,36.13628]}},{"type":"Feature","id":"5132dd72a288f42e67357ae2","properties":{"_id":"5132dd72a288f42e67357ae2","PROVIDER NPI":1083650667,"PROVIDER NAME":"Almufdi, Victor","PROVIDER STATE":"Nevada","PROVIDER CITY":"Las Vegas","PROVIDER  ADDRESS":"3121 S Maryland Pkwy, Ste 101","PROVIDER ZIP 5 CD":89109,"PROVIDER ZIP 4 CD":2307,"PROVIDER PHONE NUM":7023203627,"PROVIDER PHONE EXT":"","PROGRAM YEAR":2011},"geometry":{"type":"Point","coordinates":[-115.16101,36.1115]}},{"type":"Feature","id":"5132dd72a288f42e67357ae3","properties":{"_id":"5132dd72a288f42e67357ae3","PROVIDER NPI":1467443093,"PROVIDER NAME":"Anderson, Martin","PROVIDER STATE":"Nevada","PROVIDER CITY":"Carson City","PROVIDER  ADDRESS":"973 Mica Dr, Suite 201","PROVIDER ZIP 5 CD":89705,"PROVIDER ZIP 4 CD":7255,"PROVIDER PHONE NUM":7757836190,"PROVIDER PHONE EXT":7118,"PROGRAM YEAR":2011},"geometry":{"type":"Point","coordinates":[-119.773959,39.091211]}},{"type":"Feature","id":"5132dd72a288f42e67357ae4","properties":{"_id":"5132dd72a288f42e67357ae4","PROVIDER NPI":1134158967,"PROVIDER NAME":"Angermann, Teresa","PROVIDER STATE":"Nevada","PROVIDER CITY":"Reno","PROVIDER  ADDRESS":"10467 Double R Blvd","PROVIDER ZIP 5 CD":89521,"PROVIDER ZIP 4 CD":8905,"PROVIDER PHONE NUM":7758539394,"PROVIDER PHONE EXT":"","PROGRAM YEAR":2011},"geometry":{"type":"Point","coordinates":[-119.759322,39.44029]}},{"type":"Feature","id":"5132dd72a288f42e67357ae5","properties":{"_id":"5132dd72a288f42e67357ae5","PROVIDER NPI":1962412106,"PROVIDER NAME":"Ang-Ermocilla, Beatriz","PROVIDER STATE":"Nevada","PROVIDER CITY":"Las Vegas","PROVIDER  ADDRESS":"3121 South Maryland Parkway, Suite 101","PROVIDER ZIP 5 CD":89109,"PROVIDER ZIP 4 CD":"","PROVIDER PHONE NUM":7023203627,"PROVIDER PHONE EXT":"","PROGRAM YEAR":2011},"geometry":{"type":"Point","coordinates":[-115.16101,36.1115]}},{"type":"Feature","id":"5132dd72a288f42e67357ae6","properties":{"_id":"5132dd72a288f42e67357ae6","PROVIDER NPI":1194897934,"PROVIDER NAME":"Antuna, Fulgencio","PROVIDER STATE":"Nevada","PROVIDER CITY":"Henderson","PROVIDER  ADDRESS":"100 N Green Valley Pkwy, Suite 220","PROVIDER ZIP 5 CD":89074,"PROVIDER ZIP 4 CD":6391,"PROVIDER PHONE NUM":7029443627,"PROVIDER PHONE EXT":"","PROGRAM YEAR":2011},"geometry":{"type":"Point","coordinates":[-115.106368,36.033605]}},{"type":"Feature","id":"5132dd72a288f42e67357ae7","properties":{"_id":"5132dd72a288f42e67357ae7","PROVIDER NPI":1790766798,"PROVIDER NAME":"Arraiz, Martin","PROVIDER STATE":"Nevada","PROVIDER CITY":"Reno","PROVIDER  ADDRESS":"555 N Arlington Ave","PROVIDER ZIP 5 CD":89503,"PROVIDER ZIP 4 CD":4723,"PROVIDER PHONE NUM":7757863040,"PROVIDER PHONE EXT":"","PROGRAM YEAR":2011},"geometry":{"type":"Point","coordinates":[-119.818783,39.531031]}},{"type":"Feature","id":"5132dd72a288f42e67357ae9","properties":{"_id":"5132dd72a288f42e67357ae9","PROVIDER NPI":1649211749,"PROVIDER NAME":"Bain, Martin","PROVIDER STATE":"Nevada","PROVIDER CITY":"Reno","PROVIDER  ADDRESS":"75 Pringle Way, Suite 1002","PROVIDER ZIP 5 CD":89502,"PROVIDER ZIP 4 CD":"","PROVIDER PHONE NUM":7753237500,"PROVIDER PHONE EXT":"","PROGRAM YEAR":2011},"geometry":{"type":"Point","coordinates":[-119.796021,39.524452]}},{"type":"Feature","id":"5132dd72a288f42e67357aea","properties":{"_id":"5132dd72a288f42e67357aea","PROVIDER NPI":1912900655,"PROVIDER NAME":"Baker, Robert","PROVIDER STATE":"Nevada","PROVIDER CITY":"Las Vegas","PROVIDER  ADDRESS":"3121 S Maryland Pkwy, Ste 512","PROVIDER ZIP 5 CD":89109,"PROVIDER ZIP 4 CD":2310,"PROVIDER PHONE NUM":7027967150,"PROVIDER PHONE EXT":"","PROGRAM YEAR":2011},"geometry":{"type":"Point","coordinates":[-115.16101,36.1115]}},{"type":"Feature","id":"5132dd72a288f42e67357aeb","properties":{"_id":"5132dd72a288f42e67357aeb","PROVIDER NPI":1508012386,"PROVIDER NAME":"Barrettoko, Clarissa","PROVIDER STATE":"Nevada","PROVIDER CITY":"Henderson","PROVIDER  ADDRESS":"100 N Green Valley Pkwy, 239","PROVIDER ZIP 5 CD":89074,"PROVIDER ZIP 4 CD":6391,"PROVIDER PHONE NUM":7029331485,"PROVIDER PHONE EXT":"","PROGRAM YEAR":2011},"geometry":{"type":"Point","coordinates":[-115.085227,36.025462]}},{"type":"Feature","id":"5132dd72a288f42e67357aec","properties":{"_id":"5132dd72a288f42e67357aec","PROVIDER NPI":1205883642,"PROVIDER NAME":"Bascharon, Randa","PROVIDER STATE":"Nevada","PROVIDER CITY":"Las Vegas","PROVIDER  ADDRESS":"7281 W Sahara Ave #110","PROVIDER ZIP 5 CD":89117,"PROVIDER ZIP 4 CD":"","PROVIDER PHONE NUM":7029477790,"PROVIDER PHONE EXT":"","PROGRAM YEAR":2011},"geometry":{"type":"Point","coordinates":[-115.251492,36.143844]}},{"type":"Feature","id":"5132dd72a288f42e67357aed","properties":{"_id":"5132dd72a288f42e67357aed","PROVIDER NPI":1720179849,"PROVIDER NAME":"Berry, David","PROVIDER STATE":"Nevada","PROVIDER CITY":"Reno","PROVIDER  ADDRESS":"699 Sierra Rose Dr Ste A","PROVIDER ZIP 5 CD":89511,"PROVIDER ZIP 4 CD":2069,"PROVIDER PHONE NUM":7756893737,"PROVIDER PHONE EXT":"","PROGRAM YEAR":2011},"geometry":{"type":"Point","coordinates":[-119.800278,39.473447]}},{"type":"Feature","id":"5132dd72a288f42e67357aee","properties":{"_id":"5132dd72a288f42e67357aee","PROVIDER NPI":1275532459,"PROVIDER NAME":"Bezard, Herve","PROVIDER STATE":"Nevada","PROVIDER CITY":"Boulder City","PROVIDER  ADDRESS":"895 Adams Blvd","PROVIDER ZIP 5 CD":89005,"PROVIDER ZIP 4 CD":2235,"PROVIDER PHONE NUM":7022930406,"PROVIDER PHONE EXT":"","PROGRAM YEAR":2011},"geometry":{"type":"Point","coordinates":[-114.831438,35.968945]}},{"type":"Feature","id":"5132dd72a288f42e67357aef","properties":{"_id":"5132dd72a288f42e67357aef","PROVIDER NPI":1245281120,"PROVIDER NAME":"Bhatia, Sonu","PROVIDER STATE":"Nevada","PROVIDER CITY":"Henderson","PROVIDER  ADDRESS":"2401 W Horizon Ridge Pkwy, Suite 100","PROVIDER ZIP 5 CD":89052,"PROVIDER ZIP 4 CD":2706,"PROVIDER PHONE NUM":7023857001,"PROVIDER PHONE EXT":"","PROGRAM YEAR":2011},"geometry":{"type":"Point","coordinates":[-115.091822,36.00584]}},{"type":"Feature","id":"5132dd72a288f42e67357af0","properties":{"_id":"5132dd72a288f42e67357af0","PROVIDER NPI":1730167255,"PROVIDER NAME":"BIGLER, GREGORY","PROVIDER STATE":"Nevada","PROVIDER CITY":"Las Vegas","PROVIDER  ADDRESS":"9499 W Charleston Blvd, Ste 200","PROVIDER ZIP 5 CD":89117,"PROVIDER ZIP 4 CD":7146,"PROVIDER PHONE NUM":7029339393,"PROVIDER PHONE EXT":"","PROGRAM YEAR":2011},"geometry":{"type":"Point","coordinates":[-115.281321,36.156911]}},{"type":"Feature","id":"5132dd72a288f42e67357af1","properties":{"_id":"5132dd72a288f42e67357af1","PROVIDER NPI":1629059506,"PROVIDER NAME":"Blakey, Richard","PROVIDER STATE":"Nevada","PROVIDER CITY":"Reno","PROVIDER  ADDRESS":"555 N Arlington Ave","PROVIDER ZIP 5 CD":89503,"PROVIDER ZIP 4 CD":4723,"PROVIDER PHONE NUM":7757863040,"PROVIDER PHONE EXT":"","PROGRAM YEAR":2011},"geometry":{"type":"Point","coordinates":[-119.818783,39.531031]}},{"type":"Feature","id":"5132dd72a288f42e67357af2","properties":{"_id":"5132dd72a288f42e67357af2","PROVIDER NPI":1538200233,"PROVIDER NAME":"Bonnick Murray, Blanche","PROVIDER STATE":"Nevada","PROVIDER CITY":"Las Vegas","PROVIDER  ADDRESS":"1701 Bearden Drive, #200","PROVIDER ZIP 5 CD":89106,"PROVIDER ZIP 4 CD":4189,"PROVIDER PHONE NUM":7023109110,"PROVIDER PHONE EXT":"","PROGRAM YEAR":2011},"geometry":{"type":"Point","coordinates":[-115.165224,36.16185]}},{"type":"Feature","id":"5132dd72a288f42e67357af3","properties":{"_id":"5132dd72a288f42e67357af3","PROVIDER NPI":1518948512,"PROVIDER NAME":"Boyden, Eric","PROVIDER STATE":"Nevada","PROVIDER CITY":"Reno","PROVIDER  ADDRESS":"555 N Arlington Ave","PROVIDER ZIP 5 CD":89503,"PROVIDER ZIP 4 CD":4723,"PROVIDER PHONE NUM":7757863040,"PROVIDER PHONE EXT":"","PROGRAM YEAR":2011},"geometry":{"type":"Point","coordinates":[-119.818783,39.531031]}},{"type":"Feature","id":"5132dd72a288f42e67357af4","properties":{"_id":"5132dd72a288f42e67357af4","PROVIDER NPI":1639150568,"PROVIDER NAME":"Bray, Timothy","PROVIDER STATE":"Nevada","PROVIDER CITY":"Reno","PROVIDER  ADDRESS":"555 N Arlington Ave","PROVIDER ZIP 5 CD":89503,"PROVIDER ZIP 4 CD":4724,"PROVIDER PHONE NUM":7757863040,"PROVIDER PHONE EXT":"","PROGRAM YEAR":2011},"geometry":{"type":"Point","coordinates":[-119.818783,39.531031]}},{"type":"Feature","id":"5132dd72a288f42e67357af5","properties":{"_id":"5132dd72a288f42e67357af5","PROVIDER NPI":1013901750,"PROVIDER NAME":"Broeske, Daniel","PROVIDER STATE":"Nevada","PROVIDER CITY":"Las Vegas","PROVIDER  ADDRESS":"3121 S Maryland Pkwy, Ste 408","PROVIDER ZIP 5 CD":89109,"PROVIDER ZIP 4 CD":2307,"PROVIDER PHONE NUM":7027338018,"PROVIDER PHONE EXT":"","PROGRAM YEAR":2011},"geometry":{"type":"Point","coordinates":[-115.16101,36.1115]}},{"type":"Feature","id":"5132dd72a288f42e67357af6","properties":{"_id":"5132dd72a288f42e67357af6","PROVIDER NPI":1235143264,"PROVIDER NAME":"Bronstein, Andrew","PROVIDER STATE":"Nevada","PROVIDER CITY":"Las Vegas","PROVIDER  ADDRESS":"10135 W. Twain Ave. #100","PROVIDER ZIP 5 CD":89147,"PROVIDER ZIP 4 CD":"","PROVIDER PHONE NUM":7024584263,"PROVIDER PHONE EXT":"","PROGRAM YEAR":2011},"geometry":{"type":"Point","coordinates":[-115.315661,36.122449]}},{"type":"Feature","id":"5132dd72a288f42e67357af7","properties":{"_id":"5132dd72a288f42e67357af7","PROVIDER NPI":1295812535,"PROVIDER NAME":"Brown, Dennis","PROVIDER STATE":"Nevada","PROVIDER CITY":"Reno","PROVIDER  ADDRESS":"6880 S McCarran Blvd, #5","PROVIDER ZIP 5 CD":89509,"PROVIDER ZIP 4 CD":"","PROVIDER PHONE NUM":7758282333,"PROVIDER PHONE EXT":"","PROGRAM YEAR":2011},"geometry":{"type":"Point","coordinates":[-119.80509,39.476618]}},{"type":"Feature","id":"5132dd72a288f42e67357af8","properties":{"_id":"5132dd72a288f42e67357af8","PROVIDER NPI":1659459873,"PROVIDER NAME":"Brown, Steven","PROVIDER STATE":"Nevada","PROVIDER CITY":"Minden","PROVIDER  ADDRESS":"1667 Lucerne St, STE. A","PROVIDER ZIP 5 CD":89423,"PROVIDER ZIP 4 CD":4372,"PROVIDER PHONE NUM":7757829118,"PROVIDER PHONE EXT":"","PROGRAM YEAR":2011},"geometry":{"type":"Point","coordinates":[-119.773551,38.955006]}},{"type":"Feature","id":"5132dd72a288f42e67357af9","properties":{"_id":"5132dd72a288f42e67357af9","PROVIDER NPI":1992705248,"PROVIDER NAME":"Browne, David","PROVIDER STATE":"Nevada","PROVIDER CITY":"Las Vegas","PROVIDER  ADDRESS":"2950 S Maryland Pkwy","PROVIDER ZIP 5 CD":89109,"PROVIDER ZIP 4 CD":2204,"PROVIDER PHONE NUM":7027326000,"PROVIDER PHONE EXT":"","PROGRAM YEAR":2011},"geometry":{"type":"Point","coordinates":[-115.136789,36.136099]}},{"type":"Feature","id":"5132dd72a288f42e67357afa","properties":{"_id":"5132dd72a288f42e67357afa","PROVIDER NPI":1134139884,"PROVIDER NAME":"Bruce, Victor","PROVIDER STATE":"Nevada","PROVIDER CITY":"Las Vegas","PROVIDER  ADDRESS":"3330 S Hualapai Way, Suite #120","PROVIDER ZIP 5 CD":89117,"PROVIDER ZIP 4 CD":7716,"PROVIDER PHONE NUM":7027655253,"PROVIDER PHONE EXT":"","PROGRAM YEAR":2011},"geometry":{"type":"Point","coordinates":[-115.315128,36.130942]}},{"type":"Feature","id":"5132dd72a288f42e67357afb","properties":{"_id":"5132dd72a288f42e67357afb","PROVIDER NPI":1679795876,"PROVIDER NAME":"Budge, Matthew","PROVIDER STATE":"Nevada","PROVIDER CITY":"Las Vegas","PROVIDER  ADDRESS":"10135 W Twain Ave, Suite 100","PROVIDER ZIP 5 CD":89147,"PROVIDER ZIP 4 CD":6720,"PROVIDER PHONE NUM":7174584263,"PROVIDER PHONE EXT":"","PROGRAM YEAR":2011},"geometry":{"type":"Point","coordinates":[-115.309916,36.122484]}},{"type":"Feature","id":"5132dd72a288f42e67357afc","properties":{"_id":"5132dd72a288f42e67357afc","PROVIDER NPI":1639275969,"PROVIDER NAME":"Burgos, Jorge","PROVIDER STATE":"Nevada","PROVIDER CITY":"N Las Vegas","PROVIDER  ADDRESS":"1815 E Lake Mead Blvd Ste 317","PROVIDER ZIP 5 CD":89030,"PROVIDER ZIP 4 CD":7193,"PROVIDER PHONE NUM":7022270022,"PROVIDER PHONE EXT":"","PROGRAM YEAR":2011},"geometry":{"type":"Point","coordinates":[-115.122314,36.195738]}},{"type":"Feature","id":"5132dd72a288f42e67357afd","properties":{"_id":"5132dd72a288f42e67357afd","PROVIDER NPI":1356314314,"PROVIDER NAME":"Burke, Dina","PROVIDER STATE":"Nevada","PROVIDER CITY":"Las Vegas","PROVIDER  ADDRESS":"5380 S Rainbow Blvd, #120","PROVIDER ZIP 5 CD":89118,"PROVIDER ZIP 4 CD":1877,"PROVIDER PHONE NUM":7022333444,"PROVIDER PHONE EXT":"","PROGRAM YEAR":2011},"geometry":{"type":"Point","coordinates":[-115.242824,36.091055]}},{"type":"Feature","id":"5132dd72a288f42e67357afe","properties":{"_id":"5132dd72a288f42e67357afe","PROVIDER NPI":1366550188,"PROVIDER NAME":"Burns, Robi","PROVIDER STATE":"Nevada","PROVIDER CITY":"Henderson","PROVIDER  ADDRESS":"2633 W. HORIZON RIDGE PKWY, #100","PROVIDER ZIP 5 CD":89052,"PROVIDER ZIP 4 CD":3975,"PROVIDER PHONE NUM":7024270494,"PROVIDER PHONE EXT":"","PROGRAM YEAR":2011},"geometry":{"type":"Point","coordinates":[-115.10285,36.000579]}},{"type":"Feature","id":"5132dd72a288f42e67357aff","properties":{"_id":"5132dd72a288f42e67357aff","PROVIDER NPI":1598818296,"PROVIDER NAME":"Card, Keith","PROVIDER STATE":"Nevada","PROVIDER CITY":"Carson City","PROVIDER  ADDRESS":"973 Mica Dr, Suite 201","PROVIDER ZIP 5 CD":89705,"PROVIDER ZIP 4 CD":7255,"PROVIDER PHONE NUM":7757836190,"PROVIDER PHONE EXT":7116,"PROGRAM YEAR":2011},"geometry":{"type":"Point","coordinates":[-119.773959,39.091211]}},{"type":"Feature","id":"5132dd72a288f42e67357b00","properties":{"_id":"5132dd72a288f42e67357b00","PROVIDER NPI":1770581936,"PROVIDER NAME":"Cartwright, Robert","PROVIDER STATE":"Nevada","PROVIDER CITY":"Las Vegas","PROVIDER  ADDRESS":"3560 E Flamingo Rd, Suite 100","PROVIDER ZIP 5 CD":89121,"PROVIDER ZIP 4 CD":5044,"PROVIDER PHONE NUM":7024336100,"PROVIDER PHONE EXT":"","PROGRAM YEAR":2011},"geometry":{"type":"Point","coordinates":[-115.115356,36.112656]}},{"type":"Feature","id":"5132dd72a288f42e67357b01","properties":{"_id":"5132dd72a288f42e67357b01","PROVIDER NPI":1144284522,"PROVIDER NAME":"Caves, Thomas","PROVIDER STATE":"Nevada","PROVIDER CITY":"Reno","PROVIDER  ADDRESS":"655 Sierra Rose Dr","PROVIDER ZIP 5 CD":89511,"PROVIDER ZIP 4 CD":2060,"PROVIDER PHONE NUM":7758297600,"PROVIDER PHONE EXT":"","PROGRAM YEAR":2011},"geometry":{"type":"Point","coordinates":[-119.796861,39.473464]}},{"type":"Feature","id":"5132dd72a288f42e67357b02","properties":{"_id":"5132dd72a288f42e67357b02","PROVIDER NPI":1245230713,"PROVIDER NAME":"Cearlock, Jody","PROVIDER STATE":"Nevada","PROVIDER CITY":"Las Vegas","PROVIDER  ADDRESS":"2950 S Maryland Pkwy","PROVIDER ZIP 5 CD":89109,"PROVIDER ZIP 4 CD":2204,"PROVIDER PHONE NUM":7027326000,"PROVIDER PHONE EXT":"","PROGRAM YEAR":2011},"geometry":{"type":"Point","coordinates":[-115.136789,36.136099]}},{"type":"Feature","id":"5132dd72a288f42e67357b03","properties":{"_id":"5132dd72a288f42e67357b03","PROVIDER NPI":1215991856,"PROVIDER NAME":"chacon, sam","PROVIDER STATE":"Nevada","PROVIDER CITY":"CARSON CITY","PROVIDER  ADDRESS":"1200 MOUNTAIN ST","PROVIDER ZIP 5 CD":89703,"PROVIDER ZIP 4 CD":3821,"PROVIDER PHONE NUM":7758833636,"PROVIDER PHONE EXT":"","PROGRAM YEAR":2011},"geometry":{"type":"Point","coordinates":[-119.77295,39.171461]}},{"type":"Feature","id":"5132dd72a288f42e67357b04","properties":{"_id":"5132dd72a288f42e67357b04","PROVIDER NPI":1942228515,"PROVIDER NAME":"Chang, Bess","PROVIDER STATE":"Nevada","PROVIDER CITY":"Las Vegas","PROVIDER  ADDRESS":"8530 W Sunset Rd, Suite 350","PROVIDER ZIP 5 CD":89113,"PROVIDER ZIP 4 CD":2215,"PROVIDER PHONE NUM":7028511065,"PROVIDER PHONE EXT":"","PROGRAM YEAR":2011},"geometry":{"type":"Point","coordinates":[-115.279405,36.07038]}},{"type":"Feature","id":"5132dd72a288f42e67357b05","properties":{"_id":"5132dd72a288f42e67357b05","PROVIDER NPI":1558362228,"PROVIDER NAME":"Chang, Henry","PROVIDER STATE":"Nevada","PROVIDER CITY":"Las Vegas","PROVIDER  ADDRESS":"2950 S Maryland Pkwy","PROVIDER ZIP 5 CD":89109,"PROVIDER ZIP 4 CD":2204,"PROVIDER PHONE NUM":7027326000,"PROVIDER PHONE EXT":"","PROGRAM YEAR":2011},"geometry":{"type":"Point","coordinates":[-115.136789,36.136099]}},{"type":"Feature","id":"5132dd72a288f42e67357b06","properties":{"_id":"5132dd72a288f42e67357b06","PROVIDER NPI":1144437914,"PROVIDER NAME":"CHANG, KEVIN","PROVIDER STATE":"Nevada","PROVIDER CITY":"Las Vegas","PROVIDER  ADDRESS":"2950 S Maryland Parkway","PROVIDER ZIP 5 CD":89109,"PROVIDER ZIP 4 CD":"","PROVIDER PHONE NUM":7022401215,"PROVIDER PHONE EXT":"","PROGRAM YEAR":2011},"geometry":{"type":"Point","coordinates":[-115.136789,36.136099]}},{"type":"Feature","id":"5132dd72a288f42e67357b07","properties":{"_id":"5132dd72a288f42e67357b07","PROVIDER NPI":1609805373,"PROVIDER NAME":"Charniga, Teresa","PROVIDER STATE":"Nevada","PROVIDER CITY":"Las Vegas","PROVIDER  ADDRESS":"3121 S Maryland Pkwy, Ste 101","PROVIDER ZIP 5 CD":89109,"PROVIDER ZIP 4 CD":2307,"PROVIDER PHONE NUM":7023203627,"PROVIDER PHONE EXT":"","PROGRAM YEAR":2011},"geometry":{"type":"Point","coordinates":[-115.16101,36.1115]}},{"type":"Feature","id":"5132dd72a288f42e67357b08","properties":{"_id":"5132dd72a288f42e67357b08","PROVIDER NPI":1124172622,"PROVIDER NAME":"Cheanvechai, Vasana","PROVIDER STATE":"Nevada","PROVIDER CITY":"Las Vegas","PROVIDER  ADDRESS":"501 S Rancho Dr, Suite F-38","PROVIDER ZIP 5 CD":89106,"PROVIDER ZIP 4 CD":4828,"PROVIDER PHONE NUM":7022581173,"PROVIDER PHONE EXT":"","PROGRAM YEAR":2011},"geometry":{"type":"Point","coordinates":[-115.149377,36.179001]}},{"type":"Feature","id":"5132dd72a288f42e67357b09","properties":{"_id":"5132dd72a288f42e67357b09","PROVIDER NPI":1083617138,"PROVIDER NAME":"Chen, Richard","PROVIDER STATE":"Nevada","PROVIDER CITY":"Las Vegas","PROVIDER  ADDRESS":"3121 S Maryland Pkwy, Ste 512","PROVIDER ZIP 5 CD":89109,"PROVIDER ZIP 4 CD":2310,"PROVIDER PHONE NUM":7027967150,"PROVIDER PHONE EXT":"","PROGRAM YEAR":2011},"geometry":{"type":"Point","coordinates":[-115.16101,36.1115]}},{"type":"Feature","id":"5132dd72a288f42e67357b0a","properties":{"_id":"5132dd72a288f42e67357b0a","PROVIDER NPI":1225069651,"PROVIDER NAME":"Chen, Stephen","PROVIDER STATE":"Nevada","PROVIDER CITY":"Las Vegas","PROVIDER  ADDRESS":"2950 S Maryland Parkway","PROVIDER ZIP 5 CD":89109,"PROVIDER ZIP 4 CD":"","PROVIDER PHONE NUM":7027326000,"PROVIDER PHONE EXT":"","PROGRAM YEAR":2011},"geometry":{"type":"Point","coordinates":[-115.136789,36.136099]}},{"type":"Feature","id":"5132dd72a288f42e67357b0b","properties":{"_id":"5132dd72a288f42e67357b0b","PROVIDER NPI":1215916846,"PROVIDER NAME":"Chen, Victor","PROVIDER STATE":"Nevada","PROVIDER CITY":"Reno","PROVIDER  ADDRESS":"10619 Professional Cir","PROVIDER ZIP 5 CD":89521,"PROVIDER ZIP 4 CD":5831,"PROVIDER PHONE NUM":7758524848,"PROVIDER PHONE EXT":"","PROGRAM YEAR":2011},"geometry":{"type":"Point","coordinates":[-119.682355,39.384899]}},{"type":"Feature","id":"5132dd72a288f42e67357b0c","properties":{"_id":"5132dd72a288f42e67357b0c","PROVIDER NPI":1306816566,"PROVIDER NAME":"Chiang, Jim","PROVIDER STATE":"Nevada","PROVIDER CITY":"Boulder City","PROVIDER  ADDRESS":"895 Adams Blvd","PROVIDER ZIP 5 CD":89005,"PROVIDER ZIP 4 CD":2235,"PROVIDER PHONE NUM":7022930406,"PROVIDER PHONE EXT":"","PROGRAM YEAR":2011},"geometry":{"type":"Point","coordinates":[-114.831438,35.968945]}},{"type":"Feature","id":"5132dd72a288f42e67357b0d","properties":{"_id":"5132dd72a288f42e67357b0d","PROVIDER NPI":1588691786,"PROVIDER NAME":"chin, tony","PROVIDER STATE":"Nevada","PROVIDER CITY":"Las Vegas","PROVIDER  ADDRESS":"7906 W Sahara Ave","PROVIDER ZIP 5 CD":89117,"PROVIDER ZIP 4 CD":1990,"PROVIDER PHONE NUM":7023071800,"PROVIDER PHONE EXT":"","PROGRAM YEAR":2011},"geometry":{"type":"Point","coordinates":[-115.263279,36.14381]}},{"type":"Feature","id":"5132dd72a288f42e67357b0e","properties":{"_id":"5132dd72a288f42e67357b0e","PROVIDER NPI":1629189121,"PROVIDER NAME":"Choi, Chin","PROVIDER STATE":"Nevada","PROVIDER CITY":"Pahrump","PROVIDER  ADDRESS":"300 S Highway 160","PROVIDER ZIP 5 CD":89048,"PROVIDER ZIP 4 CD":2132,"PROVIDER PHONE NUM":7755370111,"PROVIDER PHONE EXT":"","PROGRAM YEAR":2011},"geometry":{"type":"Point","coordinates":[-115.987684,36.211009]}},{"type":"Feature","id":"5132dd72a288f42e67357b0f","properties":{"_id":"5132dd72a288f42e67357b0f","PROVIDER NPI":1578544169,"PROVIDER NAME":"Christensen, James","PROVIDER STATE":"Nevada","PROVIDER CITY":"Reno","PROVIDER  ADDRESS":"555 N Arlington Ave","PROVIDER ZIP 5 CD":89503,"PROVIDER ZIP 4 CD":4723,"PROVIDER PHONE NUM":7757885283,"PROVIDER PHONE EXT":"","PROGRAM YEAR":2011},"geometry":{"type":"Point","coordinates":[-119.818783,39.531031]}},{"type":"Feature","id":"5132dd72a288f42e67357b10","properties":{"_id":"5132dd72a288f42e67357b10","PROVIDER NPI":1013902030,"PROVIDER NAME":"Chu, Gorden","PROVIDER STATE":"Nevada","PROVIDER CITY":"Las Vegas","PROVIDER  ADDRESS":"2950 S Maryland Pkwy","PROVIDER ZIP 5 CD":89109,"PROVIDER ZIP 4 CD":2204,"PROVIDER PHONE NUM":7027326000,"PROVIDER PHONE EXT":"","PROGRAM YEAR":2011},"geometry":{"type":"Point","coordinates":[-115.136789,36.136099]}},{"type":"Feature","id":"5132dd72a288f42e67357b11","properties":{"_id":"5132dd72a288f42e67357b11","PROVIDER NPI":1497854962,"PROVIDER NAME":"CHUANG, RITA","PROVIDER STATE":"Nevada","PROVIDER CITY":"Henderson","PROVIDER  ADDRESS":"2629 W Horizon Ridge Pkwy Ste 140","PROVIDER ZIP 5 CD":89052,"PROVIDER ZIP 4 CD":4831,"PROVIDER PHONE NUM":7028183207,"PROVIDER PHONE EXT":"","PROGRAM YEAR":2011},"geometry":{"type":"Point","coordinates":[-115.102763,36.000667]}},{"type":"Feature","id":"5132dd72a288f42e67357b12","properties":{"_id":"5132dd72a288f42e67357b12","PROVIDER NPI":1770515967,"PROVIDER NAME":"Clark, Christine","PROVIDER STATE":"Nevada","PROVIDER CITY":"Las Vegas","PROVIDER  ADDRESS":"2421 Tech Center Ct, #108","PROVIDER ZIP 5 CD":89128,"PROVIDER ZIP 4 CD":"","PROVIDER PHONE NUM":7026424405,"PROVIDER PHONE EXT":"","PROGRAM YEAR":2011},"geometry":{"type":"Point","coordinates":[-115.253752,36.203621]}},{"type":"Feature","id":"5132dd72a288f42e67357b13","properties":{"_id":"5132dd72a288f42e67357b13","PROVIDER NPI":1386617348,"PROVIDER NAME":"Coker, Howard","PROVIDER STATE":"Nevada","PROVIDER CITY":"Las Vegas","PROVIDER  ADDRESS":"3012 S Durango Dr, Suite 1","PROVIDER ZIP 5 CD":89117,"PROVIDER ZIP 4 CD":9186,"PROVIDER PHONE NUM":7023660640,"PROVIDER PHONE EXT":"","PROGRAM YEAR":2011},"geometry":{"type":"Point","coordinates":[-115.278882,36.13628]}},{"type":"Feature","id":"5132dd72a288f42e67357b14","properties":{"_id":"5132dd72a288f42e67357b14","PROVIDER NPI":1730152703,"PROVIDER NAME":"Conger, Michelle","PROVIDER STATE":"Nevada","PROVIDER CITY":"Las Vegas","PROVIDER  ADDRESS":"5380 S Rainbow Blvd, #120","PROVIDER ZIP 5 CD":89118,"PROVIDER ZIP 4 CD":"","PROVIDER PHONE NUM":7022333444,"PROVIDER PHONE EXT":"","PROGRAM YEAR":2011},"geometry":{"type":"Point","coordinates":[-115.242824,36.091055]}},{"type":"Feature","id":"5132dd72a288f42e67357b15","properties":{"_id":"5132dd72a288f42e67357b15","PROVIDER NPI":1871515809,"PROVIDER NAME":"Cooper, Corinne","PROVIDER STATE":"Nevada","PROVIDER CITY":"Sparks","PROVIDER  ADDRESS":"1965 Baring Blvd","PROVIDER ZIP 5 CD":89434,"PROVIDER ZIP 4 CD":6734,"PROVIDER PHONE NUM":7753581020,"PROVIDER PHONE EXT":"","PROGRAM YEAR":2011},"geometry":{"type":"Point","coordinates":[-119.708936,39.558281]}},{"type":"Feature","id":"5132dd72a288f42e67357b16","properties":{"_id":"5132dd72a288f42e67357b16","PROVIDER NPI":1821089293,"PROVIDER NAME":"Costa, Peter","PROVIDER STATE":"Nevada","PROVIDER CITY":"Carson City","PROVIDER  ADDRESS":"973 Mica Dr, Suite 201","PROVIDER ZIP 5 CD":89705,"PROVIDER ZIP 4 CD":7255,"PROVIDER PHONE NUM":7757836190,"PROVIDER PHONE EXT":7116,"PROGRAM YEAR":2011},"geometry":{"type":"Point","coordinates":[-119.773959,39.091211]}},{"type":"Feature","id":"5132dd72a288f42e67357b17","properties":{"_id":"5132dd72a288f42e67357b17","PROVIDER NPI":1083697957,"PROVIDER NAME":"Crowley, Jim","PROVIDER STATE":"Nevada","PROVIDER CITY":"Las Vegas","PROVIDER  ADDRESS":"653 N Town Center Dr Ste 302","PROVIDER ZIP 5 CD":89144,"PROVIDER ZIP 4 CD":517,"PROVIDER PHONE NUM":7022123428,"PROVIDER PHONE EXT":"","PROGRAM YEAR":2011},"geometry":{"type":"Point","coordinates":[-115.317058,36.178967]}},{"type":"Feature","id":"5132dd72a288f42e67357b18","properties":{"_id":"5132dd72a288f42e67357b18","PROVIDER NPI":1740271238,"PROVIDER NAME":"Cummings, Jeffrey","PROVIDER STATE":"Nevada","PROVIDER CITY":"Carson City","PROVIDER  ADDRESS":"973 Mica Dr, Suite 201","PROVIDER ZIP 5 CD":89705,"PROVIDER ZIP 4 CD":7255,"PROVIDER PHONE NUM":7757836190,"PROVIDER PHONE EXT":7116,"PROGRAM YEAR":2011},"geometry":{"type":"Point","coordinates":[-119.773959,39.091211]}},{"type":"Feature","id":"5132dd72a288f42e67357b19","properties":{"_id":"5132dd72a288f42e67357b19","PROVIDER NPI":1134108038,"PROVIDER NAME":"Damaj, Nouhad","PROVIDER STATE":"Nevada","PROVIDER CITY":"Las Vegas","PROVIDER  ADDRESS":"6850 N Durango Dr, Suite 301","PROVIDER ZIP 5 CD":89149,"PROVIDER ZIP 4 CD":4595,"PROVIDER PHONE NUM":7026418500,"PROVIDER PHONE EXT":"","PROGRAM YEAR":2011},"geometry":{"type":"Point","coordinates":[-115.27865,36.284525]}},{"type":"Feature","id":"5132dd72a288f42e67357b1a","properties":{"_id":"5132dd72a288f42e67357b1a","PROVIDER NPI":1063475770,"PROVIDER NAME":"Damji, Shaukat","PROVIDER STATE":"Nevada","PROVIDER CITY":"Las Vegas","PROVIDER  ADDRESS":"3012 S. Durango Dr., #1","PROVIDER ZIP 5 CD":89117,"PROVIDER ZIP 4 CD":"","PROVIDER PHONE NUM":7023660640,"PROVIDER PHONE EXT":"","PROGRAM YEAR":2011},"geometry":{"type":"Point","coordinates":[-115.278882,36.13628]}},{"type":"Feature","id":"5132dd72a288f42e67357b1b","properties":{"_id":"5132dd72a288f42e67357b1b","PROVIDER NPI":1710087416,"PROVIDER NAME":"Darzev, Biliana","PROVIDER STATE":"Nevada","PROVIDER CITY":"Las Vegas","PROVIDER  ADDRESS":"653 N Town Center Dr, Suite 300","PROVIDER ZIP 5 CD":89144,"PROVIDER ZIP 4 CD":514,"PROVIDER PHONE NUM":7024567255,"PROVIDER PHONE EXT":"","PROGRAM YEAR":2011},"geometry":{"type":"Point","coordinates":[-115.333149,36.17693]}},{"type":"Feature","id":"5132dd72a288f42e67357b1c","properties":{"_id":"5132dd72a288f42e67357b1c","PROVIDER NPI":1801906359,"PROVIDER NAME":"Davis, David","PROVIDER STATE":"Nevada","PROVIDER CITY":"Las Vegas","PROVIDER  ADDRESS":"3560 E Flamingo Rd, Ste. 100","PROVIDER ZIP 5 CD":89121,"PROVIDER ZIP 4 CD":5088,"PROVIDER PHONE NUM":7024336100,"PROVIDER PHONE EXT":"","PROGRAM YEAR":2011},"geometry":{"type":"Point","coordinates":[-115.105811,36.12108]}},{"type":"Feature","id":"5132dd72a288f42e67357b1d","properties":{"_id":"5132dd72a288f42e67357b1d","PROVIDER NPI":1740253715,"PROVIDER NAME":"DeBellis, Joseph","PROVIDER STATE":"Nevada","PROVIDER CITY":"Las Vegas","PROVIDER  ADDRESS":"3012 S Durango Dr, Suite 1","PROVIDER ZIP 5 CD":89117,"PROVIDER ZIP 4 CD":9186,"PROVIDER PHONE NUM":7023660640,"PROVIDER PHONE EXT":"","PROGRAM YEAR":2011},"geometry":{"type":"Point","coordinates":[-115.278882,36.13628]}},{"type":"Feature","id":"5132dd72a288f42e67357b1e","properties":{"_id":"5132dd72a288f42e67357b1e","PROVIDER NPI":1821050253,"PROVIDER NAME":"DeMar, Mark","PROVIDER STATE":"Nevada","PROVIDER CITY":"Carson City","PROVIDER  ADDRESS":"1375 Vista Ln","PROVIDER ZIP 5 CD":89703,"PROVIDER ZIP 4 CD":4646,"PROVIDER PHONE NUM":7758822067,"PROVIDER PHONE EXT":"","PROGRAM YEAR":2011},"geometry":{"type":"Point","coordinates":[-119.771819,39.172455]}},{"type":"Feature","id":"5132dd72a288f42e67357b1f","properties":{"_id":"5132dd72a288f42e67357b1f","PROVIDER NPI":1205853777,"PROVIDER NAME":"DiPalma, Joseph","PROVIDER STATE":"Nevada","PROVIDER CITY":"Las Vegas","PROVIDER  ADDRESS":"3121 S Maryland Pkwy, Ste 101","PROVIDER ZIP 5 CD":89109,"PROVIDER ZIP 4 CD":2307,"PROVIDER PHONE NUM":7023203627,"PROVIDER PHONE EXT":"","PROGRAM YEAR":2011},"geometry":{"type":"Point","coordinates":[-115.16101,36.1115]}},{"type":"Feature","id":"5132dd72a288f42e67357b20","properties":{"_id":"5132dd72a288f42e67357b20","PROVIDER NPI":1699723148,"PROVIDER NAME":"Dobbs, Ryan","PROVIDER STATE":"Nevada","PROVIDER CITY":"Reno","PROVIDER  ADDRESS":"555 N. Arlington Avenue","PROVIDER ZIP 5 CD":89503,"PROVIDER ZIP 4 CD":4724,"PROVIDER PHONE NUM":7757863040,"PROVIDER PHONE EXT":"","PROGRAM YEAR":2011},"geometry":{"type":"Point","coordinates":[-119.818783,39.531031]}},{"type":"Feature","id":"5132dd72a288f42e67357b21","properties":{"_id":"5132dd72a288f42e67357b21","PROVIDER NPI":1245343037,"PROVIDER NAME":"DOCASAR, HAYDEE","PROVIDER STATE":"Nevada","PROVIDER CITY":"Henderson","PROVIDER  ADDRESS":"2633 W Horizon Ridge Pkwy, SUITE 100","PROVIDER ZIP 5 CD":89052,"PROVIDER ZIP 4 CD":4832,"PROVIDER PHONE NUM":7024270494,"PROVIDER PHONE EXT":"","PROGRAM YEAR":2011},"geometry":{"type":"Point","coordinates":[-115.10285,36.000579]}},{"type":"Feature","id":"5132dd72a288f42e67357b22","properties":{"_id":"5132dd72a288f42e67357b22","PROVIDER NPI":1871583757,"PROVIDER NAME":"DOLEZAL, JAMES","PROVIDER STATE":"Nevada","PROVIDER CITY":"Minden","PROVIDER  ADDRESS":"1624 10th Street, SUITE 1","PROVIDER ZIP 5 CD":89423,"PROVIDER ZIP 4 CD":4477,"PROVIDER PHONE NUM":7757820700,"PROVIDER PHONE EXT":"","PROGRAM YEAR":2011},"geometry":{"type":"Point","coordinates":[-119.770295,38.955772]}},{"type":"Feature","id":"5132dd72a288f42e67357b23","properties":{"_id":"5132dd72a288f42e67357b23","PROVIDER NPI":1770540064,"PROVIDER NAME":"Drew, Joseph","PROVIDER STATE":"Nevada","PROVIDER CITY":"Reno","PROVIDER  ADDRESS":"1500 E Second St.,, Suite 300","PROVIDER ZIP 5 CD":89502,"PROVIDER ZIP 4 CD":1198,"PROVIDER PHONE NUM":7753227811,"PROVIDER PHONE EXT":"","PROGRAM YEAR":2011},"geometry":{"type":"Point","coordinates":[-119.79271,39.527387]}},{"type":"Feature","id":"5132dd72a288f42e67357b24","properties":{"_id":"5132dd72a288f42e67357b24","PROVIDER NPI":1134119712,"PROVIDER NAME":"Dua, Anit","PROVIDER STATE":"Nevada","PROVIDER CITY":"Las Vegas","PROVIDER  ADDRESS":"7010 Smoke Ranch Rd, Suite 120","PROVIDER ZIP 5 CD":89128,"PROVIDER ZIP 4 CD":3123,"PROVIDER PHONE NUM":7024777044,"PROVIDER PHONE EXT":"","PROGRAM YEAR":2011},"geometry":{"type":"Point","coordinates":[-115.251529,36.20352]}},{"type":"Feature","id":"5132dd72a288f42e67357b25","properties":{"_id":"5132dd72a288f42e67357b25","PROVIDER NPI":1487680419,"PROVIDER NAME":"Eichenlaub, Timothy","PROVIDER STATE":"Nevada","PROVIDER CITY":"Las Vegas","PROVIDER  ADDRESS":"5380 S Rainbow Blvd, Ste. 120","PROVIDER ZIP 5 CD":89118,"PROVIDER ZIP 4 CD":1877,"PROVIDER PHONE NUM":7022333444,"PROVIDER PHONE EXT":"","PROGRAM YEAR":2011},"geometry":{"type":"Point","coordinates":[-115.243339,36.043057]}},{"type":"Feature","id":"5132dd72a288f42e67357b26","properties":{"_id":"5132dd72a288f42e67357b26","PROVIDER NPI":1700883014,"PROVIDER NAME":"EZEANOLUE, DOLUE","PROVIDER STATE":"Nevada","PROVIDER CITY":"Las Vegas","PROVIDER  ADDRESS":"1701 Bearden Dr, Suite 200","PROVIDER ZIP 5 CD":89106,"PROVIDER ZIP 4 CD":4189,"PROVIDER PHONE NUM":7023109110,"PROVIDER PHONE EXT":"","PROGRAM YEAR":2011},"geometry":{"type":"Point","coordinates":[-115.165224,36.16185]}},{"type":"Feature","id":"5132dd72a288f42e67357b27","properties":{"_id":"5132dd72a288f42e67357b27","PROVIDER NPI":1720248206,"PROVIDER NAME":"Fakhouri, Ibrahim","PROVIDER STATE":"Nevada","PROVIDER CITY":"Henderson","PROVIDER  ADDRESS":"100 N Green Valley Pkwy, Suite 239","PROVIDER ZIP 5 CD":89074,"PROVIDER ZIP 4 CD":6392,"PROVIDER PHONE NUM":7029331485,"PROVIDER PHONE EXT":"","PROGRAM YEAR":2011},"geometry":{"type":"Point","coordinates":[-115.106368,36.033605]}},{"type":"Feature","id":"5132dd72a288f42e67357b28","properties":{"_id":"5132dd72a288f42e67357b28","PROVIDER NPI":1497703375,"PROVIDER NAME":"Fales, Steven","PROVIDER STATE":"Nevada","PROVIDER CITY":"Las Vegas","PROVIDER  ADDRESS":"3121 South Maryland Parkway, Suite 101","PROVIDER ZIP 5 CD":89109,"PROVIDER ZIP 4 CD":2307,"PROVIDER PHONE NUM":7023203627,"PROVIDER PHONE EXT":"","PROGRAM YEAR":2011},"geometry":{"type":"Point","coordinates":[-115.16101,36.1115]}},{"type":"Feature","id":"5132dd72a288f42e67357b29","properties":{"_id":"5132dd72a288f42e67357b29","PROVIDER NPI":1306897871,"PROVIDER NAME":"Falvo, Michael","PROVIDER STATE":"Nevada","PROVIDER CITY":"Boulder City","PROVIDER  ADDRESS":"1297 Nevada Hwy, Suite B","PROVIDER ZIP 5 CD":89005,"PROVIDER ZIP 4 CD":1853,"PROVIDER PHONE NUM":7022941230,"PROVIDER PHONE EXT":"","PROGRAM YEAR":2011},"geometry":{"type":"Point","coordinates":[-114.836841,35.96875]}},{"type":"Feature","id":"5132dd72a288f42e67357b2a","properties":{"_id":"5132dd72a288f42e67357b2a","PROVIDER NPI":1528038619,"PROVIDER NAME":"Farrow, Simon","PROVIDER STATE":"Nevada","PROVIDER CITY":"Las Vegas","PROVIDER  ADDRESS":"2911 N Tenaya Way, Ste 100","PROVIDER ZIP 5 CD":89128,"PROVIDER ZIP 4 CD":464,"PROVIDER PHONE NUM":7028183231,"PROVIDER PHONE EXT":"","PROGRAM YEAR":2011},"geometry":{"type":"Point","coordinates":[-115.250136,36.213922]}},{"type":"Feature","id":"5132dd72a288f42e67357b2b","properties":{"_id":"5132dd72a288f42e67357b2b","PROVIDER NPI":1598757536,"PROVIDER NAME":"FATHIE, AREZO","PROVIDER STATE":"Nevada","PROVIDER CITY":"Las Vegas","PROVIDER  ADDRESS":"5135 S. Durango Dr, Suite 102","PROVIDER ZIP 5 CD":89113,"PROVIDER ZIP 4 CD":"","PROVIDER PHONE NUM":7024079994,"PROVIDER PHONE EXT":"","PROGRAM YEAR":2011},"geometry":{"type":"Point","coordinates":[-115.279342,36.099549]}},{"type":"Feature","id":"5132dd72a288f42e67357b2c","properties":{"_id":"5132dd72a288f42e67357b2c","PROVIDER NPI":1346200623,"PROVIDER NAME":"Fausett, James","PROVIDER STATE":"Nevada","PROVIDER CITY":"Las Vegas","PROVIDER  ADDRESS":"3777 S. Pecos McLeod, Suite 103","PROVIDER ZIP 5 CD":89121,"PROVIDER ZIP 4 CD":4265,"PROVIDER PHONE NUM":7024342023,"PROVIDER PHONE EXT":"","PROGRAM YEAR":2011},"geometry":{"type":"Point","coordinates":[-115.109864,36.114996]}},{"type":"Feature","id":"5132dd72a288f42e67357b2d","properties":{"_id":"5132dd72a288f42e67357b2d","PROVIDER NPI":1770677676,"PROVIDER NAME":"Faylona, Maria","PROVIDER STATE":"Nevada","PROVIDER CITY":"Las Vegas","PROVIDER  ADDRESS":"4212 W Charleston Blvd","PROVIDER ZIP 5 CD":89102,"PROVIDER ZIP 4 CD":1625,"PROVIDER PHONE NUM":7023122233,"PROVIDER PHONE EXT":"","PROGRAM YEAR":2011},"geometry":{"type":"Point","coordinates":[-115.197268,36.159099]}},{"type":"Feature","id":"5132dd72a288f42e67357b2e","properties":{"_id":"5132dd72a288f42e67357b2e","PROVIDER NPI":1114013901,"PROVIDER NAME":"Fihn, Greg","PROVIDER STATE":"Nevada","PROVIDER CITY":"Las Vegas","PROVIDER  ADDRESS":"7455 W Azure Dr, Ste C-140","PROVIDER ZIP 5 CD":89130,"PROVIDER ZIP 4 CD":4430,"PROVIDER PHONE NUM":7024343446,"PROVIDER PHONE EXT":"","PROGRAM YEAR":2011},"geometry":{"type":"Point","coordinates":[-115.251569,36.273416]}},{"type":"Feature","id":"5132dd72a288f42e67357b2f","properties":{"_id":"5132dd72a288f42e67357b2f","PROVIDER NPI":1922199041,"PROVIDER NAME":"Freeman, John","PROVIDER STATE":"Nevada","PROVIDER CITY":"Reno","PROVIDER  ADDRESS":"10745 Double R Blvd","PROVIDER ZIP 5 CD":89521,"PROVIDER ZIP 4 CD":0,"PROVIDER PHONE NUM":7758238166,"PROVIDER PHONE EXT":"","PROGRAM YEAR":2011},"geometry":{"type":"Point","coordinates":[-119.759322,39.44029]}},{"type":"Feature","id":"5132dd72a288f42e67357b30","properties":{"_id":"5132dd72a288f42e67357b30","PROVIDER NPI":1922099530,"PROVIDER NAME":"Fry, Michael","PROVIDER STATE":"Nevada","PROVIDER CITY":"Carson City","PROVIDER  ADDRESS":"973 Mica Dr, Suite 201","PROVIDER ZIP 5 CD":89705,"PROVIDER ZIP 4 CD":7255,"PROVIDER PHONE NUM":7757836190,"PROVIDER PHONE EXT":7116,"PROGRAM YEAR":2011},"geometry":{"type":"Point","coordinates":[-119.773959,39.091211]}},{"type":"Feature","id":"5132dd72a288f42e67357b31","properties":{"_id":"5132dd72a288f42e67357b31","PROVIDER NPI":1255322640,"PROVIDER NAME":"Fry, Paul","PROVIDER STATE":"Nevada","PROVIDER CITY":"Gardnerville","PROVIDER  ADDRESS":"1520 Virginia Ranch Rd, Suite 101B","PROVIDER ZIP 5 CD":89410,"PROVIDER ZIP 4 CD":5731,"PROVIDER PHONE NUM":7757822442,"PROVIDER PHONE EXT":"","PROGRAM YEAR":2011},"geometry":{"type":"Point","coordinates":[-119.719758,38.919538]}},{"type":"Feature","id":"5132dd72a288f42e67357b32","properties":{"_id":"5132dd72a288f42e67357b32","PROVIDER NPI":1760474555,"PROVIDER NAME":"Galanopoulos, Christos","PROVIDER STATE":"Nevada","PROVIDER CITY":"Reno","PROVIDER  ADDRESS":"75 Pringle Way, Suite 906","PROVIDER ZIP 5 CD":89502,"PROVIDER ZIP 4 CD":1464,"PROVIDER PHONE NUM":7759826270,"PROVIDER PHONE EXT":"","PROGRAM YEAR":2011},"geometry":{"type":"Point","coordinates":[-119.796021,39.524452]}},{"type":"Feature","id":"5132dd72a288f42e67357b33","properties":{"_id":"5132dd72a288f42e67357b33","PROVIDER NPI":1770583437,"PROVIDER NAME":"Gamino, Lisa","PROVIDER STATE":"Nevada","PROVIDER CITY":"Las Vegas","PROVIDER  ADDRESS":"2950 S Maryland Pkwy","PROVIDER ZIP 5 CD":89109,"PROVIDER ZIP 4 CD":2204,"PROVIDER PHONE NUM":7027326000,"PROVIDER PHONE EXT":"","PROGRAM YEAR":2011},"geometry":{"type":"Point","coordinates":[-115.136789,36.136099]}},{"type":"Feature","id":"5132dd72a288f42e67357b34","properties":{"_id":"5132dd72a288f42e67357b34","PROVIDER NPI":1073618138,"PROVIDER NAME":"Gamnerdsiri, Suhattai","PROVIDER STATE":"Nevada","PROVIDER CITY":"Las Vegas","PROVIDER  ADDRESS":"2000 Pinto Ln Ste 200","PROVIDER ZIP 5 CD":89106,"PROVIDER ZIP 4 CD":4066,"PROVIDER PHONE NUM":7023679300,"PROVIDER PHONE EXT":"","PROGRAM YEAR":2011},"geometry":{"type":"Point","coordinates":[-115.167726,36.164332]}},{"type":"Feature","id":"5132dd72a288f42e67357b35","properties":{"_id":"5132dd72a288f42e67357b35","PROVIDER NPI":1437187861,"PROVIDER NAME":"Ganser, John","PROVIDER STATE":"Nevada","PROVIDER CITY":"Reno","PROVIDER  ADDRESS":"75 Pringle Way, Suite 1002","PROVIDER ZIP 5 CD":89502,"PROVIDER ZIP 4 CD":1464,"PROVIDER PHONE NUM":7753237500,"PROVIDER PHONE EXT":"","PROGRAM YEAR":2011},"geometry":{"type":"Point","coordinates":[-119.796021,39.524452]}},{"type":"Feature","id":"5132dd72a288f42e67357b36","properties":{"_id":"5132dd72a288f42e67357b36","PROVIDER NPI":1376502740,"PROVIDER NAME":"Gao, Hong","PROVIDER STATE":"Nevada","PROVIDER CITY":"Carson City","PROVIDER  ADDRESS":"1385 Vista Ln","PROVIDER ZIP 5 CD":89703,"PROVIDER ZIP 4 CD":4643,"PROVIDER PHONE NUM":7758844567,"PROVIDER PHONE EXT":"","PROGRAM YEAR":2011},"geometry":{"type":"Point","coordinates":[-119.771819,39.172455]}},{"type":"Feature","id":"5132dd72a288f42e67357b37","properties":{"_id":"5132dd72a288f42e67357b37","PROVIDER NPI":1841257235,"PROVIDER NAME":"Garey-Sage, Jonathan","PROVIDER STATE":"Nevada","PROVIDER CITY":"Reno","PROVIDER  ADDRESS":"1500 E Second St.,, Suite 300","PROVIDER ZIP 5 CD":89502,"PROVIDER ZIP 4 CD":1198,"PROVIDER PHONE NUM":7753227811,"PROVIDER PHONE EXT":"","PROGRAM YEAR":2011},"geometry":{"type":"Point","coordinates":[-119.79271,39.527387]}},{"type":"Feature","id":"5132dd72a288f42e67357b38","properties":{"_id":"5132dd72a288f42e67357b38","PROVIDER NPI":1356340863,"PROVIDER NAME":"Gassen, Vincent","PROVIDER STATE":"Nevada","PROVIDER CITY":"Henderson","PROVIDER  ADDRESS":"2598 Windmill Pkwy","PROVIDER ZIP 5 CD":89074,"PROVIDER ZIP 4 CD":5476,"PROVIDER PHONE NUM":7028966043,"PROVIDER PHONE EXT":"","PROGRAM YEAR":2011},"geometry":{"type":"Point","coordinates":[-115.100266,36.042389]}},{"type":"Feature","id":"5132dd72a288f42e67357b39","properties":{"_id":"5132dd72a288f42e67357b39","PROVIDER NPI":1164470902,"PROVIDER NAME":"Gastwirth, Vanessa","PROVIDER STATE":"Nevada","PROVIDER CITY":"Las Vegas","PROVIDER  ADDRESS":"3121 S Maryland Pkwy, Suite 512","PROVIDER ZIP 5 CD":89109,"PROVIDER ZIP 4 CD":2310,"PROVIDER PHONE NUM":7027967150,"PROVIDER PHONE EXT":"","PROGRAM YEAR":2011},"geometry":{"type":"Point","coordinates":[-115.16101,36.1115]}},{"type":"Feature","id":"5132dd72a288f42e67357b3a","properties":{"_id":"5132dd72a288f42e67357b3a","PROVIDER NPI":1164429858,"PROVIDER NAME":"GEORGE, CONSTANTINE","PROVIDER STATE":"Nevada","PROVIDER CITY":"Las Vegas","PROVIDER  ADDRESS":"6252 S Rainbow Blvd, Suite 110","PROVIDER ZIP 5 CD":89118,"PROVIDER ZIP 4 CD":3248,"PROVIDER PHONE NUM":7022535410,"PROVIDER PHONE EXT":"","PROGRAM YEAR":2011},"geometry":{"type":"Point","coordinates":[-115.243339,36.043057]}},{"type":"Feature","id":"5132dd72a288f42e67357b3b","properties":{"_id":"5132dd72a288f42e67357b3b","PROVIDER NPI":1396715470,"PROVIDER NAME":"Gex, Gregory","PROVIDER STATE":"Nevada","PROVIDER CITY":"Las Vegas","PROVIDER  ADDRESS":"8285 W Arby Ave Ste 380","PROVIDER ZIP 5 CD":89113,"PROVIDER ZIP 4 CD":"","PROVIDER PHONE NUM":7023661268,"PROVIDER PHONE EXT":"","PROGRAM YEAR":2011},"geometry":{"type":"Point","coordinates":[-115.274685,36.059266]}},{"type":"Feature","id":"5132dd72a288f42e67357b3c","properties":{"_id":"5132dd72a288f42e67357b3c","PROVIDER NPI":1174580443,"PROVIDER NAME":"Gholdoian, Charles","PROVIDER STATE":"Nevada","PROVIDER CITY":"Reno","PROVIDER  ADDRESS":"1500 E Second St.,, Suite 300","PROVIDER ZIP 5 CD":89502,"PROVIDER ZIP 4 CD":1198,"PROVIDER PHONE NUM":7753227811,"PROVIDER PHONE EXT":"","PROGRAM YEAR":2011},"geometry":{"type":"Point","coordinates":[-119.79271,39.527387]}},{"type":"Feature","id":"5132dd72a288f42e67357b3d","properties":{"_id":"5132dd72a288f42e67357b3d","PROVIDER NPI":1992749048,"PROVIDER NAME":"Gomez, Myron","PROVIDER STATE":"Nevada","PROVIDER CITY":"Reno","PROVIDER  ADDRESS":"75 Pringle Way, Suite 1002","PROVIDER ZIP 5 CD":89502,"PROVIDER ZIP 4 CD":1464,"PROVIDER PHONE NUM":7753237500,"PROVIDER PHONE EXT":"","PROGRAM YEAR":2011},"geometry":{"type":"Point","coordinates":[-119.796021,39.524452]}},{"type":"Feature","id":"5132dd72a288f42e67357b3e","properties":{"_id":"5132dd72a288f42e67357b3e","PROVIDER NPI":1417940032,"PROVIDER NAME":"Gondy, Anita","PROVIDER STATE":"Nevada","PROVIDER CITY":"Las Vegas","PROVIDER  ADDRESS":"7160 Smoke Ranch Rd","PROVIDER ZIP 5 CD":89128,"PROVIDER ZIP 4 CD":1117,"PROVIDER PHONE NUM":7022548900,"PROVIDER PHONE EXT":4,"PROGRAM YEAR":2011},"geometry":{"type":"Point","coordinates":[-115.253323,36.203537]}},{"type":"Feature","id":"5132dd72a288f42e67357b3f","properties":{"_id":"5132dd72a288f42e67357b3f","PROVIDER NPI":1235230723,"PROVIDER NAME":"GONG, RODNEY","PROVIDER STATE":"Nevada","PROVIDER CITY":"Las Vegas","PROVIDER  ADDRESS":"2016 Spring Rose St","PROVIDER ZIP 5 CD":89134,"PROVIDER ZIP 4 CD":6640,"PROVIDER PHONE NUM":7028384000,"PROVIDER PHONE EXT":"","PROGRAM YEAR":2011},"geometry":{"type":"Point","coordinates":[-115.30687,36.196209]}},{"type":"Feature","id":"5132dd72a288f42e67357b40","properties":{"_id":"5132dd72a288f42e67357b40","PROVIDER NPI":1356342364,"PROVIDER NAME":"GORMAN, MICHAEL","PROVIDER STATE":"Nevada","PROVIDER CITY":"Logandale","PROVIDER  ADDRESS":"1925 Whipple Ave., Suite 30","PROVIDER ZIP 5 CD":89021,"PROVIDER ZIP 4 CD":"","PROVIDER PHONE NUM":7023983621,"PROVIDER PHONE EXT":"","PROGRAM YEAR":2011},"geometry":{"type":"Point","coordinates":[-114.485336,36.608089]}},{"type":"Feature","id":"5132dd72a288f42e67357b41","properties":{"_id":"5132dd72a288f42e67357b41","PROVIDER NPI":1124050307,"PROVIDER NAME":"Grabow, Ryan","PROVIDER STATE":"Nevada","PROVIDER CITY":"Henderson","PROVIDER  ADDRESS":"2780 W Horizon Ridge Pkwy, Suite 30","PROVIDER ZIP 5 CD":89052,"PROVIDER ZIP 4 CD":3995,"PROVIDER PHONE NUM":7024339533,"PROVIDER PHONE EXT":505,"PROGRAM YEAR":2011},"geometry":{"type":"Point","coordinates":[-115.104718,35.999187]}},{"type":"Feature","id":"5132dd72a288f42e67357b42","properties":{"_id":"5132dd72a288f42e67357b42","PROVIDER NPI":1982680765,"PROVIDER NAME":"Gray, John","PROVIDER STATE":"Nevada","PROVIDER CITY":"Reno","PROVIDER  ADDRESS":"10619 Professional Cir","PROVIDER ZIP 5 CD":89521,"PROVIDER ZIP 4 CD":5831,"PROVIDER PHONE NUM":7758524848,"PROVIDER PHONE EXT":"","PROGRAM YEAR":2011},"geometry":{"type":"Point","coordinates":[-119.682355,39.384899]}},{"type":"Feature","id":"5132dd72a288f42e67357b43","properties":{"_id":"5132dd72a288f42e67357b43","PROVIDER NPI":1962458844,"PROVIDER NAME":"Gray, William","PROVIDER STATE":"Nevada","PROVIDER CITY":"Reno","PROVIDER  ADDRESS":"689 Sierra Rose Dr, Suite B","PROVIDER ZIP 5 CD":89511,"PROVIDER ZIP 4 CD":2060,"PROVIDER PHONE NUM":7757862100,"PROVIDER PHONE EXT":"","PROGRAM YEAR":2011},"geometry":{"type":"Point","coordinates":[-119.770267,39.350634]}},{"type":"Feature","id":"5132dd72a288f42e67357b44","properties":{"_id":"5132dd72a288f42e67357b44","PROVIDER NPI":1821091992,"PROVIDER NAME":"Green, Samuel","PROVIDER STATE":"Nevada","PROVIDER CITY":"Las Vegas","PROVIDER  ADDRESS":"3121 S Maryland Pkwy, Ste 512","PROVIDER ZIP 5 CD":89109,"PROVIDER ZIP 4 CD":2310,"PROVIDER PHONE NUM":7027967150,"PROVIDER PHONE EXT":"","PROGRAM YEAR":2011},"geometry":{"type":"Point","coordinates":[-115.16101,36.1115]}},{"type":"Feature","id":"5132dd72a288f42e67357b45","properties":{"_id":"5132dd72a288f42e67357b45","PROVIDER NPI":1891779302,"PROVIDER NAME":"Greenawalt, Ronald","PROVIDER STATE":"Nevada","PROVIDER CITY":"Las Vegas","PROVIDER  ADDRESS":"7500 W Sahara Ave","PROVIDER ZIP 5 CD":89117,"PROVIDER ZIP 4 CD":2742,"PROVIDER PHONE NUM":7023638989,"PROVIDER PHONE EXT":"","PROGRAM YEAR":2011},"geometry":{"type":"Point","coordinates":[-115.255575,36.14388]}},{"type":"Feature","id":"5132dd72a288f42e67357b46","properties":{"_id":"5132dd72a288f42e67357b46","PROVIDER NPI":1447276175,"PROVIDER NAME":"Greenberg, Harry","PROVIDER STATE":"Nevada","PROVIDER CITY":"Las Vegas","PROVIDER  ADDRESS":"653 N Town Center Dr Ste 410","PROVIDER ZIP 5 CD":89144,"PROVIDER ZIP 4 CD":518,"PROVIDER PHONE NUM":7024563120,"PROVIDER PHONE EXT":"","PROGRAM YEAR":2011},"geometry":{"type":"Point","coordinates":[-115.317058,36.178967]}},{"type":"Feature","id":"5132dd72a288f42e67357b47","properties":{"_id":"5132dd72a288f42e67357b47","PROVIDER NPI":1063482552,"PROVIDER NAME":"GUO, LI","PROVIDER STATE":"Nevada","PROVIDER CITY":"Las Vegas","PROVIDER  ADDRESS":"7918 W Sahara Ave","PROVIDER ZIP 5 CD":89117,"PROVIDER ZIP 4 CD":1990,"PROVIDER PHONE NUM":7023606148,"PROVIDER PHONE EXT":"","PROGRAM YEAR":2011},"geometry":{"type":"Point","coordinates":[-115.263592,36.143818]}},{"type":"Feature","id":"5132dd72a288f42e67357b48","properties":{"_id":"5132dd72a288f42e67357b48","PROVIDER NPI":1891795274,"PROVIDER NAME":"Haas, David","PROVIDER STATE":"Nevada","PROVIDER CITY":"Las Vegas","PROVIDER  ADDRESS":"2950 S Maryland Pkwy","PROVIDER ZIP 5 CD":89109,"PROVIDER ZIP 4 CD":2204,"PROVIDER PHONE NUM":7027326000,"PROVIDER PHONE EXT":"","PROGRAM YEAR":2011},"geometry":{"type":"Point","coordinates":[-115.136789,36.136099]}},{"type":"Feature","id":"5132dd72a288f42e67357b49","properties":{"_id":"5132dd72a288f42e67357b49","PROVIDER NPI":1619012192,"PROVIDER NAME":"HAJIZADEH-BASHY, MAJID","PROVIDER STATE":"Nevada","PROVIDER CITY":"Las Vegas","PROVIDER  ADDRESS":"3309 W. Charleston Blvd.","PROVIDER ZIP 5 CD":89102,"PROVIDER ZIP 4 CD":"","PROVIDER PHONE NUM":7028380444,"PROVIDER PHONE EXT":"","PROGRAM YEAR":2011},"geometry":{"type":"Point","coordinates":[-115.186275,36.158892]}},{"type":"Feature","id":"5132dd72a288f42e67357b4a","properties":{"_id":"5132dd72a288f42e67357b4a","PROVIDER NPI":1588621056,"PROVIDER NAME":"Hald, David","PROVIDER STATE":"Nevada","PROVIDER CITY":"Reno","PROVIDER  ADDRESS":"1500 E Second St.,, Suite 300","PROVIDER ZIP 5 CD":89502,"PROVIDER ZIP 4 CD":1198,"PROVIDER PHONE NUM":7753227811,"PROVIDER PHONE EXT":"","PROGRAM YEAR":2011},"geometry":{"type":"Point","coordinates":[-119.79271,39.527387]}},{"type":"Feature","id":"5132dd72a288f42e67357b4b","properties":{"_id":"5132dd72a288f42e67357b4b","PROVIDER NPI":1750362323,"PROVIDER NAME":"Halki, John","PROVIDER STATE":"Nevada","PROVIDER CITY":"Reno","PROVIDER  ADDRESS":"555 N Arlington Ave","PROVIDER ZIP 5 CD":89503,"PROVIDER ZIP 4 CD":4724,"PROVIDER PHONE NUM":7757863040,"PROVIDER PHONE EXT":"","PROGRAM YEAR":2011},"geometry":{"type":"Point","coordinates":[-119.818783,39.531031]}},{"type":"Feature","id":"5132dd72a288f42e67357b4c","properties":{"_id":"5132dd72a288f42e67357b4c","PROVIDER NPI":1487617189,"PROVIDER NAME":"HALOW, KEVIN","PROVIDER STATE":"Nevada","PROVIDER CITY":"Carson City","PROVIDER  ADDRESS":"1375 Vista Lane","PROVIDER ZIP 5 CD":89703,"PROVIDER ZIP 4 CD":4646,"PROVIDER PHONE NUM":7758822067,"PROVIDER PHONE EXT":"","PROGRAM YEAR":2011},"geometry":{"type":"Point","coordinates":[-119.771819,39.172455]}},{"type":"Feature","id":"5132dd72a288f42e67357b4d","properties":{"_id":"5132dd72a288f42e67357b4d","PROVIDER NPI":1194798132,"PROVIDER NAME":"Handelman, Mark","PROVIDER STATE":"Nevada","PROVIDER CITY":"Las Vegas","PROVIDER  ADDRESS":"3150 N Tenaya Way, Suite 565","PROVIDER ZIP 5 CD":89128,"PROVIDER ZIP 4 CD":490,"PROVIDER PHONE NUM":7027963847,"PROVIDER PHONE EXT":"","PROGRAM YEAR":2011},"geometry":{"type":"Point","coordinates":[-115.251268,36.217133]}},{"type":"Feature","id":"5132dd72a288f42e67357b4e","properties":{"_id":"5132dd72a288f42e67357b4e","PROVIDER NPI":1962446179,"PROVIDER NAME":"Hansen, John","PROVIDER STATE":"Nevada","PROVIDER CITY":"Reno","PROVIDER  ADDRESS":"75 Pringle Way, Suite 1002","PROVIDER ZIP 5 CD":89502,"PROVIDER ZIP 4 CD":1464,"PROVIDER PHONE NUM":7753237500,"PROVIDER PHONE EXT":"","PROGRAM YEAR":2011},"geometry":{"type":"Point","coordinates":[-119.796021,39.524452]}},{"type":"Feature","id":"5132dd72a288f42e67357b4f","properties":{"_id":"5132dd72a288f42e67357b4f","PROVIDER NPI":1316923139,"PROVIDER NAME":"Harper, Phillip","PROVIDER STATE":"Nevada","PROVIDER CITY":"Carson City","PROVIDER  ADDRESS":"1385 Vista Ln","PROVIDER ZIP 5 CD":89703,"PROVIDER ZIP 4 CD":4643,"PROVIDER PHONE NUM":7758844567,"PROVIDER PHONE EXT":"","PROGRAM YEAR":2011},"geometry":{"type":"Point","coordinates":[-119.771819,39.172455]}},{"type":"Feature","id":"5132dd72a288f42e67357b50","properties":{"_id":"5132dd72a288f42e67357b50","PROVIDER NPI":1104862366,"PROVIDER NAME":"Harris, James","PROVIDER STATE":"Nevada","PROVIDER CITY":"Reno","PROVIDER  ADDRESS":"75 Pringle Way, Suite 1002","PROVIDER ZIP 5 CD":89502,"PROVIDER ZIP 4 CD":1464,"PROVIDER PHONE NUM":7753237500,"PROVIDER PHONE EXT":"","PROGRAM YEAR":2011},"geometry":{"type":"Point","coordinates":[-119.796021,39.524452]}},{"type":"Feature","id":"5132dd72a288f42e67357b51","properties":{"_id":"5132dd72a288f42e67357b51","PROVIDER NPI":1679559496,"PROVIDER NAME":"Harrison, Clark","PROVIDER STATE":"Nevada","PROVIDER CITY":"Reno","PROVIDER  ADDRESS":"880 Ryland St","PROVIDER ZIP 5 CD":89502,"PROVIDER ZIP 4 CD":1603,"PROVIDER PHONE NUM":7753294600,"PROVIDER PHONE EXT":4547,"PROGRAM YEAR":2011},"geometry":{"type":"Point","coordinates":[-119.800973,39.523746]}},{"type":"Feature","id":"5132dd72a288f42e67357b52","properties":{"_id":"5132dd72a288f42e67357b52","PROVIDER NPI":1982605093,"PROVIDER NAME":"Hastings, Dulynn","PROVIDER STATE":"Nevada","PROVIDER CITY":"Reno","PROVIDER  ADDRESS":"900 Ryland St","PROVIDER ZIP 5 CD":89502,"PROVIDER ZIP 4 CD":1605,"PROVIDER PHONE NUM":7757863555,"PROVIDER PHONE EXT":"","PROGRAM YEAR":2011},"geometry":{"type":"Point","coordinates":[-119.800568,39.523821]}},{"type":"Feature","id":"5132dd72a288f42e67357b53","properties":{"_id":"5132dd72a288f42e67357b53","PROVIDER NPI":1396744983,"PROVIDER NAME":"Hatcher, Glen","PROVIDER STATE":"Nevada","PROVIDER CITY":"Las Vegas","PROVIDER  ADDRESS":"9100 W Post Rd","PROVIDER ZIP 5 CD":89148,"PROVIDER ZIP 4 CD":2418,"PROVIDER PHONE NUM":7022556665,"PROVIDER PHONE EXT":"","PROGRAM YEAR":2011},"geometry":{"type":"Point","coordinates":[-115.301594,36.073892]}},{"type":"Feature","id":"5132dd72a288f42e67357b54","properties":{"_id":"5132dd72a288f42e67357b54","PROVIDER NPI":1588653364,"PROVIDER NAME":"Havins, Weldon","PROVIDER STATE":"Nevada","PROVIDER CITY":"Las Vegas","PROVIDER  ADDRESS":"2575 Lindell Rd","PROVIDER ZIP 5 CD":89146,"PROVIDER ZIP 4 CD":5409,"PROVIDER PHONE NUM":7023623937,"PROVIDER PHONE EXT":"","PROGRAM YEAR":2011},"geometry":{"type":"Point","coordinates":[-115.216765,36.143002]}},{"type":"Feature","id":"5132dd72a288f42e67357b55","properties":{"_id":"5132dd72a288f42e67357b55","PROVIDER NPI":1366408452,"PROVIDER NAME":"Hayes, Amy","PROVIDER STATE":"Nevada","PROVIDER CITY":"CARSON CITY","PROVIDER  ADDRESS":"1200 MOUNTAIN ST","PROVIDER ZIP 5 CD":89703,"PROVIDER ZIP 4 CD":3821,"PROVIDER PHONE NUM":7758833636,"PROVIDER PHONE EXT":"","PROGRAM YEAR":2011},"geometry":{"type":"Point","coordinates":[-119.77295,39.171461]}},{"type":"Feature","id":"5132dd72a288f42e67357b56","properties":{"_id":"5132dd72a288f42e67357b56","PROVIDER NPI":1235191693,"PROVIDER NAME":"Highley, Christopher","PROVIDER STATE":"Nevada","PROVIDER CITY":"CARSON CITY","PROVIDER  ADDRESS":"1200 MOUNTAIN ST","PROVIDER ZIP 5 CD":89703,"PROVIDER ZIP 4 CD":3821,"PROVIDER PHONE NUM":7758821324,"PROVIDER PHONE EXT":"","PROGRAM YEAR":2011},"geometry":{"type":"Point","coordinates":[-119.77295,39.171461]}},{"type":"Feature","id":"5132dd72a288f42e67357b57","properties":{"_id":"5132dd72a288f42e67357b57","PROVIDER NPI":1497719405,"PROVIDER NAME":"Hinojosa, Tomas","PROVIDER STATE":"Nevada","PROVIDER CITY":"Reno","PROVIDER  ADDRESS":"655 Sierra Rose Dr","PROVIDER ZIP 5 CD":89511,"PROVIDER ZIP 4 CD":2060,"PROVIDER PHONE NUM":7758297600,"PROVIDER PHONE EXT":"","PROGRAM YEAR":2011},"geometry":{"type":"Point","coordinates":[-119.796861,39.473464]}},{"type":"Feature","id":"5132dd72a288f42e67357b58","properties":{"_id":"5132dd72a288f42e67357b58","PROVIDER NPI":1043241961,"PROVIDER NAME":"Hoskins, David","PROVIDER STATE":"Nevada","PROVIDER CITY":"Minden","PROVIDER  ADDRESS":"1664 US Highway 395 N, Suite 201, P.O. Box 2200","PROVIDER ZIP 5 CD":89423,"PROVIDER ZIP 4 CD":"","PROVIDER PHONE NUM":7757824800,"PROVIDER PHONE EXT":"","PROGRAM YEAR":2011},"geometry":{"type":"Point","coordinates":[-119.729731,39.008718]}},{"type":"Feature","id":"5132dd72a288f42e67357b59","properties":{"_id":"5132dd72a288f42e67357b59","PROVIDER NPI":1700924297,"PROVIDER NAME":"Hou, John","PROVIDER STATE":"Nevada","PROVIDER CITY":"Las Vegas","PROVIDER  ADDRESS":"3530 E Flamingo Rd, Suite 100","PROVIDER ZIP 5 CD":89121,"PROVIDER ZIP 4 CD":5069,"PROVIDER PHONE NUM":7027378657,"PROVIDER PHONE EXT":"","PROGRAM YEAR":2011},"geometry":{"type":"Point","coordinates":[-115.115356,36.112656]}},{"type":"Feature","id":"5132dd72a288f42e67357b5a","properties":{"_id":"5132dd72a288f42e67357b5a","PROVIDER NPI":1497807622,"PROVIDER NAME":"HSIAO, NANCY","PROVIDER STATE":"Nevada","PROVIDER CITY":"Las Vegas","PROVIDER  ADDRESS":"7918 W Sahara Ave","PROVIDER ZIP 5 CD":89117,"PROVIDER ZIP 4 CD":1990,"PROVIDER PHONE NUM":7023606148,"PROVIDER PHONE EXT":"","PROGRAM YEAR":2011},"geometry":{"type":"Point","coordinates":[-115.263592,36.143818]}},{"type":"Feature","id":"5132dd72a288f42e67357b5b","properties":{"_id":"5132dd72a288f42e67357b5b","PROVIDER NPI":1962405027,"PROVIDER NAME":"Hsu, Patrick","PROVIDER STATE":"Nevada","PROVIDER CITY":"Las Vegas","PROVIDER  ADDRESS":"3121 S Maryland Pkwy, Ste 512","PROVIDER ZIP 5 CD":89109,"PROVIDER ZIP 4 CD":2310,"PROVIDER PHONE NUM":7027967150,"PROVIDER PHONE EXT":"","PROGRAM YEAR":2011},"geometry":{"type":"Point","coordinates":[-115.16101,36.1115]}},{"type":"Feature","id":"5132dd72a288f42e67357b5c","properties":{"_id":"5132dd72a288f42e67357b5c","PROVIDER NPI":1366485542,"PROVIDER NAME":"Hulka, Frieda","PROVIDER STATE":"Nevada","PROVIDER CITY":"Reno","PROVIDER  ADDRESS":"75 Pringle Way, Suite 1002","PROVIDER ZIP 5 CD":89502,"PROVIDER ZIP 4 CD":1464,"PROVIDER PHONE NUM":7753237500,"PROVIDER PHONE EXT":"","PROGRAM YEAR":2011},"geometry":{"type":"Point","coordinates":[-119.796021,39.524452]}},{"type":"Feature","id":"5132dd72a288f42e67357b5d","properties":{"_id":"5132dd72a288f42e67357b5d","PROVIDER NPI":1629085824,"PROVIDER NAME":"Humphreys, Becky","PROVIDER STATE":"Nevada","PROVIDER CITY":"Sparks","PROVIDER  ADDRESS":"1965 Baring Blvd","PROVIDER ZIP 5 CD":89434,"PROVIDER ZIP 4 CD":6734,"PROVIDER PHONE NUM":7753581020,"PROVIDER PHONE EXT":"","PROGRAM YEAR":2011},"geometry":{"type":"Point","coordinates":[-119.708936,39.558281]}},{"type":"Feature","id":"5132dd72a288f42e67357b5e","properties":{"_id":"5132dd72a288f42e67357b5e","PROVIDER NPI":1659386225,"PROVIDER NAME":"Humphreys, Denis","PROVIDER STATE":"Nevada","PROVIDER CITY":"Sparks","PROVIDER  ADDRESS":"1965 Baring Blvd","PROVIDER ZIP 5 CD":89434,"PROVIDER ZIP 4 CD":6734,"PROVIDER PHONE NUM":7753581020,"PROVIDER PHONE EXT":"","PROGRAM YEAR":2011},"geometry":{"type":"Point","coordinates":[-119.708936,39.558281]}},{"type":"Feature","id":"5132dd72a288f42e67357b5f","properties":{"_id":"5132dd72a288f42e67357b5f","PROVIDER NPI":1992712194,"PROVIDER NAME":"Humphreys, Troy","PROVIDER STATE":"Nevada","PROVIDER CITY":"Sparks","PROVIDER  ADDRESS":"1965 Baring Blvd","PROVIDER ZIP 5 CD":89434,"PROVIDER ZIP 4 CD":6734,"PROVIDER PHONE NUM":7753581020,"PROVIDER PHONE EXT":"","PROGRAM YEAR":2011},"geometry":{"type":"Point","coordinates":[-119.708936,39.558281]}},{"type":"Feature","id":"5132dd72a288f42e67357b60","properties":{"_id":"5132dd72a288f42e67357b60","PROVIDER NPI":1083604102,"PROVIDER NAME":"Illindala, Hima","PROVIDER STATE":"Nevada","PROVIDER CITY":"Las Vegas","PROVIDER  ADDRESS":"3012 S Durango Dr, Suite 1","PROVIDER ZIP 5 CD":89117,"PROVIDER ZIP 4 CD":9186,"PROVIDER PHONE NUM":7023660640,"PROVIDER PHONE EXT":"","PROGRAM YEAR":2011},"geometry":{"type":"Point","coordinates":[-115.278882,36.13628]}},{"type":"Feature","id":"5132dd72a288f42e67357b61","properties":{"_id":"5132dd72a288f42e67357b61","PROVIDER NPI":1114901444,"PROVIDER NAME":"IMAS, ALEXANDER","PROVIDER STATE":"Nevada","PROVIDER CITY":"Henderson","PROVIDER  ADDRESS":"11201 S Eastern Ave, SUITE 110","PROVIDER ZIP 5 CD":89052,"PROVIDER ZIP 4 CD":6201,"PROVIDER PHONE NUM":7029827100,"PROVIDER PHONE EXT":"","PROGRAM YEAR":2011},"geometry":{"type":"Point","coordinates":[-115.100992,35.991107]}},{"type":"Feature","id":"5132dd72a288f42e67357b62","properties":{"_id":"5132dd72a288f42e67357b62","PROVIDER NPI":1053300913,"PROVIDER NAME":"Jacobs, Michael","PROVIDER STATE":"Nevada","PROVIDER CITY":"Las Vegas","PROVIDER  ADDRESS":"3017 W Charleston Blvd, Suite 60","PROVIDER ZIP 5 CD":89102,"PROVIDER ZIP 4 CD":1927,"PROVIDER PHONE NUM":7027785100,"PROVIDER PHONE EXT":"","PROGRAM YEAR":2011},"geometry":{"type":"Point","coordinates":[-115.202118,36.129027]}},{"type":"Feature","id":"5132dd72a288f42e67357b63","properties":{"_id":"5132dd72a288f42e67357b63","PROVIDER NPI":1366658965,"PROVIDER NAME":"Jacobson, Scott","PROVIDER STATE":"Nevada","PROVIDER CITY":"Las Vegas","PROVIDER  ADDRESS":"3012 S. Durango Dr., #1","PROVIDER ZIP 5 CD":89117,"PROVIDER ZIP 4 CD":"","PROVIDER PHONE NUM":7023660640,"PROVIDER PHONE EXT":"","PROGRAM YEAR":2011},"geometry":{"type":"Point","coordinates":[-115.278882,36.13628]}},{"type":"Feature","id":"5132dd72a288f42e67357b64","properties":{"_id":"5132dd72a288f42e67357b64","PROVIDER NPI":1053374744,"PROVIDER NAME":"JAIN, RANJIT","PROVIDER STATE":"Nevada","PROVIDER CITY":"Las Vegas","PROVIDER  ADDRESS":"700 Shadow Ln, 430","PROVIDER ZIP 5 CD":89106,"PROVIDER ZIP 4 CD":4126,"PROVIDER PHONE NUM":7023840500,"PROVIDER PHONE EXT":"","PROGRAM YEAR":2011},"geometry":{"type":"Point","coordinates":[-115.165523,36.162154]}},{"type":"Feature","id":"5132dd72a288f42e67357b65","properties":{"_id":"5132dd72a288f42e67357b65","PROVIDER NPI":1114990538,"PROVIDER NAME":"Jamborcic, Petar","PROVIDER STATE":"Nevada","PROVIDER CITY":"Las Vegas","PROVIDER  ADDRESS":"8285 W Arby Ave, Suite 390","PROVIDER ZIP 5 CD":89113,"PROVIDER ZIP 4 CD":2228,"PROVIDER PHONE NUM":7026141250,"PROVIDER PHONE EXT":"","PROGRAM YEAR":2011},"geometry":{"type":"Point","coordinates":[-115.274685,36.059266]}},{"type":"Feature","id":"5132dd72a288f42e67357b66","properties":{"_id":"5132dd72a288f42e67357b66","PROVIDER NPI":1407827850,"PROVIDER NAME":"Jamborcic, Vesna","PROVIDER STATE":"Nevada","PROVIDER CITY":"Las Vegas","PROVIDER  ADDRESS":"8285 W Arby Ave, Suite 390","PROVIDER ZIP 5 CD":89113,"PROVIDER ZIP 4 CD":2228,"PROVIDER PHONE NUM":7026141250,"PROVIDER PHONE EXT":"","PROGRAM YEAR":2011},"geometry":{"type":"Point","coordinates":[-115.274685,36.059266]}},{"type":"Feature","id":"5132dd72a288f42e67357b67","properties":{"_id":"5132dd72a288f42e67357b67","PROVIDER NPI":1396944773,"PROVIDER NAME":"Jensen, Brian","PROVIDER STATE":"Nevada","PROVIDER CITY":"Fallon","PROVIDER  ADDRESS":"65 N Taylor St","PROVIDER ZIP 5 CD":89406,"PROVIDER ZIP 4 CD":2750,"PROVIDER PHONE NUM":7754238024,"PROVIDER PHONE EXT":"","PROGRAM YEAR":2011},"geometry":{"type":"Point","coordinates":[-118.781601,39.475701]}},{"type":"Feature","id":"5132dd72a288f42e67357b68","properties":{"_id":"5132dd72a288f42e67357b68","PROVIDER NPI":1346329851,"PROVIDER NAME":"JIMENEZ, FRANCIS","PROVIDER STATE":"Nevada","PROVIDER CITY":"Las Vegas","PROVIDER  ADDRESS":"3100 W Charleston Blvd, Suite 205","PROVIDER ZIP 5 CD":89102,"PROVIDER ZIP 4 CD":1900,"PROVIDER PHONE NUM":7022584469,"PROVIDER PHONE EXT":"","PROGRAM YEAR":2011},"geometry":{"type":"Point","coordinates":[-115.183395,36.158954]}},{"type":"Feature","id":"5132dd72a288f42e67357b69","properties":{"_id":"5132dd72a288f42e67357b69","PROVIDER NPI":1801905526,"PROVIDER NAME":"Johnson, Albert","PROVIDER STATE":"Nevada","PROVIDER CITY":"Reno","PROVIDER  ADDRESS":"4600 Kietzke Ln, Suite N258","PROVIDER ZIP 5 CD":89502,"PROVIDER ZIP 4 CD":5033,"PROVIDER PHONE NUM":7758262200,"PROVIDER PHONE EXT":"","PROGRAM YEAR":2011},"geometry":{"type":"Point","coordinates":[-119.789547,39.484595]}},{"type":"Feature","id":"5132dd72a288f42e67357b6a","properties":{"_id":"5132dd72a288f42e67357b6a","PROVIDER NPI":1790764488,"PROVIDER NAME":"Johnson, Joseph","PROVIDER STATE":"Nevada","PROVIDER CITY":"Sparks","PROVIDER  ADDRESS":"3160 Vista Blvd","PROVIDER ZIP 5 CD":89436,"PROVIDER ZIP 4 CD":6703,"PROVIDER PHONE NUM":7753527200,"PROVIDER PHONE EXT":100,"PROGRAM YEAR":2011},"geometry":{"type":"Point","coordinates":[-119.705438,39.560982]}},{"type":"Feature","id":"5132dd72a288f42e67357b6b","properties":{"_id":"5132dd72a288f42e67357b6b","PROVIDER NPI":1821089137,"PROVIDER NAME":"Jones, David","PROVIDER STATE":"Nevada","PROVIDER CITY":"Carson City","PROVIDER  ADDRESS":"973 Mica Dr, Suite 201","PROVIDER ZIP 5 CD":89705,"PROVIDER ZIP 4 CD":7255,"PROVIDER PHONE NUM":7757836190,"PROVIDER PHONE EXT":7116,"PROGRAM YEAR":2011},"geometry":{"type":"Point","coordinates":[-119.773959,39.091211]}},{"type":"Feature","id":"5132dd72a288f42e67357b6c","properties":{"_id":"5132dd72a288f42e67357b6c","PROVIDER NPI":1508969007,"PROVIDER NAME":"Joya, Pablo","PROVIDER STATE":"Nevada","PROVIDER CITY":"Las Vegas","PROVIDER  ADDRESS":"341 N Buffalo Dr, C","PROVIDER ZIP 5 CD":89145,"PROVIDER ZIP 4 CD":"","PROVIDER PHONE NUM":7023866167,"PROVIDER PHONE EXT":"","PROGRAM YEAR":2011},"geometry":{"type":"Point","coordinates":[-115.259921,36.176217]}},{"type":"Feature","id":"5132dd72a288f42e67357b6d","properties":{"_id":"5132dd72a288f42e67357b6d","PROVIDER NPI":1639258833,"PROVIDER NAME":"JURANI, PATERNO","PROVIDER STATE":"Nevada","PROVIDER CITY":"Las Vegas","PROVIDER  ADDRESS":"633 N Decatur Blvd, SUIETE A","PROVIDER ZIP 5 CD":89107,"PROVIDER ZIP 4 CD":1943,"PROVIDER PHONE NUM":7022584900,"PROVIDER PHONE EXT":"","PROGRAM YEAR":2011},"geometry":{"type":"Point","coordinates":[-115.205886,36.163926]}},{"type":"Feature","id":"5132dd72a288f42e67357b6e","properties":{"_id":"5132dd72a288f42e67357b6e","PROVIDER NPI":1386625952,"PROVIDER NAME":"Kaiser, Kirk","PROVIDER STATE":"Nevada","PROVIDER CITY":"Reno","PROVIDER  ADDRESS":"555 N. Arlington Avenue","PROVIDER ZIP 5 CD":89503,"PROVIDER ZIP 4 CD":4724,"PROVIDER PHONE NUM":7757863040,"PROVIDER PHONE EXT":"","PROGRAM YEAR":2011},"geometry":{"type":"Point","coordinates":[-119.818783,39.531031]}},{"type":"Feature","id":"5132dd72a288f42e67357b6f","properties":{"_id":"5132dd72a288f42e67357b6f","PROVIDER NPI":1699726240,"PROVIDER NAME":"Kalla, Sunil","PROVIDER STATE":"Nevada","PROVIDER CITY":"HENDERSON","PROVIDER  ADDRESS":"3031 W HORIZON RIDGE PKWY, SUITE 120","PROVIDER ZIP 5 CD":89052,"PROVIDER ZIP 4 CD":3808,"PROVIDER PHONE NUM":7024332777,"PROVIDER PHONE EXT":"","PROGRAM YEAR":2011},"geometry":{"type":"Point","coordinates":[-115.104718,35.999187]}},{"type":"Feature","id":"5132dd72a288f42e67357b70","properties":{"_id":"5132dd72a288f42e67357b70","PROVIDER NPI":1700823515,"PROVIDER NAME":"Kaminsky, Kristi","PROVIDER STATE":"Nevada","PROVIDER CITY":"Las Vegas","PROVIDER  ADDRESS":"8530 W Sunset Rd, STE 300","PROVIDER ZIP 5 CD":89113,"PROVIDER ZIP 4 CD":2215,"PROVIDER PHONE NUM":7025867469,"PROVIDER PHONE EXT":"","PROGRAM YEAR":2011},"geometry":{"type":"Point","coordinates":[-115.245645,36.04305]}},{"type":"Feature","id":"5132dd72a288f42e67357b71","properties":{"_id":"5132dd72a288f42e67357b71","PROVIDER NPI":1093791824,"PROVIDER NAME":"Kamler, Jan","PROVIDER STATE":"Nevada","PROVIDER CITY":"Reno","PROVIDER  ADDRESS":"880 Ryland St","PROVIDER ZIP 5 CD":89502,"PROVIDER ZIP 4 CD":1603,"PROVIDER PHONE NUM":7753294600,"PROVIDER PHONE EXT":4526,"PROGRAM YEAR":2011},"geometry":{"type":"Point","coordinates":[-119.800973,39.523746]}},{"type":"Feature","id":"5132dd72a288f42e67357b72","properties":{"_id":"5132dd72a288f42e67357b72","PROVIDER NPI":1013008135,"PROVIDER NAME":"Kanellos, Angelo","PROVIDER STATE":"Nevada","PROVIDER CITY":"Reno","PROVIDER  ADDRESS":"10745 Double R Blvd","PROVIDER ZIP 5 CD":89521,"PROVIDER ZIP 4 CD":0,"PROVIDER PHONE NUM":7758238166,"PROVIDER PHONE EXT":"","PROGRAM YEAR":2011},"geometry":{"type":"Point","coordinates":[-119.759322,39.44029]}},{"type":"Feature","id":"5132dd72a288f42e67357b73","properties":{"_id":"5132dd72a288f42e67357b73","PROVIDER NPI":1073595435,"PROVIDER NAME":"Karl, Robert","PROVIDER STATE":"Nevada","PROVIDER CITY":"Henderson","PROVIDER  ADDRESS":"100 N Green Valley Pkwy, Suite 239","PROVIDER ZIP 5 CD":89074,"PROVIDER ZIP 4 CD":6391,"PROVIDER PHONE NUM":7029331485,"PROVIDER PHONE EXT":"","PROGRAM YEAR":2011},"geometry":{"type":"Point","coordinates":[-115.106368,36.033605]}},{"type":"Feature","id":"5132dd72a288f42e67357b74","properties":{"_id":"5132dd72a288f42e67357b74","PROVIDER NPI":1497726368,"PROVIDER NAME":"Kaufman, Joseph","PROVIDER STATE":"Nevada","PROVIDER CITY":"Las Vegas","PROVIDER  ADDRESS":"3121 South Maryland Parkway, Suite 101","PROVIDER ZIP 5 CD":89109,"PROVIDER ZIP 4 CD":2307,"PROVIDER PHONE NUM":7023203627,"PROVIDER PHONE EXT":"","PROGRAM YEAR":2011},"geometry":{"type":"Point","coordinates":[-115.16101,36.1115]}},{"type":"Feature","id":"5132dd72a288f42e67357b75","properties":{"_id":"5132dd72a288f42e67357b75","PROVIDER NPI":1851385447,"PROVIDER NAME":"Kaveh, Sassan","PROVIDER STATE":"Nevada","PROVIDER CITY":"Las Vegas","PROVIDER  ADDRESS":"3150 N Tenaya Way, Suite #690","PROVIDER ZIP 5 CD":89128,"PROVIDER ZIP 4 CD":443,"PROVIDER PHONE NUM":7022336661,"PROVIDER PHONE EXT":"","PROGRAM YEAR":2011},"geometry":{"type":"Point","coordinates":[-115.251268,36.217133]}},{"type":"Feature","id":"5132dd72a288f42e67357b76","properties":{"_id":"5132dd72a288f42e67357b76","PROVIDER NPI":1952301616,"PROVIDER NAME":"Kawaguchi, Michael","PROVIDER STATE":"Nevada","PROVIDER CITY":"Las Vegas","PROVIDER  ADDRESS":"2950 S Maryland Pkwy","PROVIDER ZIP 5 CD":89109,"PROVIDER ZIP 4 CD":2204,"PROVIDER PHONE NUM":7027326000,"PROVIDER PHONE EXT":"","PROGRAM YEAR":2011},"geometry":{"type":"Point","coordinates":[-115.136789,36.136099]}},{"type":"Feature","id":"5132dd72a288f42e67357b77","properties":{"_id":"5132dd72a288f42e67357b77","PROVIDER NPI":1346243367,"PROVIDER NAME":"Kazemi, Navid","PROVIDER STATE":"Nevada","PROVIDER CITY":"Las Vegas","PROVIDER  ADDRESS":"3121 S Maryland Pkwy, Ste 512","PROVIDER ZIP 5 CD":89109,"PROVIDER ZIP 4 CD":2310,"PROVIDER PHONE NUM":7027967150,"PROVIDER PHONE EXT":"","PROGRAM YEAR":2011},"geometry":{"type":"Point","coordinates":[-115.16101,36.1115]}},{"type":"Feature","id":"5132dd72a288f42e67357b78","properties":{"_id":"5132dd72a288f42e67357b78","PROVIDER NPI":1205929320,"PROVIDER NAME":"KELLEY, ASHLEY","PROVIDER STATE":"Nevada","PROVIDER CITY":"Las Vegas","PROVIDER  ADDRESS":"2881 Business Park Ct, suite 224","PROVIDER ZIP 5 CD":89128,"PROVIDER ZIP 4 CD":9018,"PROVIDER PHONE NUM":7029673510,"PROVIDER PHONE EXT":"","PROGRAM YEAR":2011},"geometry":{"type":"Point","coordinates":[-115.250064,36.213072]}},{"type":"Feature","id":"5132dd72a288f42e67357b79","properties":{"_id":"5132dd72a288f42e67357b79","PROVIDER NPI":1164466249,"PROVIDER NAME":"Kennedy, Harold","PROVIDER STATE":"Nevada","PROVIDER CITY":"Reno","PROVIDER  ADDRESS":"75 Pringle Way, Suite 1002","PROVIDER ZIP 5 CD":89502,"PROVIDER ZIP 4 CD":1464,"PROVIDER PHONE NUM":7753237500,"PROVIDER PHONE EXT":"","PROGRAM YEAR":2011},"geometry":{"type":"Point","coordinates":[-119.796021,39.524452]}},{"type":"Feature","id":"5132dd72a288f42e67357b7a","properties":{"_id":"5132dd72a288f42e67357b7a","PROVIDER NPI":1417033044,"PROVIDER NAME":"KHAN, LUBNA","PROVIDER STATE":"Nevada","PROVIDER CITY":"Henderson","PROVIDER  ADDRESS":"100 N Green Valley Pkwy Ste 110","PROVIDER ZIP 5 CD":89074,"PROVIDER ZIP 4 CD":6392,"PROVIDER PHONE NUM":7024367700,"PROVIDER PHONE EXT":"","PROGRAM YEAR":2011},"geometry":{"type":"Point","coordinates":[-115.085227,36.025462]}},{"type":"Feature","id":"5132dd72a288f42e67357b7b","properties":{"_id":"5132dd72a288f42e67357b7b","PROVIDER NPI":1912022666,"PROVIDER NAME":"Khankhanian, Farnaz","PROVIDER STATE":"Nevada","PROVIDER CITY":"Carson City","PROVIDER  ADDRESS":"3770 US Highway 395 S","PROVIDER ZIP 5 CD":89705,"PROVIDER ZIP 4 CD":6898,"PROVIDER PHONE NUM":7752675611,"PROVIDER PHONE EXT":"","PROGRAM YEAR":2011},"geometry":{"type":"Point","coordinates":[-119.773244,39.113185]}},{"type":"Feature","id":"5132dd72a288f42e67357b7c","properties":{"_id":"5132dd72a288f42e67357b7c","PROVIDER NPI":1871798900,"PROVIDER NAME":"KIM, SUNGWOOK","PROVIDER STATE":"Nevada","PROVIDER CITY":"Henderson","PROVIDER  ADDRESS":"213 S Stephanie St Ste 100","PROVIDER ZIP 5 CD":89012,"PROVIDER ZIP 4 CD":5504,"PROVIDER PHONE NUM":7025665445,"PROVIDER PHONE EXT":"","PROGRAM YEAR":2011},"geometry":{"type":"Point","coordinates":[-115.047414,36.019354]}},{"type":"Feature","id":"5132dd72a288f42e67357b7d","properties":{"_id":"5132dd72a288f42e67357b7d","PROVIDER NPI":1609830579,"PROVIDER NAME":"KING, TIMOTHY","PROVIDER STATE":"Nevada","PROVIDER CITY":"Carson City","PROVIDER  ADDRESS":"1375 Vista Lane","PROVIDER ZIP 5 CD":89703,"PROVIDER ZIP 4 CD":4646,"PROVIDER PHONE NUM":7758822067,"PROVIDER PHONE EXT":"","PROGRAM YEAR":2011},"geometry":{"type":"Point","coordinates":[-119.771819,39.172455]}},{"type":"Feature","id":"5132dd72a288f42e67357b7e","properties":{"_id":"5132dd72a288f42e67357b7e","PROVIDER NPI":1225028277,"PROVIDER NAME":"Knoll, Kraig","PROVIDER STATE":"Nevada","PROVIDER CITY":"Carson City","PROVIDER  ADDRESS":"1375 Vista Ln","PROVIDER ZIP 5 CD":89703,"PROVIDER ZIP 4 CD":4646,"PROVIDER PHONE NUM":7758822067,"PROVIDER PHONE EXT":"","PROGRAM YEAR":2011},"geometry":{"type":"Point","coordinates":[-119.771819,39.172455]}},{"type":"Feature","id":"5132dd72a288f42e67357b7f","properties":{"_id":"5132dd72a288f42e67357b7f","PROVIDER NPI":1942260682,"PROVIDER NAME":"koch, sandra","PROVIDER STATE":"Nevada","PROVIDER CITY":"CARSON CITY","PROVIDER  ADDRESS":"1200 MOUNTAIN ST","PROVIDER ZIP 5 CD":89703,"PROVIDER ZIP 4 CD":3821,"PROVIDER PHONE NUM":7758833636,"PROVIDER PHONE EXT":"","PROGRAM YEAR":2011},"geometry":{"type":"Point","coordinates":[-119.77295,39.171461]}},{"type":"Feature","id":"5132dd72a288f42e67357b80","properties":{"_id":"5132dd72a288f42e67357b80","PROVIDER NPI":1255301388,"PROVIDER NAME":"Koenig, Gregory","PROVIDER STATE":"Nevada","PROVIDER CITY":"FALLON","PROVIDER  ADDRESS":"65 N TAYLOR ST","PROVIDER ZIP 5 CD":89406,"PROVIDER ZIP 4 CD":2750,"PROVIDER PHONE NUM":7754238024,"PROVIDER PHONE EXT":"","PROGRAM YEAR":2011},"geometry":{"type":"Point","coordinates":[-118.781601,39.475701]}},{"type":"Feature","id":"5132dd72a288f42e67357b81","properties":{"_id":"5132dd72a288f42e67357b81","PROVIDER NPI":1164749669,"PROVIDER NAME":"Korab, Jeff","PROVIDER STATE":"Nevada","PROVIDER CITY":"Henderson","PROVIDER  ADDRESS":"10561 Jeffreys St, #110","PROVIDER ZIP 5 CD":89052,"PROVIDER ZIP 4 CD":4266,"PROVIDER PHONE NUM":7024563668,"PROVIDER PHONE EXT":"","PROGRAM YEAR":2011},"geometry":{"type":"Point","coordinates":[-115.118936,35.998843]}},{"type":"Feature","id":"5132dd72a288f42e67357b82","properties":{"_id":"5132dd72a288f42e67357b82","PROVIDER NPI":1366599631,"PROVIDER NAME":"Kos, Michael","PROVIDER STATE":"Nevada","PROVIDER CITY":"Reno","PROVIDER  ADDRESS":"10745 Double R Blvd Bldg 13","PROVIDER ZIP 5 CD":89521,"PROVIDER ZIP 4 CD":8979,"PROVIDER PHONE NUM":7758506505,"PROVIDER PHONE EXT":"","PROGRAM YEAR":2011},"geometry":{"type":"Point","coordinates":[-119.759322,39.44029]}},{"type":"Feature","id":"5132dd72a288f42e67357b83","properties":{"_id":"5132dd72a288f42e67357b83","PROVIDER NPI":1215972138,"PROVIDER NAME":"Kozar, Mark","PROVIDER STATE":"Nevada","PROVIDER CITY":"Reno","PROVIDER  ADDRESS":"75 Pringle Way, Suite 1002","PROVIDER ZIP 5 CD":89502,"PROVIDER ZIP 4 CD":1464,"PROVIDER PHONE NUM":7753237500,"PROVIDER PHONE EXT":"","PROGRAM YEAR":2011},"geometry":{"type":"Point","coordinates":[-119.796021,39.524452]}},{"type":"Feature","id":"5132dd72a288f42e67357b84","properties":{"_id":"5132dd72a288f42e67357b84","PROVIDER NPI":1093808586,"PROVIDER NAME":"Kubal, Vipul","PROVIDER STATE":"Nevada","PROVIDER CITY":"Las Vegas","PROVIDER  ADDRESS":"3121 S Maryland Pkwy, Suite 101","PROVIDER ZIP 5 CD":89109,"PROVIDER ZIP 4 CD":2307,"PROVIDER PHONE NUM":7023203627,"PROVIDER PHONE EXT":"","PROGRAM YEAR":2011},"geometry":{"type":"Point","coordinates":[-115.16101,36.1115]}},{"type":"Feature","id":"5132dd72a288f42e67357b85","properties":{"_id":"5132dd72a288f42e67357b85","PROVIDER NPI":1144416900,"PROVIDER NAME":"Kubel, Steven","PROVIDER STATE":"Nevada","PROVIDER CITY":"Carson City","PROVIDER  ADDRESS":"212 South Nevada Street","PROVIDER ZIP 5 CD":89703,"PROVIDER ZIP 4 CD":4287,"PROVIDER PHONE NUM":7758870400,"PROVIDER PHONE EXT":"","PROGRAM YEAR":2011},"geometry":{"type":"Point","coordinates":[-119.768752,39.163529]}},{"type":"Feature","id":"5132dd72a288f42e67357b86","properties":{"_id":"5132dd72a288f42e67357b86","PROVIDER NPI":1043202120,"PROVIDER NAME":"Kuo, David","PROVIDER STATE":"Nevada","PROVIDER CITY":"Las Vegas","PROVIDER  ADDRESS":"2950 S Maryland Pkwy","PROVIDER ZIP 5 CD":89109,"PROVIDER ZIP 4 CD":2204,"PROVIDER PHONE NUM":7027326000,"PROVIDER PHONE EXT":"","PROGRAM YEAR":2011},"geometry":{"type":"Point","coordinates":[-115.136789,36.136099]}},{"type":"Feature","id":"5132dd72a288f42e67357b87","properties":{"_id":"5132dd72a288f42e67357b87","PROVIDER NPI":1114958683,"PROVIDER NAME":"Lacayo, Enrique","PROVIDER STATE":"Nevada","PROVIDER CITY":"Las Vegas","PROVIDER  ADDRESS":"2010 Goldring Ave, Suite 302","PROVIDER ZIP 5 CD":89106,"PROVIDER ZIP 4 CD":4002,"PROVIDER PHONE NUM":7023826970,"PROVIDER PHONE EXT":"","PROGRAM YEAR":2011},"geometry":{"type":"Point","coordinates":[-115.167938,36.161688]}},{"type":"Feature","id":"5132dd72a288f42e67357b88","properties":{"_id":"5132dd72a288f42e67357b88","PROVIDER NPI":1437116704,"PROVIDER NAME":"Lajeunesse, Christine","PROVIDER STATE":"Nevada","PROVIDER CITY":"Reno","PROVIDER  ADDRESS":"1500 E Second St.,, Suite 300","PROVIDER ZIP 5 CD":89502,"PROVIDER ZIP 4 CD":1198,"PROVIDER PHONE NUM":7753227811,"PROVIDER PHONE EXT":"","PROGRAM YEAR":2011},"geometry":{"type":"Point","coordinates":[-119.79271,39.527387]}},{"type":"Feature","id":"5132dd72a288f42e67357b89","properties":{"_id":"5132dd72a288f42e67357b89","PROVIDER NPI":1245222181,"PROVIDER NAME":"Larsen, Philip","PROVIDER STATE":"Nevada","PROVIDER CITY":"Henderson","PROVIDER  ADDRESS":"10561 Jeffreys St, 110","PROVIDER ZIP 5 CD":89052,"PROVIDER ZIP 4 CD":4179,"PROVIDER PHONE NUM":7024563668,"PROVIDER PHONE EXT":"","PROGRAM YEAR":2011},"geometry":{"type":"Point","coordinates":[-115.118936,35.998843]}},{"type":"Feature","id":"5132dd72a288f42e67357b8a","properties":{"_id":"5132dd72a288f42e67357b8a","PROVIDER NPI":1487632261,"PROVIDER NAME":"Lau, James","PROVIDER STATE":"Nevada","PROVIDER CITY":"Las Vegas","PROVIDER  ADDRESS":"1707 W Charleston Blvd, #160, Patient Care Center","PROVIDER ZIP 5 CD":89102,"PROVIDER ZIP 4 CD":2351,"PROVIDER PHONE NUM":7026715150,"PROVIDER PHONE EXT":"","PROGRAM YEAR":2011},"geometry":{"type":"Point","coordinates":[-115.164226,36.158808]}},{"type":"Feature","id":"5132dd72a288f42e67357b8b","properties":{"_id":"5132dd72a288f42e67357b8b","PROVIDER NPI":1851543557,"PROVIDER NAME":"Leavitt, Tracy","PROVIDER STATE":"Nevada","PROVIDER CITY":"Henderson","PROVIDER  ADDRESS":"68 N. Pecos Rd, Suite A","PROVIDER ZIP 5 CD":89074,"PROVIDER ZIP 4 CD":7340,"PROVIDER PHONE NUM":7024561441,"PROVIDER PHONE EXT":"","PROGRAM YEAR":2011},"geometry":{"type":"Point","coordinates":[-115.106368,36.033605]}},{"type":"Feature","id":"5132dd72a288f42e67357b8c","properties":{"_id":"5132dd72a288f42e67357b8c","PROVIDER NPI":1639143092,"PROVIDER NAME":"Leepard, Jennifer","PROVIDER STATE":"Nevada","PROVIDER CITY":"Las Vegas","PROVIDER  ADDRESS":"5380 S Rainbow Blvd, #120","PROVIDER ZIP 5 CD":89118,"PROVIDER ZIP 4 CD":1877,"PROVIDER PHONE NUM":7022333444,"PROVIDER PHONE EXT":"","PROGRAM YEAR":2011},"geometry":{"type":"Point","coordinates":[-115.242824,36.091055]}},{"type":"Feature","id":"5132dd72a288f42e67357b8d","properties":{"_id":"5132dd72a288f42e67357b8d","PROVIDER NPI":1275700494,"PROVIDER NAME":"Lehrner, Stephanie","PROVIDER STATE":"Nevada","PROVIDER CITY":"Las Vegas","PROVIDER  ADDRESS":"2481 Professional Ct","PROVIDER ZIP 5 CD":89128,"PROVIDER ZIP 4 CD":"","PROVIDER PHONE NUM":7023821599,"PROVIDER PHONE EXT":"","PROGRAM YEAR":2011},"geometry":{"type":"Point","coordinates":[-115.26437,36.196822]}},{"type":"Feature","id":"5132dd72a288f42e67357b8e","properties":{"_id":"5132dd72a288f42e67357b8e","PROVIDER NPI":1316946593,"PROVIDER NAME":"Leovy, Joanne","PROVIDER STATE":"Nevada","PROVIDER CITY":"Boulder City","PROVIDER  ADDRESS":"895 Adams Blvd","PROVIDER ZIP 5 CD":89005,"PROVIDER ZIP 4 CD":2235,"PROVIDER PHONE NUM":7022930406,"PROVIDER PHONE EXT":"","PROGRAM YEAR":2011},"geometry":{"type":"Point","coordinates":[-114.831438,35.968945]}},{"type":"Feature","id":"5132dd72a288f42e67357b8f","properties":{"_id":"5132dd72a288f42e67357b8f","PROVIDER NPI":1023092020,"PROVIDER NAME":"Liang, Wen","PROVIDER STATE":"Nevada","PROVIDER CITY":"Henderson","PROVIDER  ADDRESS":"2621 W Horizon Ridge Pkwy, Suite 150","PROVIDER ZIP 5 CD":89052,"PROVIDER ZIP 4 CD":2895,"PROVIDER PHONE NUM":7028376368,"PROVIDER PHONE EXT":"","PROGRAM YEAR":2011},"geometry":{"type":"Point","coordinates":[-115.102559,36.000845]}},{"type":"Feature","id":"5132dd72a288f42e67357b90","properties":{"_id":"5132dd72a288f42e67357b90","PROVIDER NPI":1376550434,"PROVIDER NAME":"Libby, Eugene","PROVIDER STATE":"Nevada","PROVIDER CITY":"Henderson","PROVIDER  ADDRESS":"8915 S. Pecos Rd, Suite 17","PROVIDER ZIP 5 CD":89074,"PROVIDER ZIP 4 CD":"","PROVIDER PHONE NUM":7028989060,"PROVIDER PHONE EXT":"","PROGRAM YEAR":2011},"geometry":{"type":"Point","coordinates":[-115.107862,36.033885]}},{"type":"Feature","id":"5132dd72a288f42e67357b91","properties":{"_id":"5132dd72a288f42e67357b91","PROVIDER NPI":1639308943,"PROVIDER NAME":"Lieberman, Robert","PROVIDER STATE":"Nevada","PROVIDER CITY":"Las Vegas","PROVIDER  ADDRESS":"9097 W Post Rd, #100","PROVIDER ZIP 5 CD":89148,"PROVIDER ZIP 4 CD":2417,"PROVIDER PHONE NUM":7024305333,"PROVIDER PHONE EXT":"","PROGRAM YEAR":2011},"geometry":{"type":"Point","coordinates":[-115.300189,36.072879]}},{"type":"Feature","id":"5132dd72a288f42e67357b92","properties":{"_id":"5132dd72a288f42e67357b92","PROVIDER NPI":1922062215,"PROVIDER NAME":"Lieberstein, Loth","PROVIDER STATE":"Nevada","PROVIDER CITY":"Reno","PROVIDER  ADDRESS":"10619 Professional Cir","PROVIDER ZIP 5 CD":89521,"PROVIDER ZIP 4 CD":5831,"PROVIDER PHONE NUM":7758524848,"PROVIDER PHONE EXT":"","PROGRAM YEAR":2011},"geometry":{"type":"Point","coordinates":[-119.682355,39.384899]}},{"type":"Feature","id":"5132dd72a288f42e67357b93","properties":{"_id":"5132dd72a288f42e67357b93","PROVIDER NPI":1952302036,"PROVIDER NAME":"Linares, Ricardo","PROVIDER STATE":"Nevada","PROVIDER CITY":"Las Vegas","PROVIDER  ADDRESS":"2950 S Maryland Pkwy","PROVIDER ZIP 5 CD":89109,"PROVIDER ZIP 4 CD":2204,"PROVIDER PHONE NUM":7027326000,"PROVIDER PHONE EXT":"","PROGRAM YEAR":2011},"geometry":{"type":"Point","coordinates":[-115.136789,36.136099]}},{"type":"Feature","id":"5132dd72a288f42e67357b94","properties":{"_id":"5132dd72a288f42e67357b94","PROVIDER NPI":1376542431,"PROVIDER NAME":"Lorenz, Douglas","PROVIDER STATE":"Nevada","PROVIDER CITY":"Henderson","PROVIDER  ADDRESS":"2598 Windmill Pkwy","PROVIDER ZIP 5 CD":89074,"PROVIDER ZIP 4 CD":5476,"PROVIDER PHONE NUM":7028966043,"PROVIDER PHONE EXT":"","PROGRAM YEAR":2011},"geometry":{"type":"Point","coordinates":[-115.100266,36.042389]}},{"type":"Feature","id":"5132dd72a288f42e67357b95","properties":{"_id":"5132dd72a288f42e67357b95","PROVIDER NPI":1497713762,"PROVIDER NAME":"Luh, Henry","PROVIDER STATE":"Nevada","PROVIDER CITY":"Las Vegas","PROVIDER  ADDRESS":"7160 Smoke Ranch Rd","PROVIDER ZIP 5 CD":89128,"PROVIDER ZIP 4 CD":1117,"PROVIDER PHONE NUM":7022548900,"PROVIDER PHONE EXT":"","PROGRAM YEAR":2011},"geometry":{"type":"Point","coordinates":[-115.253323,36.203537]}},{"type":"Feature","id":"5132dd72a288f42e67357b96","properties":{"_id":"5132dd72a288f42e67357b96","PROVIDER NPI":1720036270,"PROVIDER NAME":"Lundeen, Gregory","PROVIDER STATE":"Nevada","PROVIDER CITY":"Reno","PROVIDER  ADDRESS":"555 N. Arlington Avenue","PROVIDER ZIP 5 CD":89503,"PROVIDER ZIP 4 CD":4724,"PROVIDER PHONE NUM":7757863040,"PROVIDER PHONE EXT":"","PROGRAM YEAR":2011},"geometry":{"type":"Point","coordinates":[-119.818783,39.531031]}},{"type":"Feature","id":"5132dd72a288f42e67357b97","properties":{"_id":"5132dd72a288f42e67357b97","PROVIDER NPI":1144270349,"PROVIDER NAME":"Luss, Rosner","PROVIDER STATE":"Nevada","PROVIDER CITY":"Las Vegas","PROVIDER  ADDRESS":"1621 E Flamingo Rd, B-16","PROVIDER ZIP 5 CD":89119,"PROVIDER ZIP 4 CD":5276,"PROVIDER PHONE NUM":7026960506,"PROVIDER PHONE EXT":"","PROGRAM YEAR":2011},"geometry":{"type":"Point","coordinates":[-115.130782,36.114525]}},{"type":"Feature","id":"5132dd72a288f42e67357b98","properties":{"_id":"5132dd72a288f42e67357b98","PROVIDER NPI":1447211990,"PROVIDER NAME":"Lynch, Christopher","PROVIDER STATE":"Nevada","PROVIDER CITY":"Carson City","PROVIDER  ADDRESS":"1385 Vista Ln","PROVIDER ZIP 5 CD":89703,"PROVIDER ZIP 4 CD":4643,"PROVIDER PHONE NUM":7758844567,"PROVIDER PHONE EXT":"","PROGRAM YEAR":2011},"geometry":{"type":"Point","coordinates":[-119.771819,39.172455]}},{"type":"Feature","id":"5132dd72a288f42e67357b99","properties":{"_id":"5132dd72a288f42e67357b99","PROVIDER NPI":1457306938,"PROVIDER NAME":"Malcarney, Hilary","PROVIDER STATE":"Nevada","PROVIDER CITY":"Reno","PROVIDER  ADDRESS":"689 Sierra Rose Dr., Suite B","PROVIDER ZIP 5 CD":89511,"PROVIDER ZIP 4 CD":2060,"PROVIDER PHONE NUM":7757862100,"PROVIDER PHONE EXT":"","PROGRAM YEAR":2011},"geometry":{"type":"Point","coordinates":[-119.770267,39.350634]}},{"type":"Feature","id":"5132dd72a288f42e67357b9a","properties":{"_id":"5132dd72a288f42e67357b9a","PROVIDER NPI":1730188244,"PROVIDER NAME":"Manthei, Rudy","PROVIDER STATE":"Nevada","PROVIDER CITY":"Henderson","PROVIDER  ADDRESS":"2598 Windmill Pkwy","PROVIDER ZIP 5 CD":89074,"PROVIDER ZIP 4 CD":5476,"PROVIDER PHONE NUM":7028966043,"PROVIDER PHONE EXT":"","PROGRAM YEAR":2011},"geometry":{"type":"Point","coordinates":[-115.100266,36.042389]}},{"type":"Feature","id":"5132dd72a288f42e67357b9b","properties":{"_id":"5132dd72a288f42e67357b9b","PROVIDER NPI":1457368664,"PROVIDER NAME":"Marchant, Evan","PROVIDER STATE":"Nevada","PROVIDER CITY":"Sparks","PROVIDER  ADDRESS":"1965 Baring Blvd","PROVIDER ZIP 5 CD":89434,"PROVIDER ZIP 4 CD":6734,"PROVIDER PHONE NUM":7753581020,"PROVIDER PHONE EXT":"","PROGRAM YEAR":2011},"geometry":{"type":"Point","coordinates":[-119.708936,39.558281]}},{"type":"Feature","id":"5132dd72a288f42e67357b9c","properties":{"_id":"5132dd72a288f42e67357b9c","PROVIDER NPI":1508964933,"PROVIDER NAME":"mason, howard","PROVIDER STATE":"Nevada","PROVIDER CITY":"Henderson","PROVIDER  ADDRESS":"1701 Green Valley Pkwy 10A","PROVIDER ZIP 5 CD":89074,"PROVIDER ZIP 4 CD":"","PROVIDER PHONE NUM":7022696507,"PROVIDER PHONE EXT":"","PROGRAM YEAR":2011},"geometry":{"type":"Point","coordinates":[-115.084587,36.034543]}},{"type":"Feature","id":"5132dd72a288f42e67357b9d","properties":{"_id":"5132dd72a288f42e67357b9d","PROVIDER NPI":1942213558,"PROVIDER NAME":"Matsumoto, Mavis","PROVIDER STATE":"Nevada","PROVIDER CITY":"Henderson","PROVIDER  ADDRESS":"870 Seven Hills Dr, Suite 102","PROVIDER ZIP 5 CD":89052,"PROVIDER ZIP 4 CD":4377,"PROVIDER PHONE NUM":7029924050,"PROVIDER PHONE EXT":"","PROGRAM YEAR":2011},"geometry":{"type":"Point","coordinates":[-115.123092,35.996183]}},{"type":"Feature","id":"5132dd72a288f42e67357b9e","properties":{"_id":"5132dd72a288f42e67357b9e","PROVIDER NPI":1265418099,"PROVIDER NAME":"Matteoni, Christi","PROVIDER STATE":"Nevada","PROVIDER CITY":"Reno","PROVIDER  ADDRESS":"10619 Professional Cir","PROVIDER ZIP 5 CD":89521,"PROVIDER ZIP 4 CD":5831,"PROVIDER PHONE NUM":7758524848,"PROVIDER PHONE EXT":"","PROGRAM YEAR":2011},"geometry":{"type":"Point","coordinates":[-119.682355,39.384899]}},{"type":"Feature","id":"5132dd72a288f42e67357b9f","properties":{"_id":"5132dd72a288f42e67357b9f","PROVIDER NPI":1841279650,"PROVIDER NAME":"Matteoni, Kenneth","PROVIDER STATE":"Nevada","PROVIDER CITY":"Reno","PROVIDER  ADDRESS":"689 Sierra Rose Dr, Ste. B","PROVIDER ZIP 5 CD":89511,"PROVIDER ZIP 4 CD":2060,"PROVIDER PHONE NUM":7757862100,"PROVIDER PHONE EXT":"","PROGRAM YEAR":2011},"geometry":{"type":"Point","coordinates":[-119.770267,39.350634]}},{"type":"Feature","id":"5132dd72a288f42e67357ba0","properties":{"_id":"5132dd72a288f42e67357ba0","PROVIDER NPI":1043283898,"PROVIDER NAME":"Mayer, Marcus","PROVIDER STATE":"Nevada","PROVIDER CITY":"Las Vegas","PROVIDER  ADDRESS":"3101 S Maryland Pkwy, Ste 102","PROVIDER ZIP 5 CD":89109,"PROVIDER ZIP 4 CD":"","PROVIDER PHONE NUM":7027324491,"PROVIDER PHONE EXT":"","PROGRAM YEAR":2011},"geometry":{"type":"Point","coordinates":[-115.16101,36.1115]}},{"type":"Feature","id":"5132dd72a288f42e67357ba1","properties":{"_id":"5132dd72a288f42e67357ba1","PROVIDER NPI":1366429136,"PROVIDER NAME":"McAfee, John","PROVIDER STATE":"Nevada","PROVIDER CITY":"Carson City","PROVIDER  ADDRESS":"1385 Vista Ln","PROVIDER ZIP 5 CD":89703,"PROVIDER ZIP 4 CD":4643,"PROVIDER PHONE NUM":7758844567,"PROVIDER PHONE EXT":4526,"PROGRAM YEAR":2011},"geometry":{"type":"Point","coordinates":[-119.771819,39.172455]}},{"type":"Feature","id":"5132dd72a288f42e67357ba2","properties":{"_id":"5132dd72a288f42e67357ba2","PROVIDER NPI":1871504969,"PROVIDER NAME":"McAnallen, Terry","PROVIDER STATE":"Nevada","PROVIDER CITY":"Las Vegas","PROVIDER  ADDRESS":"3012 S, Durango Drive, #2","PROVIDER ZIP 5 CD":89117,"PROVIDER ZIP 4 CD":"","PROVIDER PHONE NUM":7023661655,"PROVIDER PHONE EXT":"","PROGRAM YEAR":2011},"geometry":{"type":"Point","coordinates":[-115.278882,36.13628]}},{"type":"Feature","id":"5132dd72a288f42e67357ba3","properties":{"_id":"5132dd72a288f42e67357ba3","PROVIDER NPI":1477584043,"PROVIDER NAME":"McBeath, Jo","PROVIDER STATE":"Nevada","PROVIDER CITY":"Las Vegas","PROVIDER  ADDRESS":"3121 S Maryland Pkwy, Ste 216","PROVIDER ZIP 5 CD":89109,"PROVIDER ZIP 4 CD":"","PROVIDER PHONE NUM":7023203852,"PROVIDER PHONE EXT":"","PROGRAM YEAR":2011},"geometry":{"type":"Point","coordinates":[-115.16101,36.1115]}},{"type":"Feature","id":"5132dd72a288f42e67357ba4","properties":{"_id":"5132dd72a288f42e67357ba4","PROVIDER NPI":1720071301,"PROVIDER NAME":"McCaskill, Terry","PROVIDER STATE":"Nevada","PROVIDER CITY":"Reno","PROVIDER  ADDRESS":"6512 S McCarran Blvd, Suite D","PROVIDER ZIP 5 CD":89509,"PROVIDER ZIP 4 CD":6141,"PROVIDER PHONE NUM":7758261285,"PROVIDER PHONE EXT":"","PROGRAM YEAR":2011},"geometry":{"type":"Point","coordinates":[-119.846268,39.50468]}},{"type":"Feature","id":"5132dd72a288f42e67357ba5","properties":{"_id":"5132dd72a288f42e67357ba5","PROVIDER NPI":1598810145,"PROVIDER NAME":"McCormack, Matthew","PROVIDER STATE":"Nevada","PROVIDER CITY":"Reno","PROVIDER  ADDRESS":"699 Sierra Rose Dr Ste A","PROVIDER ZIP 5 CD":89511,"PROVIDER ZIP 4 CD":2069,"PROVIDER PHONE NUM":7756893737,"PROVIDER PHONE EXT":"","PROGRAM YEAR":2011},"geometry":{"type":"Point","coordinates":[-119.800278,39.473447]}},{"type":"Feature","id":"5132dd72a288f42e67357ba6","properties":{"_id":"5132dd72a288f42e67357ba6","PROVIDER NPI":1508893645,"PROVIDER NAME":"McElreath, Ricky","PROVIDER STATE":"Nevada","PROVIDER CITY":"Reno","PROVIDER  ADDRESS":"75 Pringle Way, Suite 1002","PROVIDER ZIP 5 CD":89502,"PROVIDER ZIP 4 CD":1475,"PROVIDER PHONE NUM":7753237500,"PROVIDER PHONE EXT":"","PROGRAM YEAR":2011},"geometry":{"type":"Point","coordinates":[-119.796021,39.524452]}},{"type":"Feature","id":"5132dd72a288f42e67357ba7","properties":{"_id":"5132dd72a288f42e67357ba7","PROVIDER NPI":1316907918,"PROVIDER NAME":"mcfarren, timothy","PROVIDER STATE":"Nevada","PROVIDER CITY":"CARSON CITY","PROVIDER  ADDRESS":"1200 MOUNTAIN ST","PROVIDER ZIP 5 CD":89703,"PROVIDER ZIP 4 CD":3821,"PROVIDER PHONE NUM":7758833636,"PROVIDER PHONE EXT":"","PROGRAM YEAR":2011},"geometry":{"type":"Point","coordinates":[-119.77295,39.171461]}},{"type":"Feature","id":"5132dd72a288f42e67357ba8","properties":{"_id":"5132dd72a288f42e67357ba8","PROVIDER NPI":1518997550,"PROVIDER NAME":"McGinnis, Seong","PROVIDER STATE":"Nevada","PROVIDER CITY":"Reno","PROVIDER  ADDRESS":"6880 S McCarran Blvd Ste 5","PROVIDER ZIP 5 CD":89509,"PROVIDER ZIP 4 CD":6129,"PROVIDER PHONE NUM":7758282333,"PROVIDER PHONE EXT":"","PROGRAM YEAR":2011},"geometry":{"type":"Point","coordinates":[-119.80509,39.476618]}},{"type":"Feature","id":"5132dd72a288f42e67357ba9","properties":{"_id":"5132dd72a288f42e67357ba9","PROVIDER NPI":1386617355,"PROVIDER NAME":"McKelvie, Carolyn","PROVIDER STATE":"Nevada","PROVIDER CITY":"Las Vegas","PROVIDER  ADDRESS":"3012 S Durango Dr, Suite 1","PROVIDER ZIP 5 CD":89117,"PROVIDER ZIP 4 CD":9186,"PROVIDER PHONE NUM":7023660640,"PROVIDER PHONE EXT":"","PROGRAM YEAR":2011},"geometry":{"type":"Point","coordinates":[-115.278882,36.13628]}},{"type":"Feature","id":"5132dd72a288f42e67357baa","properties":{"_id":"5132dd72a288f42e67357baa","PROVIDER NPI":1497703615,"PROVIDER NAME":"Meli, James","PROVIDER STATE":"Nevada","PROVIDER CITY":"Henderson","PROVIDER  ADDRESS":"6301 Mountain Vista St, Suite 108","PROVIDER ZIP 5 CD":89014,"PROVIDER ZIP 4 CD":2364,"PROVIDER PHONE NUM":7024511844,"PROVIDER PHONE EXT":"","PROGRAM YEAR":2011},"geometry":{"type":"Point","coordinates":[-115.073108,36.074539]}},{"type":"Feature","id":"5132dd72a288f42e67357bab","properties":{"_id":"5132dd72a288f42e67357bab","PROVIDER NPI":1639150204,"PROVIDER NAME":"MenMuir, Brett","PROVIDER STATE":"Nevada","PROVIDER CITY":"Reno","PROVIDER  ADDRESS":"555 N Arlington Ave","PROVIDER ZIP 5 CD":89503,"PROVIDER ZIP 4 CD":4724,"PROVIDER PHONE NUM":7757863040,"PROVIDER PHONE EXT":"","PROGRAM YEAR":2011},"geometry":{"type":"Point","coordinates":[-119.818783,39.531031]}},{"type":"Feature","id":"5132dd72a288f42e67357bac","properties":{"_id":"5132dd72a288f42e67357bac","PROVIDER NPI":1346213741,"PROVIDER NAME":"Metzger, Loretta","PROVIDER STATE":"Nevada","PROVIDER CITY":"Henderson","PROVIDER  ADDRESS":"861 Coronado Center Dr., #100","PROVIDER ZIP 5 CD":89052,"PROVIDER ZIP 4 CD":"","PROVIDER PHONE NUM":7024541322,"PROVIDER PHONE EXT":"","PROGRAM YEAR":2011},"geometry":{"type":"Point","coordinates":[-115.110352,36.00039]}},{"type":"Feature","id":"5132dd72a288f42e67357bad","properties":{"_id":"5132dd72a288f42e67357bad","PROVIDER NPI":1326008475,"PROVIDER NAME":"Meyer, Roger","PROVIDER STATE":"Nevada","PROVIDER CITY":"CARSON CITY","PROVIDER  ADDRESS":"1200 MOUNTAIN ST","PROVIDER ZIP 5 CD":89703,"PROVIDER ZIP 4 CD":3821,"PROVIDER PHONE NUM":7758833636,"PROVIDER PHONE EXT":"","PROGRAM YEAR":2011},"geometry":{"type":"Point","coordinates":[-119.77295,39.171461]}},{"type":"Feature","id":"5132dd72a288f42e67357bae","properties":{"_id":"5132dd72a288f42e67357bae","PROVIDER NPI":1114910734,"PROVIDER NAME":"Michaels, Saovaros","PROVIDER STATE":"Nevada","PROVIDER CITY":"Las Vegas","PROVIDER  ADDRESS":"7160 Smoke Ranch Rd","PROVIDER ZIP 5 CD":89128,"PROVIDER ZIP 4 CD":1117,"PROVIDER PHONE NUM":7022548900,"PROVIDER PHONE EXT":4,"PROGRAM YEAR":2011},"geometry":{"type":"Point","coordinates":[-115.253323,36.203537]}},{"type":"Feature","id":"5132dd72a288f42e67357baf","properties":{"_id":"5132dd72a288f42e67357baf","PROVIDER NPI":1487685061,"PROVIDER NAME":"Mike, Sheldon","PROVIDER STATE":"Nevada","PROVIDER CITY":"Henderson","PROVIDER  ADDRESS":"100 N Green Valley Pkwy, Ste 220","PROVIDER ZIP 5 CD":89074,"PROVIDER ZIP 4 CD":6391,"PROVIDER PHONE NUM":7029443627,"PROVIDER PHONE EXT":"","PROGRAM YEAR":2011},"geometry":{"type":"Point","coordinates":[-115.106368,36.033605]}},{"type":"Feature","id":"5132dd72a288f42e67357bb0","properties":{"_id":"5132dd72a288f42e67357bb0","PROVIDER NPI":1801843396,"PROVIDER NAME":"Milford, Christopher","PROVIDER STATE":"Nevada","PROVIDER CITY":"Las Vegas","PROVIDER  ADDRESS":"2575 Montessouri St Ste 110","PROVIDER ZIP 5 CD":89117,"PROVIDER ZIP 4 CD":3059,"PROVIDER PHONE NUM":7022720694,"PROVIDER PHONE EXT":"","PROGRAM YEAR":2011},"geometry":{"type":"Point","coordinates":[-115.247488,36.142654]}},{"type":"Feature","id":"5132dd72a288f42e67357bb1","properties":{"_id":"5132dd72a288f42e67357bb1","PROVIDER NPI":1699731463,"PROVIDER NAME":"Miller, Pauline","PROVIDER STATE":"Nevada","PROVIDER CITY":"Las Vegas","PROVIDER  ADDRESS":"3416 N Buffalo Dr","PROVIDER ZIP 5 CD":89129,"PROVIDER ZIP 4 CD":7424,"PROVIDER PHONE NUM":7029828700,"PROVIDER PHONE EXT":"","PROGRAM YEAR":2011},"geometry":{"type":"Point","coordinates":[-115.260419,36.222228]}},{"type":"Feature","id":"5132dd72a288f42e67357bb2","properties":{"_id":"5132dd72a288f42e67357bb2","PROVIDER NPI":1861492522,"PROVIDER NAME":"Mirich, David","PROVIDER STATE":"Nevada","PROVIDER CITY":"Las Vegas","PROVIDER  ADDRESS":"2950 S Maryland Pkwy","PROVIDER ZIP 5 CD":89109,"PROVIDER ZIP 4 CD":2204,"PROVIDER PHONE NUM":7027326000,"PROVIDER PHONE EXT":"","PROGRAM YEAR":2011},"geometry":{"type":"Point","coordinates":[-115.136789,36.136099]}},{"type":"Feature","id":"5132dd72a288f42e67357bb3","properties":{"_id":"5132dd72a288f42e67357bb3","PROVIDER NPI":1134124308,"PROVIDER NAME":"Mitchell, Mark","PROVIDER STATE":"Nevada","PROVIDER CITY":"Reno","PROVIDER  ADDRESS":"4600 Kietzke Ln, Ste B119","PROVIDER ZIP 5 CD":89502,"PROVIDER ZIP 4 CD":5036,"PROVIDER PHONE NUM":7758250506,"PROVIDER PHONE EXT":"","PROGRAM YEAR":2011},"geometry":{"type":"Point","coordinates":[-119.789547,39.484595]}},{"type":"Feature","id":"5132dd72a288f42e67357bb4","properties":{"_id":"5132dd72a288f42e67357bb4","PROVIDER NPI":1134122203,"PROVIDER NAME":"Moazez, Foad","PROVIDER STATE":"Nevada","PROVIDER CITY":"Las Vegas","PROVIDER  ADDRESS":"3121 S Maryland Pkwy, Ste 512","PROVIDER ZIP 5 CD":89109,"PROVIDER ZIP 4 CD":2310,"PROVIDER PHONE NUM":7027967150,"PROVIDER PHONE EXT":"","PROGRAM YEAR":2011},"geometry":{"type":"Point","coordinates":[-115.16101,36.1115]}},{"type":"Feature","id":"5132dd72a288f42e67357bb5","properties":{"_id":"5132dd72a288f42e67357bb5","PROVIDER NPI":1194707547,"PROVIDER NAME":"Molin, Clifford","PROVIDER STATE":"Nevada","PROVIDER CITY":"Las Vegas","PROVIDER  ADDRESS":"2481 Professional Ct, Suite 190","PROVIDER ZIP 5 CD":89128,"PROVIDER ZIP 4 CD":478,"PROVIDER PHONE NUM":7023821599,"PROVIDER PHONE EXT":"","PROGRAM YEAR":2011},"geometry":{"type":"Point","coordinates":[-115.16101,36.1115]}},{"type":"Feature","id":"5132dd72a288f42e67357bb6","properties":{"_id":"5132dd72a288f42e67357bb6","PROVIDER NPI":1215937974,"PROVIDER NAME":"Momii, George","PROVIDER STATE":"Nevada","PROVIDER CITY":"Las Vegas","PROVIDER  ADDRESS":"2950 S Maryland Pkwy","PROVIDER ZIP 5 CD":89109,"PROVIDER ZIP 4 CD":2204,"PROVIDER PHONE NUM":7027326000,"PROVIDER PHONE EXT":"","PROGRAM YEAR":2011},"geometry":{"type":"Point","coordinates":[-115.136789,36.136099]}},{"type":"Feature","id":"5132dd72a288f42e67357bb7","properties":{"_id":"5132dd72a288f42e67357bb7","PROVIDER NPI":1518924943,"PROVIDER NAME":"Moss, Steven","PROVIDER STATE":"Nevada","PROVIDER CITY":"Reno","PROVIDER  ADDRESS":"1500 E Second St, Suite 300","PROVIDER ZIP 5 CD":89502,"PROVIDER ZIP 4 CD":1198,"PROVIDER PHONE NUM":7753227811,"PROVIDER PHONE EXT":"","PROGRAM YEAR":2011},"geometry":{"type":"Point","coordinates":[-119.79271,39.527387]}},{"type":"Feature","id":"5132dd72a288f42e67357bb8","properties":{"_id":"5132dd72a288f42e67357bb8","PROVIDER NPI":1801969381,"PROVIDER NAME":"Muro, Victor","PROVIDER STATE":"Nevada","PROVIDER CITY":"Las Vegas","PROVIDER  ADDRESS":"2870 S Maryland Pkwy, Suite 300","PROVIDER ZIP 5 CD":89109,"PROVIDER ZIP 4 CD":5031,"PROVIDER PHONE NUM":7027350258,"PROVIDER PHONE EXT":"","PROGRAM YEAR":2011},"geometry":{"type":"Point","coordinates":[-115.16101,36.1115]}},{"type":"Feature","id":"5132dd72a288f42e67357bb9","properties":{"_id":"5132dd72a288f42e67357bb9","PROVIDER NPI":1356367734,"PROVIDER NAME":"Muthaiah, Ramanathan","PROVIDER STATE":"Nevada","PROVIDER CITY":"Las Vegas","PROVIDER  ADDRESS":"5061 N Rainbow Blvd Ste 180","PROVIDER ZIP 5 CD":89130,"PROVIDER ZIP 4 CD":1689,"PROVIDER PHONE NUM":7022208001,"PROVIDER PHONE EXT":"","PROGRAM YEAR":2011},"geometry":{"type":"Point","coordinates":[-115.242414,36.259458]}},{"type":"Feature","id":"5132dd72a288f42e67357bba","properties":{"_id":"5132dd72a288f42e67357bba","PROVIDER NPI":1407832231,"PROVIDER NAME":"Nachiondo, James","PROVIDER STATE":"Nevada","PROVIDER CITY":"Reno","PROVIDER  ADDRESS":"10619 Professional Cir","PROVIDER ZIP 5 CD":89521,"PROVIDER ZIP 4 CD":5831,"PROVIDER PHONE NUM":7758524848,"PROVIDER PHONE EXT":"","PROGRAM YEAR":2011},"geometry":{"type":"Point","coordinates":[-119.682355,39.384899]}},{"type":"Feature","id":"5132dd72a288f42e67357bbb","properties":{"_id":"5132dd72a288f42e67357bbb","PROVIDER NPI":1306822135,"PROVIDER NAME":"Nason, Daniel","PROVIDER STATE":"Nevada","PROVIDER CITY":"Reno","PROVIDER  ADDRESS":"880 Ryland St","PROVIDER ZIP 5 CD":89502,"PROVIDER ZIP 4 CD":1603,"PROVIDER PHONE NUM":7753294600,"PROVIDER PHONE EXT":4526,"PROGRAM YEAR":2011},