[{"type":"Feature","id":"5132dd66a288f42e673504c3","properties":{"_id":"5132dd66a288f42e673504c3","PROVIDER NPI":1316971971,"PROVIDER NAME":"Alexander, A. Herbert","PROVIDER STATE":"Idaho","PROVIDER CITY":"Ketchum","PROVIDER  ADDRESS":"100 Hospital Drive, Ste 100, PO Box 6997","PROVIDER ZIP 5 CD":83340,"PROVIDER ZIP 4 CD":6997,"PROVIDER PHONE NUM":2087270005,"PROVIDER PHONE EXT":"","PROGRAM YEAR":2011},"geometry":{"type":"Point","coordinates":[-114.485781,43.669159]}},{"type":"Feature","id":"5132dd66a288f42e673504c4","properties":{"_id":"5132dd66a288f42e673504c4","PROVIDER NPI":1811933963,"PROVIDER NAME":"ALEXANDER, CHARLOTTE","PROVIDER STATE":"Idaho","PROVIDER CITY":"KETCHUM","PROVIDER  ADDRESS":"100 HOSPITAL DR, STE 100, PO Box 6997","PROVIDER ZIP 5 CD":83340,"PROVIDER ZIP 4 CD":6997,"PROVIDER PHONE NUM":2087270005,"PROVIDER PHONE EXT":"","PROGRAM YEAR":2011},"geometry":{"type":"Point","coordinates":[-114.485781,43.669159]}},{"type":"Feature","id":"5132dd66a288f42e673504c5","properties":{"_id":"5132dd66a288f42e673504c5","PROVIDER NPI":1578556965,"PROVIDER NAME":"Alston, Nancy","PROVIDER STATE":"Idaho","PROVIDER CITY":"Pocatello","PROVIDER  ADDRESS":"Pocatello (Isu) Family Medicine, 465 Memorial Drive","PROVIDER ZIP 5 CD":83209,"PROVIDER ZIP 4 CD":1,"PROVIDER PHONE NUM":2082824700,"PROVIDER PHONE EXT":"","PROGRAM YEAR":2011},"geometry":{"type":"Point","coordinates":[-112.432808,42.872519]}},{"type":"Feature","id":"5132dd66a288f42e673504c6","properties":{"_id":"5132dd66a288f42e673504c6","PROVIDER NPI":1811059264,"PROVIDER NAME":"Anderson, Bryan","PROVIDER STATE":"Idaho","PROVIDER CITY":"Boise","PROVIDER  ADDRESS":"1072 N Liberty St, Suite 201","PROVIDER ZIP 5 CD":83704,"PROVIDER ZIP 4 CD":"","PROVIDER PHONE NUM":2083772273,"PROVIDER PHONE EXT":"","PROGRAM YEAR":2011},"geometry":{"type":"Point","coordinates":[-116.261145,43.616492]}},{"type":"Feature","id":"5132dd66a288f42e673504c7","properties":{"_id":"5132dd66a288f42e673504c7","PROVIDER NPI":1629065610,"PROVIDER NAME":"Averett, Ryan","PROVIDER STATE":"Idaho","PROVIDER CITY":"Coeur D Alene","PROVIDER  ADDRESS":"2221 N Ironwood Center Dr","PROVIDER ZIP 5 CD":83814,"PROVIDER ZIP 4 CD":2697,"PROVIDER PHONE NUM":2086673585,"PROVIDER PHONE EXT":"","PROGRAM YEAR":2011},"geometry":{"type":"Point","coordinates":[-116.754789,47.675034]}},{"type":"Feature","id":"5132dd66a288f42e673504c8","properties":{"_id":"5132dd66a288f42e673504c8","PROVIDER NPI":1184619165,"PROVIDER NAME":"Baehr, Paul","PROVIDER STATE":"Idaho","PROVIDER CITY":"Boise","PROVIDER  ADDRESS":"425 W Bannock St","PROVIDER ZIP 5 CD":83702,"PROVIDER ZIP 4 CD":6035,"PROVIDER PHONE NUM":2083431702,"PROVIDER PHONE EXT":"","PROGRAM YEAR":2011},"geometry":{"type":"Point","coordinates":[-116.197557,43.614855]}},{"type":"Feature","id":"5132dd66a288f42e673504c9","properties":{"_id":"5132dd66a288f42e673504c9","PROVIDER NPI":1134139991,"PROVIDER NAME":"BAILLIE, JON-ERIC","PROVIDER STATE":"Idaho","PROVIDER CITY":"Boise","PROVIDER  ADDRESS":"4809 W Fairview Ave","PROVIDER ZIP 5 CD":83706,"PROVIDER ZIP 4 CD":2242,"PROVIDER PHONE NUM":2083782840,"PROVIDER PHONE EXT":"","PROGRAM YEAR":2011},"geometry":{"type":"Point","coordinates":[-116.241153,43.618909]}},{"type":"Feature","id":"5132dd66a288f42e673504ca","properties":{"_id":"5132dd66a288f42e673504ca","PROVIDER NPI":1538138243,"PROVIDER NAME":"BEHREND, CLINT","PROVIDER STATE":"Idaho","PROVIDER CITY":"Idaho Falls","PROVIDER  ADDRESS":"2770 Cortez Ave","PROVIDER ZIP 5 CD":83404,"PROVIDER ZIP 4 CD":7590,"PROVIDER PHONE NUM":2085224000,"PROVIDER PHONE EXT":"","PROGRAM YEAR":2011},"geometry":{"type":"Point","coordinates":[-111.988754,43.472519]}},{"type":"Feature","id":"5132dd66a288f42e673504cb","properties":{"_id":"5132dd66a288f42e673504cb","PROVIDER NPI":1083666382,"PROVIDER NAME":"Belzer, Bruce","PROVIDER STATE":"Idaho","PROVIDER CITY":"Boise","PROVIDER  ADDRESS":"6052 W State St","PROVIDER ZIP 5 CD":83703,"PROVIDER ZIP 4 CD":2739,"PROVIDER PHONE NUM":2083447799,"PROVIDER PHONE EXT":"","PROGRAM YEAR":2011},"geometry":{"type":"Point","coordinates":[-116.264138,43.659248]}},{"type":"Feature","id":"5132dd66a288f42e673504cc","properties":{"_id":"5132dd66a288f42e673504cc","PROVIDER NPI":1881633162,"PROVIDER NAME":"Bender, Matthew","PROVIDER STATE":"Idaho","PROVIDER CITY":"Boise","PROVIDER  ADDRESS":"6052 W State St","PROVIDER ZIP 5 CD":83703,"PROVIDER ZIP 4 CD":2739,"PROVIDER PHONE NUM":2089556522,"PROVIDER PHONE EXT":"","PROGRAM YEAR":2011},"geometry":{"type":"Point","coordinates":[-116.264138,43.659248]}},{"type":"Feature","id":"5132dd66a288f42e673504cd","properties":{"_id":"5132dd66a288f42e673504cd","PROVIDER NPI":1871598631,"PROVIDER NAME":"Blank, Douglas","PROVIDER STATE":"Idaho","PROVIDER CITY":"Idaho Falls","PROVIDER  ADDRESS":"2985 Cortez Ave","PROVIDER ZIP 5 CD":83404,"PROVIDER ZIP 4 CD":7554,"PROVIDER PHONE NUM":2085233373,"PROVIDER PHONE EXT":"","PROGRAM YEAR":2011},"geometry":{"type":"Point","coordinates":[-111.988521,43.470622]}},{"type":"Feature","id":"5132dd66a288f42e673504ce","properties":{"_id":"5132dd66a288f42e673504ce","PROVIDER NPI":1336193762,"PROVIDER NAME":"Burrow, Joan","PROVIDER STATE":"Idaho","PROVIDER CITY":"Lewiston","PROVIDER  ADDRESS":"3326 1/2 4th St, Suite 4A","PROVIDER ZIP 5 CD":83501,"PROVIDER ZIP 4 CD":4406,"PROVIDER PHONE NUM":2087988228,"PROVIDER PHONE EXT":"","PROGRAM YEAR":2011},"geometry":{"type":"Point","coordinates":[-116.997144,46.41545]}},{"type":"Feature","id":"5132dd66a288f42e673504cf","properties":{"_id":"5132dd66a288f42e673504cf","PROVIDER NPI":1275698367,"PROVIDER NAME":"Burry, Jeffrey","PROVIDER STATE":"Idaho","PROVIDER CITY":"Lewiston","PROVIDER  ADDRESS":"330 Warner Dr","PROVIDER ZIP 5 CD":83501,"PROVIDER ZIP 4 CD":4441,"PROVIDER PHONE NUM":2087460193,"PROVIDER PHONE EXT":"","PROGRAM YEAR":2011},"geometry":{"type":"Point","coordinates":[-117.014684,46.383017]}},{"type":"Feature","id":"5132dd66a288f42e673504d0","properties":{"_id":"5132dd66a288f42e673504d0","PROVIDER NPI":1659590677,"PROVIDER NAME":"Butler, Christopher","PROVIDER STATE":"Idaho","PROVIDER CITY":"Coeur D Alene","PROVIDER  ADDRESS":"2221 N Ironwood Center Dr","PROVIDER ZIP 5 CD":83814,"PROVIDER ZIP 4 CD":2697,"PROVIDER PHONE NUM":2086673585,"PROVIDER PHONE EXT":"","PROGRAM YEAR":2011},"geometry":{"type":"Point","coordinates":[-116.754789,47.675034]}},{"type":"Feature","id":"5132dd66a288f42e673504d1","properties":{"_id":"5132dd66a288f42e673504d1","PROVIDER NPI":1578568242,"PROVIDER NAME":"Chambers, John","PROVIDER STATE":"Idaho","PROVIDER CITY":"Idaho Falls","PROVIDER  ADDRESS":"2985 Cortez Ave","PROVIDER ZIP 5 CD":83404,"PROVIDER ZIP 4 CD":7554,"PROVIDER PHONE NUM":2085233373,"PROVIDER PHONE EXT":"","PROGRAM YEAR":2011},"geometry":{"type":"Point","coordinates":[-111.988521,43.470622]}},{"type":"Feature","id":"5132dd66a288f42e673504d2","properties":{"_id":"5132dd66a288f42e673504d2","PROVIDER NPI":1487688990,"PROVIDER NAME":"Christensen, Brent","PROVIDER STATE":"Idaho","PROVIDER CITY":"Pocatello","PROVIDER  ADDRESS":"1777 E Clark St, Suite 220","PROVIDER ZIP 5 CD":83201,"PROVIDER ZIP 4 CD":3357,"PROVIDER PHONE NUM":2082351777,"PROVIDER PHONE EXT":"","PROGRAM YEAR":2011},"geometry":{"type":"Point","coordinates":[-112.432378,42.874801]}},{"type":"Feature","id":"5132dd66a288f42e673504d3","properties":{"_id":"5132dd66a288f42e673504d3","PROVIDER NPI":1366443699,"PROVIDER NAME":"Christensen, Kelli","PROVIDER STATE":"Idaho","PROVIDER CITY":"Pocatello","PROVIDER  ADDRESS":"465 Memorial Drive","PROVIDER ZIP 5 CD":83201,"PROVIDER ZIP 4 CD":"","PROVIDER PHONE NUM":2082824700,"PROVIDER PHONE EXT":"","PROGRAM YEAR":2011},"geometry":{"type":"Point","coordinates":[-112.431326,42.868543]}},{"type":"Feature","id":"5132dd66a288f42e673504d4","properties":{"_id":"5132dd66a288f42e673504d4","PROVIDER NPI":1003012204,"PROVIDER NAME":"Clair, Charles","PROVIDER STATE":"Idaho","PROVIDER CITY":"Pocatello","PROVIDER  ADDRESS":"465 Memorial Dr","PROVIDER ZIP 5 CD":83201,"PROVIDER ZIP 4 CD":"","PROVIDER PHONE NUM":2082824700,"PROVIDER PHONE EXT":"","PROGRAM YEAR":2011},"geometry":{"type":"Point","coordinates":[-112.431326,42.868543]}},{"type":"Feature","id":"5132dd66a288f42e673504d5","properties":{"_id":"5132dd66a288f42e673504d5","PROVIDER NPI":1285639948,"PROVIDER NAME":"Coffman, Kim","PROVIDER STATE":"Idaho","PROVIDER CITY":"Idaho Falls","PROVIDER  ADDRESS":"2985 Cortez Ave","PROVIDER ZIP 5 CD":83404,"PROVIDER ZIP 4 CD":7554,"PROVIDER PHONE NUM":2085233373,"PROVIDER PHONE EXT":"","PROGRAM YEAR":2011},"geometry":{"type":"Point","coordinates":[-111.988521,43.470622]}},{"type":"Feature","id":"5132dd66a288f42e673504d6","properties":{"_id":"5132dd66a288f42e673504d6","PROVIDER NPI":1144213554,"PROVIDER NAME":"Cree, Jonathan","PROVIDER STATE":"Idaho","PROVIDER CITY":"Pocatello","PROVIDER  ADDRESS":"Pocatello (Isu) Family Medicine, 465 Memorial Drive","PROVIDER ZIP 5 CD":83209,"PROVIDER ZIP 4 CD":1,"PROVIDER PHONE NUM":2082824700,"PROVIDER PHONE EXT":"","PROGRAM YEAR":2011},"geometry":{"type":"Point","coordinates":[-112.432808,42.872519]}},{"type":"Feature","id":"5132dd66a288f42e673504d7","properties":{"_id":"5132dd66a288f42e673504d7","PROVIDER NPI":1720194632,"PROVIDER NAME":"Cromwell, Philip","PROVIDER STATE":"Idaho","PROVIDER CITY":"Preston","PROVIDER  ADDRESS":"134 N State St, Suite A","PROVIDER ZIP 5 CD":83263,"PROVIDER ZIP 4 CD":1143,"PROVIDER PHONE NUM":2088523030,"PROVIDER PHONE EXT":"","PROGRAM YEAR":2011},"geometry":{"type":"Point","coordinates":[-111.876693,42.093391]}},{"type":"Feature","id":"5132dd66a288f42e673504d8","properties":{"_id":"5132dd66a288f42e673504d8","PROVIDER NPI":1346259520,"PROVIDER NAME":"Crum, Eric","PROVIDER STATE":"Idaho","PROVIDER CITY":"Boise","PROVIDER  ADDRESS":"1390 S. Maple Grove Road, Suite 200","PROVIDER ZIP 5 CD":83709,"PROVIDER ZIP 4 CD":1562,"PROVIDER PHONE NUM":2086720100,"PROVIDER PHONE EXT":"","PROGRAM YEAR":2011},"geometry":{"type":"Point","coordinates":[-116.294045,43.592537]}},{"type":"Feature","id":"5132dd66a288f42e673504d9","properties":{"_id":"5132dd66a288f42e673504d9","PROVIDER NPI":1437180841,"PROVIDER NAME":"DAVIS, ASHLEY","PROVIDER STATE":"Idaho","PROVIDER CITY":"Boise","PROVIDER  ADDRESS":"222 N 2nd St Ste 204","PROVIDER ZIP 5 CD":83702,"PROVIDER ZIP 4 CD":6130,"PROVIDER PHONE NUM":2084299100,"PROVIDER PHONE EXT":"","PROGRAM YEAR":2011},"geometry":{"type":"Point","coordinates":[-116.195505,43.612941]}},{"type":"Feature","id":"5132dd66a288f42e673504da","properties":{"_id":"5132dd66a288f42e673504da","PROVIDER NPI":1164533485,"PROVIDER NAME":"Davis, James","PROVIDER STATE":"Idaho","PROVIDER CITY":"Jerome","PROVIDER  ADDRESS":"201 South Lincoln","PROVIDER ZIP 5 CD":83338,"PROVIDER ZIP 4 CD":2624,"PROVIDER PHONE NUM":2083244363,"PROVIDER PHONE EXT":"","PROGRAM YEAR":2011},"geometry":{"type":"Point","coordinates":[-114.51852,42.723149]}},{"type":"Feature","id":"5132dd66a288f42e673504db","properties":{"_id":"5132dd66a288f42e673504db","PROVIDER NPI":1336273085,"PROVIDER NAME":"DENAGY, STEPHEN","PROVIDER STATE":"Idaho","PROVIDER CITY":"Idaho Falls","PROVIDER  ADDRESS":"1740 E 17th st","PROVIDER ZIP 5 CD":83404,"PROVIDER ZIP 4 CD":"","PROVIDER PHONE NUM":2083467500,"PROVIDER PHONE EXT":"","PROGRAM YEAR":2011},"geometry":{"type":"Point","coordinates":[-111.998997,43.482237]}},{"type":"Feature","id":"5132dd66a288f42e673504dc","properties":{"_id":"5132dd66a288f42e673504dc","PROVIDER NPI":1285689034,"PROVIDER NAME":"Dockter, Lisa","PROVIDER STATE":"Idaho","PROVIDER CITY":"Meridian","PROVIDER  ADDRESS":"3115 E Florence Dr","PROVIDER ZIP 5 CD":83642,"PROVIDER ZIP 4 CD":1586,"PROVIDER PHONE NUM":2089556522,"PROVIDER PHONE EXT":"","PROGRAM YEAR":2011},"geometry":{"type":"Point","coordinates":[-116.348294,43.616577]}},{"type":"Feature","id":"5132dd66a288f42e673504dd","properties":{"_id":"5132dd66a288f42e673504dd","PROVIDER NPI":1194816769,"PROVIDER NAME":"Doyle, Colin","PROVIDER STATE":"Idaho","PROVIDER CITY":"Lewiston","PROVIDER  ADDRESS":"330 Warner Dr","PROVIDER ZIP 5 CD":83501,"PROVIDER ZIP 4 CD":4441,"PROVIDER PHONE NUM":2087460193,"PROVIDER PHONE EXT":"","PROGRAM YEAR":2011},"geometry":{"type":"Point","coordinates":[-117.014684,46.383017]}},{"type":"Feature","id":"5132dd66a288f42e673504de","properties":{"_id":"5132dd66a288f42e673504de","PROVIDER NPI":1417066911,"PROVIDER NAME":"Draluck, Jeffrey","PROVIDER STATE":"Idaho","PROVIDER CITY":"Northbrook","PROVIDER  ADDRESS":"400 Skokie Blvd, Suite 475","PROVIDER ZIP 5 CD":60062,"PROVIDER ZIP 4 CD":7930,"PROVIDER PHONE NUM":8472724433,"PROVIDER PHONE EXT":"","PROGRAM YEAR":2011},"geometry":{"type":"Point","coordinates":[-87.796484,42.145379]}},{"type":"Feature","id":"5132dd66a288f42e673504df","properties":{"_id":"5132dd66a288f42e673504df","PROVIDER NPI":1578517579,"PROVIDER NAME":"Eichelberger, Steven","PROVIDER STATE":"Idaho","PROVIDER CITY":"Meridian","PROVIDER  ADDRESS":"1130 E Fairview Ave","PROVIDER ZIP 5 CD":83642,"PROVIDER ZIP 4 CD":1813,"PROVIDER PHONE NUM":2089556522,"PROVIDER PHONE EXT":"","PROGRAM YEAR":2011},"geometry":{"type":"Point","coordinates":[-116.380287,43.619461]}},{"type":"Feature","id":"5132dd66a288f42e673504e0","properties":{"_id":"5132dd66a288f42e673504e0","PROVIDER NPI":1669540522,"PROVIDER NAME":"Evans, Larry","PROVIDER STATE":"Idaho","PROVIDER CITY":"Idaho Falls","PROVIDER  ADDRESS":"2770 Cortez Ave","PROVIDER ZIP 5 CD":83404,"PROVIDER ZIP 4 CD":7590,"PROVIDER PHONE NUM":2085224000,"PROVIDER PHONE EXT":"","PROGRAM YEAR":2011},"geometry":{"type":"Point","coordinates":[-111.988754,43.472519]}},{"type":"Feature","id":"5132dd66a288f42e673504e1","properties":{"_id":"5132dd66a288f42e673504e1","PROVIDER NPI":1497788160,"PROVIDER NAME":"Ganz, William","PROVIDER STATE":"Idaho","PROVIDER CITY":"Coeur D Alene","PROVIDER  ADDRESS":"2236 N Merrit Creek Loop, Suite A","PROVIDER ZIP 5 CD":83814,"PROVIDER ZIP 4 CD":4960,"PROVIDER PHONE NUM":2086645467,"PROVIDER PHONE EXT":"","PROGRAM YEAR":2011},"geometry":{"type":"Point","coordinates":[-116.699255,47.66021]}},{"type":"Feature","id":"5132dd66a288f42e673504e2","properties":{"_id":"5132dd66a288f42e673504e2","PROVIDER NPI":1003881970,"PROVIDER NAME":"Ge-Zerbe, Lynn","PROVIDER STATE":"Idaho","PROVIDER CITY":"Meridian","PROVIDER  ADDRESS":"3080 E Gentry Way, Suite 201","PROVIDER ZIP 5 CD":83642,"PROVIDER ZIP 4 CD":3013,"PROVIDER PHONE NUM":2083876546,"PROVIDER PHONE EXT":"","PROGRAM YEAR":2011},"geometry":{"type":"Point","coordinates":[-116.99032,43.612709]}},{"type":"Feature","id":"5132dd66a288f42e673504e3","properties":{"_id":"5132dd66a288f42e673504e3","PROVIDER NPI":1053465559,"PROVIDER NAME":"Gibbon, Lawrence","PROVIDER STATE":"Idaho","PROVIDER CITY":"Post Falls","PROVIDER  ADDRESS":"185 W 4th Avenue, Suite B","PROVIDER ZIP 5 CD":83854,"PROVIDER ZIP 4 CD":7298,"PROVIDER PHONE NUM":2087731592,"PROVIDER PHONE EXT":"","PROGRAM YEAR":2011},"geometry":{"type":"Point","coordinates":[-117.026896,47.773141]}},{"type":"Feature","id":"5132dd66a288f42e673504e4","properties":{"_id":"5132dd66a288f42e673504e4","PROVIDER NPI":1669416137,"PROVIDER NAME":"Grajcar, Mark","PROVIDER STATE":"Idaho","PROVIDER CITY":"Meridian","PROVIDER  ADDRESS":"2640 S Eagle Rd","PROVIDER ZIP 5 CD":83642,"PROVIDER ZIP 4 CD":6704,"PROVIDER PHONE NUM":2088840835,"PROVIDER PHONE EXT":"","PROGRAM YEAR":2011},"geometry":{"type":"Point","coordinates":[-116.35437,43.581101]}},{"type":"Feature","id":"5132dd66a288f42e673504e5","properties":{"_id":"5132dd66a288f42e673504e5","PROVIDER NPI":1386612414,"PROVIDER NAME":"Green, Johnny","PROVIDER STATE":"Idaho","PROVIDER CITY":"Boise","PROVIDER  ADDRESS":"1072 N Liberty St, Suite 201","PROVIDER ZIP 5 CD":83704,"PROVIDER ZIP 4 CD":8706,"PROVIDER PHONE NUM":2083772273,"PROVIDER PHONE EXT":"","PROGRAM YEAR":2011},"geometry":{"type":"Point","coordinates":[-116.261145,43.616492]}},{"type":"Feature","id":"5132dd66a288f42e673504e6","properties":{"_id":"5132dd66a288f42e673504e6","PROVIDER NPI":1386692333,"PROVIDER NAME":"Green, Lawrence","PROVIDER STATE":"Idaho","PROVIDER CITY":"Nampa","PROVIDER  ADDRESS":"16060 Idaho Center Blvd","PROVIDER ZIP 5 CD":83687,"PROVIDER ZIP 4 CD":"","PROVIDER PHONE NUM":2084673368,"PROVIDER PHONE EXT":"","PROGRAM YEAR":2011},"geometry":{"type":"Point","coordinates":[-116.513043,43.606471]}},{"type":"Feature","id":"5132dd66a288f42e673504e7","properties":{"_id":"5132dd66a288f42e673504e7","PROVIDER NPI":1679681738,"PROVIDER NAME":"GRIFFITHS, STAN","PROVIDER STATE":"Idaho","PROVIDER CITY":"Idaho Falls","PROVIDER  ADDRESS":"2321 Coronado St","PROVIDER ZIP 5 CD":83404,"PROVIDER ZIP 4 CD":"","PROVIDER PHONE NUM":2082271100,"PROVIDER PHONE EXT":1108,"PROGRAM YEAR":2011},"geometry":{"type":"Point","coordinates":[-111.988754,43.472519]}},{"type":"Feature","id":"5132dd66a288f42e673504e8","properties":{"_id":"5132dd66a288f42e673504e8","PROVIDER NPI":1851313704,"PROVIDER NAME":"Grigg, Lisa","PROVIDER STATE":"Idaho","PROVIDER CITY":"Kuna","PROVIDER  ADDRESS":"943 Linder Rd, Ste 102","PROVIDER ZIP 5 CD":83634,"PROVIDER ZIP 4 CD":3394,"PROVIDER PHONE NUM":2089223060,"PROVIDER PHONE EXT":"","PROGRAM YEAR":2011},"geometry":{"type":"Point","coordinates":[-116.413636,43.495788]}},{"type":"Feature","id":"5132dd66a288f42e673504e9","properties":{"_id":"5132dd66a288f42e673504e9","PROVIDER NPI":1780698522,"PROVIDER NAME":"Grigg, Robert","PROVIDER STATE":"Idaho","PROVIDER CITY":"Kuna","PROVIDER  ADDRESS":"943 Linder Rd, Ste 102","PROVIDER ZIP 5 CD":83634,"PROVIDER ZIP 4 CD":3394,"PROVIDER PHONE NUM":2089223060,"PROVIDER PHONE EXT":"","PROGRAM YEAR":2011},"geometry":{"type":"Point","coordinates":[-116.413636,43.495788]}},{"type":"Feature","id":"5132dd66a288f42e673504ea","properties":{"_id":"5132dd66a288f42e673504ea","PROVIDER NPI":1639280951,"PROVIDER NAME":"Grill, Robert","PROVIDER STATE":"Idaho","PROVIDER CITY":"Twin Falls","PROVIDER  ADDRESS":"844 Shoshone St E","PROVIDER ZIP 5 CD":83301,"PROVIDER ZIP 4 CD":6336,"PROVIDER PHONE NUM":2087349800,"PROVIDER PHONE EXT":"","PROGRAM YEAR":2011},"geometry":{"type":"Point","coordinates":[-114.46329,42.560877]}},{"type":"Feature","id":"5132dd66a288f42e673504eb","properties":{"_id":"5132dd66a288f42e673504eb","PROVIDER NPI":1790713204,"PROVIDER NAME":"Hamblin, Derek","PROVIDER STATE":"Idaho","PROVIDER CITY":"Meridian","PROVIDER  ADDRESS":"3115 E Florence Dr","PROVIDER ZIP 5 CD":83642,"PROVIDER ZIP 4 CD":1586,"PROVIDER PHONE NUM":2089556522,"PROVIDER PHONE EXT":"","PROGRAM YEAR":2011},"geometry":{"type":"Point","coordinates":[-116.348294,43.616577]}},{"type":"Feature","id":"5132dd66a288f42e673504ec","properties":{"_id":"5132dd66a288f42e673504ec","PROVIDER NPI":1427051192,"PROVIDER NAME":"Harper, Dennis","PROVIDER STATE":"Idaho","PROVIDER CITY":"Orofino","PROVIDER  ADDRESS":"10620 Highway 12","PROVIDER ZIP 5 CD":83544,"PROVIDER ZIP 4 CD":"","PROVIDER PHONE NUM":2084763158,"PROVIDER PHONE EXT":"","PROGRAM YEAR":2011},"geometry":{"type":"Point","coordinates":[-116.342828,46.50383]}},{"type":"Feature","id":"5132dd66a288f42e673504ed","properties":{"_id":"5132dd66a288f42e673504ed","PROVIDER NPI":1013970698,"PROVIDER NAME":"Haug, Robert","PROVIDER STATE":"Idaho","PROVIDER CITY":"Moscow","PROVIDER  ADDRESS":"102 S Washington St","PROVIDER ZIP 5 CD":83843,"PROVIDER ZIP 4 CD":2842,"PROVIDER PHONE NUM":2088823012,"PROVIDER PHONE EXT":"","PROGRAM YEAR":2011},"geometry":{"type":"Point","coordinates":[-116.99997,46.733668]}},{"type":"Feature","id":"5132dd66a288f42e673504ee","properties":{"_id":"5132dd66a288f42e673504ee","PROVIDER NPI":1225186398,"PROVIDER NAME":"Henderson, Lance","PROVIDER STATE":"Idaho","PROVIDER CITY":"Preston","PROVIDER  ADDRESS":"134 N State St","PROVIDER ZIP 5 CD":83263,"PROVIDER ZIP 4 CD":1143,"PROVIDER PHONE NUM":2088523030,"PROVIDER PHONE EXT":"","PROGRAM YEAR":2011},"geometry":{"type":"Point","coordinates":[-111.876541,42.099079]}},{"type":"Feature","id":"5132dd66a288f42e673504ef","properties":{"_id":"5132dd66a288f42e673504ef","PROVIDER NPI":1649249947,"PROVIDER NAME":"HENDRIX, PAUL","PROVIDER STATE":"Idaho","PROVIDER CITY":"Idaho Falls","PROVIDER  ADDRESS":"2770 Cortez Ave","PROVIDER ZIP 5 CD":83404,"PROVIDER ZIP 4 CD":7590,"PROVIDER PHONE NUM":2085224000,"PROVIDER PHONE EXT":"","PROGRAM YEAR":2011},"geometry":{"type":"Point","coordinates":[-111.988754,43.472519]}},{"type":"Feature","id":"5132dd66a288f42e673504f0","properties":{"_id":"5132dd66a288f42e673504f0","PROVIDER NPI":1568466167,"PROVIDER NAME":"HOLTZ, ANDREW","PROVIDER STATE":"Idaho","PROVIDER CITY":"BOISE","PROVIDER  ADDRESS":"4809 W FAIRVIEW AVE","PROVIDER ZIP 5 CD":83706,"PROVIDER ZIP 4 CD":2242,"PROVIDER PHONE NUM":2083782840,"PROVIDER PHONE EXT":"","PROGRAM YEAR":2011},"geometry":{"type":"Point","coordinates":[-116.241153,43.618909]}},{"type":"Feature","id":"5132dd66a288f42e673504f1","properties":{"_id":"5132dd66a288f42e673504f1","PROVIDER NPI":1992093561,"PROVIDER NAME":"Howard, Karson","PROVIDER STATE":"Idaho","PROVIDER CITY":"Pocatello","PROVIDER  ADDRESS":"1555 E Clark St","PROVIDER ZIP 5 CD":83201,"PROVIDER ZIP 4 CD":4133,"PROVIDER PHONE NUM":2082334355,"PROVIDER PHONE EXT":"","PROGRAM YEAR":2011},"geometry":{"type":"Point","coordinates":[-112.43473,42.873363]}},{"type":"Feature","id":"5132dd66a288f42e673504f2","properties":{"_id":"5132dd66a288f42e673504f2","PROVIDER NPI":1245216647,"PROVIDER NAME":"Howard, Kert","PROVIDER STATE":"Idaho","PROVIDER CITY":"Pocatello","PROVIDER  ADDRESS":"1555 E Clark St","PROVIDER ZIP 5 CD":83201,"PROVIDER ZIP 4 CD":4133,"PROVIDER PHONE NUM":2082334355,"PROVIDER PHONE EXT":"","PROGRAM YEAR":2011},"geometry":{"type":"Point","coordinates":[-112.43473,42.873363]}},{"type":"Feature","id":"5132dd66a288f42e673504f3","properties":{"_id":"5132dd66a288f42e673504f3","PROVIDER NPI":1174518740,"PROVIDER NAME":"Hunter, Ellen","PROVIDER STATE":"Idaho","PROVIDER CITY":"Boise","PROVIDER  ADDRESS":"425 W Bannock St","PROVIDER ZIP 5 CD":83702,"PROVIDER ZIP 4 CD":6035,"PROVIDER PHONE NUM":2083431702,"PROVIDER PHONE EXT":"","PROGRAM YEAR":2011},"geometry":{"type":"Point","coordinates":[-116.197557,43.614855]}},{"type":"Feature","id":"5132dd66a288f42e673504f4","properties":{"_id":"5132dd66a288f42e673504f4","PROVIDER NPI":1427102938,"PROVIDER NAME":"Jacobsen, Cher","PROVIDER STATE":"Idaho","PROVIDER CITY":"Post Falls","PROVIDER  ADDRESS":"185 W 4th Avenue, Suite B","PROVIDER ZIP 5 CD":83854,"PROVIDER ZIP 4 CD":7298,"PROVIDER PHONE NUM":2087731592,"PROVIDER PHONE EXT":"","PROGRAM YEAR":2011},"geometry":{"type":"Point","coordinates":[-117.026896,47.773141]}},{"type":"Feature","id":"5132dd66a288f42e673504f5","properties":{"_id":"5132dd66a288f42e673504f5","PROVIDER NPI":1386713881,"PROVIDER NAME":"James, Michael","PROVIDER STATE":"Idaho","PROVIDER CITY":"Coeur D Alene","PROVIDER  ADDRESS":"1607 Lincoln Way, Suite 200","PROVIDER ZIP 5 CD":83814,"PROVIDER ZIP 4 CD":2476,"PROVIDER PHONE NUM":2086675483,"PROVIDER PHONE EXT":"","PROGRAM YEAR":2011},"geometry":{"type":"Point","coordinates":[-116.699255,47.66021]}},{"type":"Feature","id":"5132dd66a288f42e673504f6","properties":{"_id":"5132dd66a288f42e673504f6","PROVIDER NPI":1629111497,"PROVIDER NAME":"James, Michael","PROVIDER STATE":"Idaho","PROVIDER CITY":"Idaho Falls","PROVIDER  ADDRESS":"3345 S Holmes Ave","PROVIDER ZIP 5 CD":83404,"PROVIDER ZIP 4 CD":7981,"PROVIDER PHONE NUM":2085286225,"PROVIDER PHONE EXT":"","PROGRAM YEAR":2011},"geometry":{"type":"Point","coordinates":[-112.023689,43.467752]}},{"type":"Feature","id":"5132dd66a288f42e673504f7","properties":{"_id":"5132dd66a288f42e673504f7","PROVIDER NPI":1134114713,"PROVIDER NAME":"Jensen, Philip","PROVIDER STATE":"Idaho","PROVIDER CITY":"Boise","PROVIDER  ADDRESS":"425 W Bannock St","PROVIDER ZIP 5 CD":83702,"PROVIDER ZIP 4 CD":6035,"PROVIDER PHONE NUM":2083431702,"PROVIDER PHONE EXT":"","PROGRAM YEAR":2011},"geometry":{"type":"Point","coordinates":[-116.197557,43.614855]}},{"type":"Feature","id":"5132dd66a288f42e673504f8","properties":{"_id":"5132dd66a288f42e673504f8","PROVIDER NPI":1528092202,"PROVIDER NAME":"Johnson, Christopher","PROVIDER STATE":"Idaho","PROVIDER CITY":"Pocatello","PROVIDER  ADDRESS":"950 Hospital Way, Suite A","PROVIDER ZIP 5 CD":83201,"PROVIDER ZIP 4 CD":2789,"PROVIDER PHONE NUM":2084784522,"PROVIDER PHONE EXT":"","PROGRAM YEAR":2011},"geometry":{"type":"Point","coordinates":[-112.4181,42.871462]}},{"type":"Feature","id":"5132dd66a288f42e673504f9","properties":{"_id":"5132dd66a288f42e673504f9","PROVIDER NPI":1376707034,"PROVIDER NAME":"Johnson, Mark","PROVIDER STATE":"Idaho","PROVIDER CITY":"Meridian","PROVIDER  ADDRESS":"1130 E Fairview Ave","PROVIDER ZIP 5 CD":83642,"PROVIDER ZIP 4 CD":1813,"PROVIDER PHONE NUM":2088889393,"PROVIDER PHONE EXT":"","PROGRAM YEAR":2011},"geometry":{"type":"Point","coordinates":[-116.380287,43.619461]}},{"type":"Feature","id":"5132dd66a288f42e673504fa","properties":{"_id":"5132dd66a288f42e673504fa","PROVIDER NPI":1881601698,"PROVIDER NAME":"Johnson, Sara","PROVIDER STATE":"Idaho","PROVIDER CITY":"Twin Falls","PROVIDER  ADDRESS":"496 Shoup Ave W, Suite E","PROVIDER ZIP 5 CD":83301,"PROVIDER ZIP 4 CD":"","PROVIDER PHONE NUM":2087332885,"PROVIDER PHONE EXT":"","PROGRAM YEAR":2011},"geometry":{"type":"Point","coordinates":[-114.455362,42.564934]}},{"type":"Feature","id":"5132dd66a288f42e673504fb","properties":{"_id":"5132dd66a288f42e673504fb","PROVIDER NPI":1285642322,"PROVIDER NAME":"Johnson, Teresa","PROVIDER STATE":"Idaho","PROVIDER CITY":"Idaho Falls","PROVIDER  ADDRESS":"1995 E 17th St, Suite 5","PROVIDER ZIP 5 CD":83404,"PROVIDER ZIP 4 CD":6493,"PROVIDER PHONE NUM":2085292544,"PROVIDER PHONE EXT":"","PROGRAM YEAR":2011},"geometry":{"type":"Point","coordinates":[-111.993114,43.482416]}},{"type":"Feature","id":"5132dd66a288f42e673504fc","properties":{"_id":"5132dd66a288f42e673504fc","PROVIDER NPI":1255426912,"PROVIDER NAME":"Jones, Cody","PROVIDER STATE":"Idaho","PROVIDER CITY":"Blackfoot","PROVIDER  ADDRESS":"34 SE Main St, Ste 101","PROVIDER ZIP 5 CD":83221,"PROVIDER ZIP 4 CD":5094,"PROVIDER PHONE NUM":2087857274,"PROVIDER PHONE EXT":"","PROGRAM YEAR":2011},"geometry":{"type":"Point","coordinates":[-112.34429,43.187947]}},{"type":"Feature","id":"5132dd66a288f42e673504fd","properties":{"_id":"5132dd66a288f42e673504fd","PROVIDER NPI":1679538466,"PROVIDER NAME":"JONES, ERIK","PROVIDER STATE":"Idaho","PROVIDER CITY":"Boise","PROVIDER  ADDRESS":"222 N 2nd St, SUITE 202","PROVIDER ZIP 5 CD":83702,"PROVIDER ZIP 4 CD":6109,"PROVIDER PHONE NUM":2083446080,"PROVIDER PHONE EXT":"","PROGRAM YEAR":2011},"geometry":{"type":"Point","coordinates":[-116.195505,43.612941]}},{"type":"Feature","id":"5132dd66a288f42e673504fe","properties":{"_id":"5132dd66a288f42e673504fe","PROVIDER NPI":1700998226,"PROVIDER NAME":"Kaltenbaugh, Orie","PROVIDER STATE":"Idaho","PROVIDER CITY":"Lewiston","PROVIDER  ADDRESS":"307 Saint Johns Way, STE 1","PROVIDER ZIP 5 CD":83501,"PROVIDER ZIP 4 CD":2435,"PROVIDER PHONE NUM":2087462132,"PROVIDER PHONE EXT":"","PROGRAM YEAR":2011},"geometry":{"type":"Point","coordinates":[-117.004566,46.421703]}},{"type":"Feature","id":"5132dd66a288f42e673504ff","properties":{"_id":"5132dd66a288f42e673504ff","PROVIDER NPI":1740486216,"PROVIDER NAME":"Kanning, Nathan","PROVIDER STATE":"Idaho","PROVIDER CITY":"Sandpoint","PROVIDER  ADDRESS":"502 N 2nd Ave","PROVIDER ZIP 5 CD":83864,"PROVIDER ZIP 4 CD":1558,"PROVIDER PHONE NUM":2082631421,"PROVIDER PHONE EXT":"","PROGRAM YEAR":2011},"geometry":{"type":"Point","coordinates":[-116.548667,48.277169]}},{"type":"Feature","id":"5132dd66a288f42e67350500","properties":{"_id":"5132dd66a288f42e67350500","PROVIDER NPI":1104864511,"PROVIDER NAME":"Kaufman, Jay","PROVIDER STATE":"Idaho","PROVIDER CITY":"Idaho Falls","PROVIDER  ADDRESS":"2985 Cortez Ave","PROVIDER ZIP 5 CD":83404,"PROVIDER ZIP 4 CD":2985,"PROVIDER PHONE NUM":2085233373,"PROVIDER PHONE EXT":"","PROGRAM YEAR":2011},"geometry":{"type":"Point","coordinates":[-111.988521,43.470622]}},{"type":"Feature","id":"5132dd66a288f42e67350501","properties":{"_id":"5132dd66a288f42e67350501","PROVIDER NPI":1952351710,"PROVIDER NAME":"KLOMP, GERARD","PROVIDER STATE":"Idaho","PROVIDER CITY":"Boise","PROVIDER  ADDRESS":"125 E Idaho St, SUITE 201","PROVIDER ZIP 5 CD":83712,"PROVIDER ZIP 4 CD":6212,"PROVIDER PHONE NUM":2089556522,"PROVIDER PHONE EXT":"","PROGRAM YEAR":2011},"geometry":{"type":"Point","coordinates":[-116.194363,43.612016]}},{"type":"Feature","id":"5132dd66a288f42e67350502","properties":{"_id":"5132dd66a288f42e67350502","PROVIDER NPI":1770796583,"PROVIDER NAME":"Lee, Richard","PROVIDER STATE":"Idaho","PROVIDER CITY":"Idaho Falls","PROVIDER  ADDRESS":"3446 S. 15th E.","PROVIDER ZIP 5 CD":83404,"PROVIDER ZIP 4 CD":"","PROVIDER PHONE NUM":2085226335,"PROVIDER PHONE EXT":"","PROGRAM YEAR":2011},"geometry":{"type":"Point","coordinates":[-112.004154,43.467923]}},{"type":"Feature","id":"5132dd66a288f42e67350503","properties":{"_id":"5132dd66a288f42e67350503","PROVIDER NPI":1932109931,"PROVIDER NAME":"LILJENQUIST, DAVID","PROVIDER STATE":"Idaho","PROVIDER CITY":"Idaho Falls","PROVIDER  ADDRESS":"3910 Washington Parkway","PROVIDER ZIP 5 CD":83404,"PROVIDER ZIP 4 CD":7542,"PROVIDER PHONE NUM":2085231122,"PROVIDER PHONE EXT":"","PROGRAM YEAR":2011},"geometry":{"type":"Point","coordinates":[-111.961334,43.514213]}},{"type":"Feature","id":"5132dd66a288f42e67350504","properties":{"_id":"5132dd66a288f42e67350504","PROVIDER NPI":1730174301,"PROVIDER NAME":"Lloyd, Mark","PROVIDER STATE":"Idaho","PROVIDER CITY":"Meridian","PROVIDER  ADDRESS":"2235 E Gala St","PROVIDER ZIP 5 CD":83642,"PROVIDER ZIP 4 CD":8026,"PROVIDER PHONE NUM":2088873724,"PROVIDER PHONE EXT":"","PROGRAM YEAR":2011},"geometry":{"type":"Point","coordinates":[-116.981961,44.263859]}},{"type":"Feature","id":"5132dd66a288f42e67350505","properties":{"_id":"5132dd66a288f42e67350505","PROVIDER NPI":1316945876,"PROVIDER NAME":"Lyman, Jeffrey","PROVIDER STATE":"Idaho","PROVIDER CITY":"Coeur D Alene","PROVIDER  ADDRESS":"700 W Ironwood Drive, Suite 214","PROVIDER ZIP 5 CD":83814,"PROVIDER ZIP 4 CD":"","PROVIDER PHONE NUM":2087580716,"PROVIDER PHONE EXT":"","PROGRAM YEAR":2011},"geometry":{"type":"Point","coordinates":[-116.699291,47.663444]}},{"type":"Feature","id":"5132dd66a288f42e67350506","properties":{"_id":"5132dd66a288f42e67350506","PROVIDER NPI":1699712034,"PROVIDER NAME":"LYONS, ROBERT","PROVIDER STATE":"Idaho","PROVIDER CITY":"Boise","PROVIDER  ADDRESS":"8971 W Overland Rd","PROVIDER ZIP 5 CD":83709,"PROVIDER ZIP 4 CD":1651,"PROVIDER PHONE NUM":2089556522,"PROVIDER PHONE EXT":"","PROGRAM YEAR":2011},"geometry":{"type":"Point","coordinates":[-116.266707,43.590095]}},{"type":"Feature","id":"5132dd66a288f42e67350507","properties":{"_id":"5132dd66a288f42e67350507","PROVIDER NPI":1346241296,"PROVIDER NAME":"Mahan, John","PROVIDER STATE":"Idaho","PROVIDER CITY":"Meridian","PROVIDER  ADDRESS":"3080 E Gentry Way, Suite 200","PROVIDER ZIP 5 CD":83642,"PROVIDER ZIP 4 CD":3013,"PROVIDER PHONE NUM":2088843770,"PROVIDER PHONE EXT":"","PROGRAM YEAR":2011},"geometry":{"type":"Point","coordinates":[-116.99032,43.612709]}},{"type":"Feature","id":"5132dd66a288f42e67350508","properties":{"_id":"5132dd66a288f42e67350508","PROVIDER NPI":1043235377,"PROVIDER NAME":"Mallea, Michael","PROVIDER STATE":"Idaho","PROVIDER CITY":"Boise","PROVIDER  ADDRESS":"5610 W Gage St, Suite A","PROVIDER ZIP 5 CD":83706,"PROVIDER ZIP 4 CD":1349,"PROVIDER PHONE NUM":2083673370,"PROVIDER PHONE EXT":"","PROGRAM YEAR":2011},"geometry":{"type":"Point","coordinates":[-116.251564,43.613516]}},{"type":"Feature","id":"5132dd66a288f42e67350509","properties":{"_id":"5132dd66a288f42e67350509","PROVIDER NPI":1083665129,"PROVIDER NAME":"MALLORY, NANCY","PROVIDER STATE":"Idaho","PROVIDER CITY":"Eagle","PROVIDER  ADDRESS":"435 S Eagle Rd, Suite 100","PROVIDER ZIP 5 CD":83616,"PROVIDER ZIP 4 CD":6067,"PROVIDER PHONE NUM":2089556522,"PROVIDER PHONE EXT":"","PROGRAM YEAR":2011},"geometry":{"type":"Point","coordinates":[-116.326715,43.698322]}},{"type":"Feature","id":"5132dd66a288f42e6735050a","properties":{"_id":"5132dd66a288f42e6735050a","PROVIDER NPI":1477548220,"PROVIDER NAME":"Marshall, Dennis","PROVIDER STATE":"Idaho","PROVIDER CITY":"Blackfoot","PROVIDER  ADDRESS":"1495 Parkway Dr Ste A","PROVIDER ZIP 5 CD":83221,"PROVIDER ZIP 4 CD":1639,"PROVIDER PHONE NUM":2087853063,"PROVIDER PHONE EXT":"","PROGRAM YEAR":2011},"geometry":{"type":"Point","coordinates":[-112.36331,43.193642]}},{"type":"Feature","id":"5132dd66a288f42e6735050b","properties":{"_id":"5132dd66a288f42e6735050b","PROVIDER NPI":1730297706,"PROVIDER NAME":"MCCOWIN, PHILIP","PROVIDER STATE":"Idaho","PROVIDER CITY":"Idaho Falls","PROVIDER  ADDRESS":"2321 Coronado St","PROVIDER ZIP 5 CD":83404,"PROVIDER ZIP 4 CD":7407,"PROVIDER PHONE NUM":2082271100,"PROVIDER PHONE EXT":1137,"PROGRAM YEAR":2011},"geometry":{"type":"Point","coordinates":[-111.988754,43.472519]}},{"type":"Feature","id":"5132dd66a288f42e6735050c","properties":{"_id":"5132dd66a288f42e6735050c","PROVIDER NPI":1831143692,"PROVIDER NAME":"MCHUGH, TIMOTHY","PROVIDER STATE":"Idaho","PROVIDER CITY":"Meridian","PROVIDER  ADDRESS":"1001 N Meridian Rd","PROVIDER ZIP 5 CD":83642,"PROVIDER ZIP 4 CD":1610,"PROVIDER PHONE NUM":2088844800,"PROVIDER PHONE EXT":"","PROGRAM YEAR":2011},"geometry":{"type":"Point","coordinates":[-116.393546,43.612854]}},{"type":"Feature","id":"5132dd66a288f42e6735050d","properties":{"_id":"5132dd66a288f42e6735050d","PROVIDER NPI":1780621128,"PROVIDER NAME":"Michaud, Mark","PROVIDER STATE":"Idaho","PROVIDER CITY":"Boise","PROVIDER  ADDRESS":"1907 S Broadway Ave Ste 101","PROVIDER ZIP 5 CD":83706,"PROVIDER ZIP 4 CD":4201,"PROVIDER PHONE NUM":2089556522,"PROVIDER PHONE EXT":"","PROGRAM YEAR":2011},"geometry":{"type":"Point","coordinates":[-116.193461,43.608007]}},{"type":"Feature","id":"5132dd66a288f42e6735050e","properties":{"_id":"5132dd66a288f42e6735050e","PROVIDER NPI":1417987686,"PROVIDER NAME":"Mickelsen, Brandon","PROVIDER STATE":"Idaho","PROVIDER CITY":"Pocatello","PROVIDER  ADDRESS":"1951 Bench Rd Ste B","PROVIDER ZIP 5 CD":83201,"PROVIDER ZIP 4 CD":2073,"PROVIDER PHONE NUM":2082381000,"PROVIDER PHONE EXT":"","PROGRAM YEAR":2011},"geometry":{"type":"Point","coordinates":[-112.426697,42.910631]}},{"type":"Feature","id":"5132dd66a288f42e6735050f","properties":{"_id":"5132dd66a288f42e6735050f","PROVIDER NPI":1316901275,"PROVIDER NAME":"Mills, Denise","PROVIDER STATE":"Idaho","PROVIDER CITY":"Meridian","PROVIDER  ADDRESS":"3115 E Florence Dr","PROVIDER ZIP 5 CD":83642,"PROVIDER ZIP 4 CD":1586,"PROVIDER PHONE NUM":2089556522,"PROVIDER PHONE EXT":"","PROGRAM YEAR":2011},"geometry":{"type":"Point","coordinates":[-116.348294,43.616577]}},{"type":"Feature","id":"5132dd66a288f42e67350510","properties":{"_id":"5132dd66a288f42e67350510","PROVIDER NPI":1003858465,"PROVIDER NAME":"Moffett, Darryl","PROVIDER STATE":"Idaho","PROVIDER CITY":"Ammon","PROVIDER  ADDRESS":"3544 East 17th Street, Suite 105","PROVIDER ZIP 5 CD":83406,"PROVIDER ZIP 4 CD":7546,"PROVIDER PHONE NUM":2085354900,"PROVIDER PHONE EXT":"","PROGRAM YEAR":2011},"geometry":{"type":"Point","coordinates":[-111.965314,43.409627]}},{"type":"Feature","id":"5132dd66a288f42e67350511","properties":{"_id":"5132dd66a288f42e67350511","PROVIDER NPI":1588794135,"PROVIDER NAME":"Morse, Chad","PROVIDER STATE":"Idaho","PROVIDER CITY":"Meridian","PROVIDER  ADDRESS":"2235 E Gala St","PROVIDER ZIP 5 CD":83642,"PROVIDER ZIP 4 CD":2798,"PROVIDER PHONE NUM":2088873724,"PROVIDER PHONE EXT":"","PROGRAM YEAR":2011},"geometry":{"type":"Point","coordinates":[-116.981961,44.263859]}},{"type":"Feature","id":"5132dd66a288f42e67350512","properties":{"_id":"5132dd66a288f42e67350512","PROVIDER NPI":1558307280,"PROVIDER NAME":"Mullins, John","PROVIDER STATE":"Idaho","PROVIDER CITY":"Nampa","PROVIDER  ADDRESS":"700 Caldwell Blvd","PROVIDER ZIP 5 CD":83651,"PROVIDER ZIP 4 CD":1707,"PROVIDER PHONE NUM":2089556522,"PROVIDER PHONE EXT":"","PROGRAM YEAR":2011},"geometry":{"type":"Point","coordinates":[-116.590248,43.596969]}},{"type":"Feature","id":"5132dd66a288f42e67350513","properties":{"_id":"5132dd66a288f42e67350513","PROVIDER NPI":1619974441,"PROVIDER NAME":"Neher, Richard","PROVIDER STATE":"Idaho","PROVIDER CITY":"Sandpoint","PROVIDER  ADDRESS":"502 N Second Ave Ste 3","PROVIDER ZIP 5 CD":83864,"PROVIDER ZIP 4 CD":1558,"PROVIDER PHONE NUM":2082631421,"PROVIDER PHONE EXT":"","PROGRAM YEAR":2011},"geometry":{"type":"Point","coordinates":[-116.516631,48.312235]}},{"type":"Feature","id":"5132dd66a288f42e67350514","properties":{"_id":"5132dd66a288f42e67350514","PROVIDER NPI":1730340365,"PROVIDER NAME":"Nielsen, Travis","PROVIDER STATE":"Idaho","PROVIDER CITY":"Pocatello","PROVIDER  ADDRESS":"1951 Bench Rd, Suite B","PROVIDER ZIP 5 CD":83201,"PROVIDER ZIP 4 CD":2073,"PROVIDER PHONE NUM":2082381000,"PROVIDER PHONE EXT":"","PROGRAM YEAR":2011},"geometry":{"type":"Point","coordinates":[-112.426697,42.910631]}},{"type":"Feature","id":"5132dd66a288f42e67350515","properties":{"_id":"5132dd66a288f42e67350515","PROVIDER NPI":1821274259,"PROVIDER NAME":"Nunez, Orlando","PROVIDER STATE":"Idaho","PROVIDER CITY":"Coeur d'Alene","PROVIDER  ADDRESS":"101 W Ironwood Dr., Suite 131","PROVIDER ZIP 5 CD":83814,"PROVIDER ZIP 4 CD":1409,"PROVIDER PHONE NUM":2086660605,"PROVIDER PHONE EXT":"","PROGRAM YEAR":2011},"geometry":{"type":"Point","coordinates":[-116.699291,47.663444]}},{"type":"Feature","id":"5132dd66a288f42e67350516","properties":{"_id":"5132dd66a288f42e67350516","PROVIDER NPI":1932259892,"PROVIDER NAME":"PACKER, FLINT","PROVIDER STATE":"Idaho","PROVIDER CITY":"Idaho Falls","PROVIDER  ADDRESS":"3614 Washington Pkwy","PROVIDER ZIP 5 CD":83404,"PROVIDER ZIP 4 CD":7573,"PROVIDER PHONE NUM":2085527700,"PROVIDER PHONE EXT":"","PROGRAM YEAR":2011},"geometry":{"type":"Point","coordinates":[-111.962525,43.51417]}},{"type":"Feature","id":"5132dd66a288f42e67350517","properties":{"_id":"5132dd66a288f42e67350517","PROVIDER NPI":1760403364,"PROVIDER NAME":"Pilling, Cory","PROVIDER STATE":"Idaho","PROVIDER CITY":"Twin Falls","PROVIDER  ADDRESS":"676 Shoup Ave W Ste 12","PROVIDER ZIP 5 CD":83301,"PROVIDER ZIP 4 CD":4615,"PROVIDER PHONE NUM":2087330436,"PROVIDER PHONE EXT":"","PROGRAM YEAR":2011},"geometry":{"type":"Point","coordinates":[-114.494005,42.565985]}},{"type":"Feature","id":"5132dd66a288f42e67350518","properties":{"_id":"5132dd66a288f42e67350518","PROVIDER NPI":1457527772,"PROVIDER NAME":"Poston, Jason","PROVIDER STATE":"Idaho","PROVIDER CITY":"Idaho Falls","PROVIDER  ADDRESS":"2375 E Sunnyside Rd, Suite \"J\"","PROVIDER ZIP 5 CD":83404,"PROVIDER ZIP 4 CD":8280,"PROVIDER PHONE NUM":2085227246,"PROVIDER PHONE EXT":"","PROGRAM YEAR":2011},"geometry":{"type":"Point","coordinates":[-111.98476,43.467984]}},{"type":"Feature","id":"5132dd66a288f42e67350519","properties":{"_id":"5132dd66a288f42e67350519","PROVIDER NPI":1093884363,"PROVIDER NAME":"Price, Jared","PROVIDER STATE":"Idaho","PROVIDER CITY":"Pocatello","PROVIDER  ADDRESS":"1951 Bench Rd Ste B","PROVIDER ZIP 5 CD":83201,"PROVIDER ZIP 4 CD":2073,"PROVIDER PHONE NUM":2082381000,"PROVIDER PHONE EXT":"","PROGRAM YEAR":2011},"geometry":{"type":"Point","coordinates":[-112.426697,42.910631]}},{"type":"Feature","id":"5132dd66a288f42e6735051a","properties":{"_id":"5132dd66a288f42e6735051a","PROVIDER NPI":1326152927,"PROVIDER NAME":"PRINCE, CLAY","PROVIDER STATE":"Idaho","PROVIDER CITY":"Rexburg","PROVIDER  ADDRESS":"393 E 2nd N","PROVIDER ZIP 5 CD":83440,"PROVIDER ZIP 4 CD":1605,"PROVIDER PHONE NUM":2083565401,"PROVIDER PHONE EXT":"","PROGRAM YEAR":2011},"geometry":{"type":"Point","coordinates":[-111.772658,43.830348]}},{"type":"Feature","id":"5132dd66a288f42e6735051b","properties":{"_id":"5132dd66a288f42e6735051b","PROVIDER NPI":1154431542,"PROVIDER NAME":"Ravsten, Deric","PROVIDER STATE":"Idaho","PROVIDER CITY":"Pocatello","PROVIDER  ADDRESS":"1777 E Clark St, Suite 210","PROVIDER ZIP 5 CD":83201,"PROVIDER ZIP 4 CD":3357,"PROVIDER PHONE NUM":2082335433,"PROVIDER PHONE EXT":"","PROGRAM YEAR":2011},"geometry":{"type":"Point","coordinates":[-112.432378,42.874801]}},{"type":"Feature","id":"5132dd66a288f42e6735051c","properties":{"_id":"5132dd66a288f42e6735051c","PROVIDER NPI":1699719807,"PROVIDER NAME":"Reed, Daniel","PROVIDER STATE":"Idaho","PROVIDER CITY":"Eagle","PROVIDER  ADDRESS":"435 S Eagle Rd, Suite 100","PROVIDER ZIP 5 CD":83616,"PROVIDER ZIP 4 CD":6067,"PROVIDER PHONE NUM":2089556522,"PROVIDER PHONE EXT":"","PROGRAM YEAR":2011},"geometry":{"type":"Point","coordinates":[-116.326715,43.698322]}},{"type":"Feature","id":"5132dd66a288f42e6735051d","properties":{"_id":"5132dd66a288f42e6735051d","PROVIDER NPI":1053379610,"PROVIDER NAME":"Ricks, Jamie","PROVIDER STATE":"Idaho","PROVIDER CITY":"Boise","PROVIDER  ADDRESS":"2031 E Hospitality Lane, Suite 150","PROVIDER ZIP 5 CD":83716,"PROVIDER ZIP 4 CD":"","PROVIDER PHONE NUM":2083362225,"PROVIDER PHONE EXT":"","PROGRAM YEAR":2011},"geometry":{"type":"Point","coordinates":[-115.944475,43.546065]}},{"type":"Feature","id":"5132dd66a288f42e6735051e","properties":{"_id":"5132dd66a288f42e6735051e","PROVIDER NPI":1316143886,"PROVIDER NAME":"Ringo, Shelley","PROVIDER STATE":"Idaho","PROVIDER CITY":"Boise","PROVIDER  ADDRESS":"6052 W State St","PROVIDER ZIP 5 CD":83703,"PROVIDER ZIP 4 CD":2739,"PROVIDER PHONE NUM":2089556522,"PROVIDER PHONE EXT":"","PROGRAM YEAR":2011},"geometry":{"type":"Point","coordinates":[-116.264138,43.659248]}},{"type":"Feature","id":"5132dd66a288f42e6735051f","properties":{"_id":"5132dd66a288f42e6735051f","PROVIDER NPI":1740289248,"PROVIDER NAME":"Roderick, Jeff","PROVIDER STATE":"Idaho","PROVIDER CITY":"REXBURG","PROVIDER  ADDRESS":"1096 Erikson Drive","PROVIDER ZIP 5 CD":83440,"PROVIDER ZIP 4 CD":1913,"PROVIDER PHONE NUM":2086563205,"PROVIDER PHONE EXT":"","PROGRAM YEAR":2011},"geometry":{"type":"Point","coordinates":[-111.771375,43.79132]}},{"type":"Feature","id":"5132dd66a288f42e67350520","properties":{"_id":"5132dd66a288f42e67350520","PROVIDER NPI":1962439356,"PROVIDER NAME":"Ryan, Paul","PROVIDER STATE":"Idaho","PROVIDER CITY":"Meridian","PROVIDER  ADDRESS":"2640 S Eagle Rd","PROVIDER ZIP 5 CD":83642,"PROVIDER ZIP 4 CD":6704,"PROVIDER PHONE NUM":2088840835,"PROVIDER PHONE EXT":"","PROGRAM YEAR":2011},"geometry":{"type":"Point","coordinates":[-116.35437,43.581101]}},{"type":"Feature","id":"5132dd66a288f42e67350521","properties":{"_id":"5132dd66a288f42e67350521","PROVIDER NPI":1629075551,"PROVIDER NAME":"Savarise, Mark","PROVIDER STATE":"Idaho","PROVIDER CITY":"Sandpoint","PROVIDER  ADDRESS":"502 N Second Ave Ste 3","PROVIDER ZIP 5 CD":83864,"PROVIDER ZIP 4 CD":1558,"PROVIDER PHONE NUM":2082631421,"PROVIDER PHONE EXT":"","PROGRAM YEAR":2011},"geometry":{"type":"Point","coordinates":[-116.516631,48.312235]}},{"type":"Feature","id":"5132dd66a288f42e67350522","properties":{"_id":"5132dd66a288f42e67350522","PROVIDER NPI":1629022116,"PROVIDER NAME":"Schlickman, Louis","PROVIDER STATE":"Idaho","PROVIDER CITY":"Meridian","PROVIDER  ADDRESS":"3080 E Gentry Way, Suite 200","PROVIDER ZIP 5 CD":83642,"PROVIDER ZIP 4 CD":3013,"PROVIDER PHONE NUM":2088843770,"PROVIDER PHONE EXT":"","PROGRAM YEAR":2011},"geometry":{"type":"Point","coordinates":[-116.99032,43.612709]}},{"type":"Feature","id":"5132dd66a288f42e67350523","properties":{"_id":"5132dd66a288f42e67350523","PROVIDER NPI":1194871871,"PROVIDER NAME":"Sericati, Matthew","PROVIDER STATE":"Idaho","PROVIDER CITY":"Boise","PROVIDER  ADDRESS":"425 W Bannock St","PROVIDER ZIP 5 CD":83702,"PROVIDER ZIP 4 CD":6035,"PROVIDER PHONE NUM":2083431702,"PROVIDER PHONE EXT":"","PROGRAM YEAR":2011},"geometry":{"type":"Point","coordinates":[-116.197557,43.614855]}},{"type":"Feature","id":"5132dd66a288f42e67350524","properties":{"_id":"5132dd66a288f42e67350524","PROVIDER NPI":1457537862,"PROVIDER NAME":"Shelton, Jared","PROVIDER STATE":"Idaho","PROVIDER CITY":"Soda Springs","PROVIDER  ADDRESS":"45 W Center St","PROVIDER ZIP 5 CD":83276,"PROVIDER ZIP 4 CD":1530,"PROVIDER PHONE NUM":2085474518,"PROVIDER PHONE EXT":"","PROGRAM YEAR":2011},"geometry":{"type":"Point","coordinates":[-111.605446,42.655668]}},{"type":"Feature","id":"5132dd66a288f42e67350525","properties":{"_id":"5132dd66a288f42e67350525","PROVIDER NPI":1770694093,"PROVIDER NAME":"Snapp, Steven","PROVIDER STATE":"Idaho","PROVIDER CITY":"Hailey","PROVIDER  ADDRESS":"110 North 1st Ave","PROVIDER ZIP 5 CD":83333,"PROVIDER ZIP 4 CD":8407,"PROVIDER PHONE NUM":2087884120,"PROVIDER PHONE EXT":"","PROGRAM YEAR":2011},"geometry":{"type":"Point","coordinates":[-114.314225,43.520303]}},{"type":"Feature","id":"5132dd66a288f42e67350526","properties":{"_id":"5132dd66a288f42e67350526","PROVIDER NPI":1578613337,"PROVIDER NAME":"SOUTHWICK, BOYD","PROVIDER STATE":"Idaho","PROVIDER CITY":"Idaho Falls","PROVIDER  ADDRESS":"3614 Washington Pkwy","PROVIDER ZIP 5 CD":83404,"PROVIDER ZIP 4 CD":7573,"PROVIDER PHONE NUM":2085527700,"PROVIDER PHONE EXT":"","PROGRAM YEAR":2011},"geometry":{"type":"Point","coordinates":[-111.962525,43.51417]}},{"type":"Feature","id":"5132dd66a288f42e67350527","properties":{"_id":"5132dd66a288f42e67350527","PROVIDER NPI":1912952730,"PROVIDER NAME":"Spruce, Duard","PROVIDER STATE":"Idaho","PROVIDER CITY":"Boise","PROVIDER  ADDRESS":"8971 W Overland Rd, Primary Health Medical Group","PROVIDER ZIP 5 CD":83709,"PROVIDER ZIP 4 CD":1651,"PROVIDER PHONE NUM":2089556522,"PROVIDER PHONE EXT":"","PROGRAM YEAR":2011},"geometry":{"type":"Point","coordinates":[-116.266707,43.590095]}},{"type":"Feature","id":"5132dd66a288f42e67350528","properties":{"_id":"5132dd66a288f42e67350528","PROVIDER NPI":1144263963,"PROVIDER NAME":"Stebel, Todd","PROVIDER STATE":"Idaho","PROVIDER CITY":"Boise","PROVIDER  ADDRESS":"13075 Persimmon Ln Suite A","PROVIDER ZIP 5 CD":83713,"PROVIDER ZIP 4 CD":"","PROVIDER PHONE NUM":2089389900,"PROVIDER PHONE EXT":"","PROGRAM YEAR":2011},"geometry":{"type":"Point","coordinates":[-116.344917,43.647826]}},{"type":"Feature","id":"5132dd66a288f42e67350529","properties":{"_id":"5132dd66a288f42e67350529","PROVIDER NPI":1104870567,"PROVIDER NAME":"Stewart, James","PROVIDER STATE":"Idaho","PROVIDER CITY":"Boise","PROVIDER  ADDRESS":"7733 W Emerald St","PROVIDER ZIP 5 CD":83704,"PROVIDER ZIP 4 CD":9020,"PROVIDER PHONE NUM":2083763220,"PROVIDER PHONE EXT":"","PROGRAM YEAR":2011},"geometry":{"type":"Point","coordinates":[-116.278115,43.612825]}},{"type":"Feature","id":"5132dd66a288f42e6735052a","properties":{"_id":"5132dd66a288f42e6735052a","PROVIDER NPI":1821065368,"PROVIDER NAME":"Stolpe, Mark","PROVIDER STATE":"Idaho","PROVIDER CITY":"Boise","PROVIDER  ADDRESS":"1907 S Broadway Ave # 101","PROVIDER ZIP 5 CD":83706,"PROVIDER ZIP 4 CD":4201,"PROVIDER PHONE NUM":2089556500,"PROVIDER PHONE EXT":"","PROGRAM YEAR":2011},"geometry":{"type":"Point","coordinates":[-116.193461,43.608007]}},{"type":"Feature","id":"5132dd66a288f42e6735052b","properties":{"_id":"5132dd66a288f42e6735052b","PROVIDER NPI":1306948062,"PROVIDER NAME":"stone, janine","PROVIDER STATE":"Idaho","PROVIDER CITY":"Boise","PROVIDER  ADDRESS":"10787 Ustick Rd","PROVIDER ZIP 5 CD":83713,"PROVIDER ZIP 4 CD":5104,"PROVIDER PHONE NUM":2083788011,"PROVIDER PHONE EXT":"","PROGRAM YEAR":2011},"geometry":{"type":"Point","coordinates":[-116.316233,43.633843]}},{"type":"Feature","id":"5132dd66a288f42e6735052c","properties":{"_id":"5132dd66a288f42e6735052c","PROVIDER NPI":1558362483,"PROVIDER NAME":"Swayze, Charles","PROVIDER STATE":"Idaho","PROVIDER CITY":"Coeur D Alene","PROVIDER  ADDRESS":"402 W Canfield Ave, Ste 3","PROVIDER ZIP 5 CD":83815,"PROVIDER ZIP 4 CD":7784,"PROVIDER PHONE NUM":2087629000,"PROVIDER PHONE EXT":"","PROGRAM YEAR":2011},"geometry":{"type":"Point","coordinates":[-116.834388,47.730536]}},{"type":"Feature","id":"5132dd66a288f42e6735052d","properties":{"_id":"5132dd66a288f42e6735052d","PROVIDER NPI":1417901638,"PROVIDER NAME":"Torquato, John","PROVIDER STATE":"Idaho","PROVIDER CITY":"Hayden","PROVIDER  ADDRESS":"265 W. Prairie Shopping Center","PROVIDER ZIP 5 CD":83835,"PROVIDER ZIP 4 CD":2639,"PROVIDER PHONE NUM":2087727850,"PROVIDER PHONE EXT":"","PROGRAM YEAR":2011},"geometry":{"type":"Point","coordinates":[-116.790194,47.74679]}},{"type":"Feature","id":"5132dd66a288f42e6735052e","properties":{"_id":"5132dd66a288f42e6735052e","PROVIDER NPI":1982656591,"PROVIDER NAME":"Tubach, Martin","PROVIDER STATE":"Idaho","PROVIDER CITY":"Boise","PROVIDER  ADDRESS":"6052 W State St","PROVIDER ZIP 5 CD":83703,"PROVIDER ZIP 4 CD":2739,"PROVIDER PHONE NUM":2089556522,"PROVIDER PHONE EXT":"","PROGRAM YEAR":2011},"geometry":{"type":"Point","coordinates":[-116.264138,43.659248]}},{"type":"Feature","id":"5132dd66a288f42e6735052f","properties":{"_id":"5132dd66a288f42e6735052f","PROVIDER NPI":1083609663,"PROVIDER NAME":"Uhlmann, Richard","PROVIDER STATE":"Idaho","PROVIDER CITY":"Boise","PROVIDER  ADDRESS":"425 W Bannock St","PROVIDER ZIP 5 CD":83702,"PROVIDER ZIP 4 CD":6035,"PROVIDER PHONE NUM":2083431702,"PROVIDER PHONE EXT":"","PROGRAM YEAR":2011},"geometry":{"type":"Point","coordinates":[-116.197557,43.614855]}},{"type":"Feature","id":"5132dd66a288f42e67350530","properties":{"_id":"5132dd66a288f42e67350530","PROVIDER NPI":1437159423,"PROVIDER NAME":"VANCE, CARL","PROVIDER STATE":"Idaho","PROVIDER CITY":"Idaho Falls","PROVIDER  ADDRESS":"3910 Washington Pkwy","PROVIDER ZIP 5 CD":83404,"PROVIDER ZIP 4 CD":7596,"PROVIDER PHONE NUM":2085231122,"PROVIDER PHONE EXT":"","PROGRAM YEAR":2011},"geometry":{"type":"Point","coordinates":[-111.961334,43.514213]}},{"type":"Feature","id":"5132dd66a288f42e67350531","properties":{"_id":"5132dd66a288f42e67350531","PROVIDER NPI":1215972831,"PROVIDER NAME":"Vincent, Jennifer","PROVIDER STATE":"Idaho","PROVIDER CITY":"Eagle","PROVIDER  ADDRESS":"435 S Eagle Rd, Suite 100","PROVIDER ZIP 5 CD":83616,"PROVIDER ZIP 4 CD":6067,"PROVIDER PHONE NUM":2089398200,"PROVIDER PHONE EXT":"","PROGRAM YEAR":2011},"geometry":{"type":"Point","coordinates":[-116.326715,43.698322]}},{"type":"Feature","id":"5132dd66a288f42e67350532","properties":{"_id":"5132dd66a288f42e67350532","PROVIDER NPI":1770578759,"PROVIDER NAME":"Waite, Bonnie Kim","PROVIDER STATE":"Idaho","PROVIDER CITY":"Boise","PROVIDER  ADDRESS":"425 W Bannock St","PROVIDER ZIP 5 CD":83702,"PROVIDER ZIP 4 CD":6035,"PROVIDER PHONE NUM":2083431702,"PROVIDER PHONE EXT":"","PROGRAM YEAR":2011},"geometry":{"type":"Point","coordinates":[-116.197557,43.614855]}},{"type":"Feature","id":"5132dd66a288f42e67350533","properties":{"_id":"5132dd66a288f42e67350533","PROVIDER NPI":1235175027,"PROVIDER NAME":"WARNER, NED","PROVIDER STATE":"Idaho","PROVIDER CITY":"Idaho Falls","PROVIDER  ADDRESS":"2770 Cortez Ave","PROVIDER ZIP 5 CD":83404,"PROVIDER ZIP 4 CD":7590,"PROVIDER PHONE NUM":2085224000,"PROVIDER PHONE EXT":"","PROGRAM YEAR":2011},"geometry":{"type":"Point","coordinates":[-111.988754,43.472519]}},{"type":"Feature","id":"5132dd66a288f42e67350534","properties":{"_id":"5132dd66a288f42e67350534","PROVIDER NPI":1598701757,"PROVIDER NAME":"Weiss, James","PROVIDER STATE":"Idaho","PROVIDER CITY":"Meridian","PROVIDER  ADDRESS":"1130 E Fairview Ave","PROVIDER ZIP 5 CD":83642,"PROVIDER ZIP 4 CD":1813,"PROVIDER PHONE NUM":2089556522,"PROVIDER PHONE EXT":"","PROGRAM YEAR":2011},"geometry":{"type":"Point","coordinates":[-116.380287,43.619461]}},{"type":"Feature","id":"5132dd66a288f42e67350535","properties":{"_id":"5132dd66a288f42e67350535","PROVIDER NPI":1912015074,"PROVIDER NAME":"WEST, GREGORY","PROVIDER STATE":"Idaho","PROVIDER CITY":"Idaho Falls","PROVIDER  ADDRESS":"2321 Coronado St","PROVIDER ZIP 5 CD":83404,"PROVIDER ZIP 4 CD":7407,"PROVIDER PHONE NUM":2082271100,"PROVIDER PHONE EXT":1108,"PROGRAM YEAR":2011},"geometry":{"type":"Point","coordinates":[-111.988754,43.472519]}},{"type":"Feature","id":"5132dd66a288f42e67350536","properties":{"_id":"5132dd66a288f42e67350536","PROVIDER NPI":1184669889,"PROVIDER NAME":"Westbrook, Sharon","PROVIDER STATE":"Idaho","PROVIDER CITY":"Boise","PROVIDER  ADDRESS":"6052 W State St","PROVIDER ZIP 5 CD":83703,"PROVIDER ZIP 4 CD":2739,"PROVIDER PHONE NUM":2089556522,"PROVIDER PHONE EXT":"","PROGRAM YEAR":2011},"geometry":{"type":"Point","coordinates":[-116.264138,43.659248]}},{"type":"Feature","id":"5132dd66a288f42e67350537","properties":{"_id":"5132dd66a288f42e67350537","PROVIDER NPI":1205840832,"PROVIDER NAME":"white, scott","PROVIDER STATE":"Idaho","PROVIDER CITY":"Rexburg","PROVIDER  ADDRESS":"1096 Erikson Dr","PROVIDER ZIP 5 CD":83440,"PROVIDER ZIP 4 CD":5297,"PROVIDER PHONE NUM":2086563205,"PROVIDER PHONE EXT":"","PROGRAM YEAR":2011},"geometry":{"type":"Point","coordinates":[-111.771375,43.79132]}},{"type":"Feature","id":"5132dd66a288f42e67350538","properties":{"_id":"5132dd66a288f42e67350538","PROVIDER NPI":1205980422,"PROVIDER NAME":"Wiesenhutter, Craig","PROVIDER STATE":"Idaho","PROVIDER CITY":"Coeur D Alene","PROVIDER  ADDRESS":"950 W Ironwood Dr","PROVIDER ZIP 5 CD":83814,"PROVIDER ZIP 4 CD":2644,"PROVIDER PHONE NUM":2087655457,"PROVIDER PHONE EXT":"","PROGRAM YEAR":2011},"geometry":{"type":"Point","coordinates":[-116.799312,47.696021]}},{"type":"Feature","id":"5132dd66a288f42e67350539","properties":{"_id":"5132dd66a288f42e67350539","PROVIDER NPI":1649381955,"PROVIDER NAME":"Williams, Kyle","PROVIDER STATE":"Idaho","PROVIDER CITY":"Ketchum","PROVIDER  ADDRESS":"180 1st Ave N","PROVIDER ZIP 5 CD":83340,"PROVIDER ZIP 4 CD":6129,"PROVIDER PHONE NUM":2087263363,"PROVIDER PHONE EXT":"","PROGRAM YEAR":2011},"geometry":{"type":"Point","coordinates":[-114.36452,43.678468]}},{"type":"Feature","id":"5132dd66a288f42e6735053a","properties":{"_id":"5132dd66a288f42e6735053a","PROVIDER NPI":1821150285,"PROVIDER NAME":"Williams, Shauna","PROVIDER STATE":"Idaho","PROVIDER CITY":"Boise","PROVIDER  ADDRESS":"1072 N Liberty St, Suite 201","PROVIDER ZIP 5 CD":83704,"PROVIDER ZIP 4 CD":1341,"PROVIDER PHONE NUM":2083772273,"PROVIDER PHONE EXT":"","PROGRAM YEAR":2011},"geometry":{"type":"Point","coordinates":[-116.261145,43.616492]}},{"type":"Feature","id":"5132dd66a288f42e6735053b","properties":{"_id":"5132dd66a288f42e6735053b","PROVIDER NPI":1437128733,"PROVIDER NAME":"WILLIAMS, TODD","PROVIDER STATE":"Idaho","PROVIDER CITY":"Idaho Falls","PROVIDER  ADDRESS":"2770 Cortez Ave","PROVIDER ZIP 5 CD":83404,"PROVIDER ZIP 4 CD":7590,"PROVIDER PHONE NUM":2085224000,"PROVIDER PHONE EXT":"","PROGRAM YEAR":2011},"geometry":{"type":"Point","coordinates":[-111.988754,43.472519]}},{"type":"Feature","id":"5132dd66a288f42e6735053c","properties":{"_id":"5132dd66a288f42e6735053c","PROVIDER NPI":1063407641,"PROVIDER NAME":"Witte, John","PROVIDER STATE":"Idaho","PROVIDER CITY":"Meridian","PROVIDER  ADDRESS":"2235 E Gala St","PROVIDER ZIP 5 CD":83642,"PROVIDER ZIP 4 CD":8026,"PROVIDER PHONE NUM":2088873724,"PROVIDER PHONE EXT":"","PROGRAM YEAR":2011},"geometry":{"type":"Point","coordinates":[-116.981961,44.263859]}},{"type":"Feature","id":"5132dd66a288f42e6735053d","properties":{"_id":"5132dd66a288f42e6735053d","PROVIDER NPI":1659367993,"PROVIDER NAME":"Wood, David","PROVIDER STATE":"Idaho","PROVIDER CITY":"Boise","PROVIDER  ADDRESS":"425 W Bannock St","PROVIDER ZIP 5 CD":83702,"PROVIDER ZIP 4 CD":6035,"PROVIDER PHONE NUM":2083431702,"PROVIDER PHONE EXT":"","PROGRAM YEAR":2011},"geometry":{"type":"Point","coordinates":[-116.197557,43.614855]}},{"type":"Feature","id":"5132dd66a288f42e6735053e","properties":{"_id":"5132dd66a288f42e6735053e","PROVIDER NPI":1760531859,"PROVIDER NAME":"woodhouse, william","PROVIDER STATE":"Idaho","PROVIDER CITY":"Pocatello","PROVIDER  ADDRESS":"465 Memorial Dr","PROVIDER ZIP 5 CD":83201,"PROVIDER ZIP 4 CD":4008,"PROVIDER PHONE NUM":2082824700,"PROVIDER PHONE EXT":"","PROGRAM YEAR":2011},"geometry":{"type":"Point","coordinates":[-112.431326,42.868543]}},{"type":"Feature","id":"5132dd66a288f42e6735053f","properties":{"_id":"5132dd66a288f42e6735053f","PROVIDER NPI":1518952175,"PROVIDER NAME":"Woods, Judith","PROVIDER STATE":"Idaho","PROVIDER CITY":"Meridian","PROVIDER  ADDRESS":"2235 E Gala St","PROVIDER ZIP 5 CD":83642,"PROVIDER ZIP 4 CD":8026,"PROVIDER PHONE NUM":2088873724,"PROVIDER PHONE EXT":"","PROGRAM YEAR":2011},"geometry":{"type":"Point","coordinates":[-116.981961,44.263859]}},{"type":"Feature","id":"5132dd66a288f42e67350540","properties":{"_id":"5132dd66a288f42e67350540","PROVIDER NPI":1588738769,"PROVIDER NAME":"Wright, Derek","PROVIDER STATE":"Idaho","PROVIDER CITY":"Pocatello","PROVIDER  ADDRESS":"465 Memorial Dr","PROVIDER ZIP 5 CD":83201,"PROVIDER ZIP 4 CD":4008,"PROVIDER PHONE NUM":2082084700,"PROVIDER PHONE EXT":"","PROGRAM YEAR":2011},"geometry":{"type":"Point","coordinates":[-112.431326,42.868543]}},{"type":"Feature","id":"5132dd66a288f42e67350541","properties":{"_id":"5132dd66a288f42e67350541","PROVIDER NPI":1265477962,"PROVIDER NAME":"Yerger, James","PROVIDER STATE":"Idaho","PROVIDER CITY":"Boise","PROVIDER  ADDRESS":"6052 W State St","PROVIDER ZIP 5 CD":83703,"PROVIDER ZIP 4 CD":2739,"PROVIDER PHONE NUM":2083447799,"PROVIDER PHONE EXT":"","PROGRAM YEAR":2011},"geometry":{"type":"Point","coordinates":[-116.264138,43.659248]}},{"type":"Feature","id":"5132dd66a288f42e67350542","properties":{"_id":"5132dd66a288f42e67350542","PROVIDER NPI":1629147103,"PROVIDER NAME":"Young, Gavin","PROVIDER STATE":"Idaho","PROVIDER CITY":"Coeur D Alene","PROVIDER  ADDRESS":"1607 Lincoln Way, Suite 200","PROVIDER ZIP 5 CD":83814,"PROVIDER ZIP 4 CD":2476,"PROVIDER PHONE NUM":2086675483,"PROVIDER PHONE EXT":"","PROGRAM YEAR":2011},"geometry":{"type":"Point","coordinates":[-116.699255,47.66021]}},{"type":"Feature","id":"5132dd66a288f42e67350543","properties":{"_id":"5132dd66a288f42e67350543","PROVIDER NPI":1851345193,"PROVIDER NAME":"Adcox, Micheal","PROVIDER STATE":"Idaho","PROVIDER CITY":"Boise","PROVIDER  ADDRESS":"333 N 1st St, Suite 140","PROVIDER ZIP 5 CD":83702,"PROVIDER ZIP 4 CD":6100,"PROVIDER PHONE NUM":2083819026,"PROVIDER PHONE EXT":"","PROGRAM YEAR":2012},"geometry":{"type":"Point","coordinates":[-116.193665,43.613273]}},{"type":"Feature","id":"5132dd66a288f42e67350544","properties":{"_id":"5132dd66a288f42e67350544","PROVIDER NPI":1992789564,"PROVIDER NAME":"Ader, John","PROVIDER STATE":"Idaho","PROVIDER CITY":"Nampa","PROVIDER  ADDRESS":"215 E Hawaii Ave","PROVIDER ZIP 5 CD":83686,"PROVIDER ZIP 4 CD":"","PROVIDER PHONE NUM":2084633291,"PROVIDER PHONE EXT":"","PROGRAM YEAR":2012},"geometry":{"type":"Point","coordinates":[-116.570931,43.555046]}},{"type":"Feature","id":"5132dd66a288f42e67350545","properties":{"_id":"5132dd66a288f42e67350545","PROVIDER NPI":1295804250,"PROVIDER NAME":"Ahmad, Naseer","PROVIDER STATE":"Idaho","PROVIDER CITY":"Coeur d'Alene","PROVIDER  ADDRESS":"2003 Kootenai Health Way","PROVIDER ZIP 5 CD":83814,"PROVIDER ZIP 4 CD":"","PROVIDER PHONE NUM":2086663800,"PROVIDER PHONE EXT":"","PROGRAM YEAR":2012},"geometry":{"type":"Point","coordinates":[-116.757896,47.675041]}},{"type":"Feature","id":"5132dd66a288f42e67350546","properties":{"_id":"5132dd66a288f42e67350546","PROVIDER NPI":1093717787,"PROVIDER NAME":"Allen, Richard","PROVIDER STATE":"Idaho","PROVIDER CITY":"Lewiston","PROVIDER  ADDRESS":"1630 23rd Ave, Suite 1001","PROVIDER ZIP 5 CD":83501,"PROVIDER ZIP 4 CD":6350,"PROVIDER PHONE NUM":2087433688,"PROVIDER PHONE EXT":"","PROGRAM YEAR":2012},"geometry":{"type":"Point","coordinates":[-117.009216,46.397243]}},{"type":"Feature","id":"5132dd66a288f42e67350547","properties":{"_id":"5132dd66a288f42e67350547","PROVIDER NPI":1033105275,"PROVIDER NAME":"ALM, RONALD","PROVIDER STATE":"Idaho","PROVIDER CITY":"LEWISTON","PROVIDER  ADDRESS":"803 16TH AVE","PROVIDER ZIP 5 CD":83501,"PROVIDER ZIP 4 CD":3733,"PROVIDER PHONE NUM":2087432091,"PROVIDER PHONE EXT":"","PROGRAM YEAR":2012},"geometry":{"type":"Point","coordinates":[-117.021435,46.404215]}},{"type":"Feature","id":"5132dd66a288f42e67350548","properties":{"_id":"5132dd66a288f42e67350548","PROVIDER NPI":1659310829,"PROVIDER NAME":"ANDERSON, KERRY","PROVIDER STATE":"Idaho","PROVIDER CITY":"Boise","PROVIDER  ADDRESS":"809 N Liberty St","PROVIDER ZIP 5 CD":83704,"PROVIDER ZIP 4 CD":8703,"PROVIDER PHONE NUM":2083270627,"PROVIDER PHONE EXT":"","PROGRAM YEAR":2012},"geometry":{"type":"Point","coordinates":[-116.261155,43.610123]}},{"type":"Feature","id":"5132dd66a288f42e67350549","properties":{"_id":"5132dd66a288f42e67350549","PROVIDER NPI":1356308316,"PROVIDER NAME":"Andrew, Shane","PROVIDER STATE":"Idaho","PROVIDER CITY":"Nampa","PROVIDER  ADDRESS":"215 E Hawaii Ave","PROVIDER ZIP 5 CD":83686,"PROVIDER ZIP 4 CD":6011,"PROVIDER PHONE NUM":2084685940,"PROVIDER PHONE EXT":"","PROGRAM YEAR":2012},"geometry":{"type":"Point","coordinates":[-116.570931,43.555046]}},{"type":"Feature","id":"5132dd66a288f42e6735054a","properties":{"_id":"5132dd66a288f42e6735054a","PROVIDER NPI":1265485882,"PROVIDER NAME":"Arnold, Jeanne","PROVIDER STATE":"Idaho","PROVIDER CITY":"Coeur D Alene","PROVIDER  ADDRESS":"1717 Lincoln Way, Suite 102","PROVIDER ZIP 5 CD":83814,"PROVIDER ZIP 4 CD":2556,"PROVIDER PHONE NUM":2086640504,"PROVIDER PHONE EXT":"","PROGRAM YEAR":2012},"geometry":{"type":"Point","coordinates":[-116.699255,47.66021]}},{"type":"Feature","id":"5132dd66a288f42e6735054b","properties":{"_id":"5132dd66a288f42e6735054b","PROVIDER NPI":1487699856,"PROVIDER NAME":"AVONDET, ALAN","PROVIDER STATE":"Idaho","PROVIDER CITY":"Idaho Falls","PROVIDER  ADDRESS":"2001 S Woodruff Ave, Suite #15","PROVIDER ZIP 5 CD":83404,"PROVIDER ZIP 4 CD":6374,"PROVIDER PHONE NUM":2085227310,"PROVIDER PHONE EXT":"","PROGRAM YEAR":2012},"geometry":{"type":"Point","coordinates":[-112.004081,43.480343]}},{"type":"Feature","id":"5132dd66a288f42e6735054c","properties":{"_id":"5132dd66a288f42e6735054c","PROVIDER NPI":1922298678,"PROVIDER NAME":"Axtell, Andrea","PROVIDER STATE":"Idaho","PROVIDER CITY":"Meridian","PROVIDER  ADDRESS":"520 S Eagle Rd, Ste 3102","PROVIDER ZIP 5 CD":83642,"PROVIDER ZIP 4 CD":6351,"PROVIDER PHONE NUM":2087065100,"PROVIDER PHONE EXT":"","PROGRAM YEAR":2012},"geometry":{"type":"Point","coordinates":[-116.354342,43.524619]}},{"type":"Feature","id":"5132dd66a288f42e6735054d","properties":{"_id":"5132dd66a288f42e6735054d","PROVIDER NPI":1548482771,"PROVIDER NAME":"Axtell, Ricky","PROVIDER STATE":"Idaho","PROVIDER CITY":"Boise","PROVIDER  ADDRESS":"3301 N Sawgrass Way","PROVIDER ZIP 5 CD":83704,"PROVIDER ZIP 4 CD":4493,"PROVIDER PHONE NUM":2083750862,"PROVIDER PHONE EXT":"","PROGRAM YEAR":2012},"geometry":{"type":"Point","coordinates":[-116.281119,43.633922]}},{"type":"Feature","id":"5132dd66a288f42e6735054e","properties":{"_id":"5132dd66a288f42e6735054e","PROVIDER NPI":1841234747,"PROVIDER NAME":"Bass, Samual","PROVIDER STATE":"Idaho","PROVIDER CITY":"Boise","PROVIDER  ADDRESS":"300 E Jefferson, Ste 101","PROVIDER ZIP 5 CD":83712,"PROVIDER ZIP 4 CD":"","PROVIDER PHONE NUM":2083364141,"PROVIDER PHONE EXT":"","PROGRAM YEAR":2012},"geometry":{"type":"Point","coordinates":[-116.189713,43.612046]}},{"type":"Feature","id":"5132dd66a288f42e6735054f","properties":{"_id":"5132dd66a288f42e6735054f","PROVIDER NPI":1265486625,"PROVIDER NAME":"Bathina, Murali","PROVIDER STATE":"Idaho","PROVIDER CITY":"Caldwell","PROVIDER  ADDRESS":"315 E Elm Street, Ste 350","PROVIDER ZIP 5 CD":83605,"PROVIDER ZIP 4 CD":"","PROVIDER PHONE NUM":2084546363,"PROVIDER PHONE EXT":"","PROGRAM YEAR":2012},"geometry":{"type":"Point","coordinates":[-116.673661,43.612079]}},{"type":"Feature","id":"5132dd66a288f42e67350550","properties":{"_id":"5132dd66a288f42e67350550","PROVIDER NPI":1417959842,"PROVIDER NAME":"Baxter, Susan","PROVIDER STATE":"Idaho","PROVIDER CITY":"Boise","PROVIDER  ADDRESS":"4840 N Cloverdale Rd","PROVIDER ZIP 5 CD":83713,"PROVIDER ZIP 4 CD":2423,"PROVIDER PHONE NUM":2087068000,"PROVIDER PHONE EXT":"","PROGRAM YEAR":2012},"geometry":{"type":"Point","coordinates":[-116.334304,43.648669]}},{"type":"Feature","id":"5132dd66a288f42e67350551","properties":{"_id":"5132dd66a288f42e67350551","PROVIDER NPI":1154316578,"PROVIDER NAME":"Bell, Richard","PROVIDER STATE":"Idaho","PROVIDER CITY":"Coeur D Alene","PROVIDER  ADDRESS":"914 W Ironwood Dr","PROVIDER ZIP 5 CD":83814,"PROVIDER ZIP 4 CD":4927,"PROVIDER PHONE NUM":2087655922,"PROVIDER PHONE EXT":"","PROGRAM YEAR":2012},"geometry":{"type":"Point","coordinates":[-116.799125,47.695982]}},{"type":"Feature","id":"5132dd66a288f42e67350552","properties":{"_id":"5132dd66a288f42e67350552","PROVIDER NPI":1942239264,"PROVIDER NAME":"Benedict, Randall","PROVIDER STATE":"Idaho","PROVIDER CITY":"Boise","PROVIDER  ADDRESS":"809 N Liberty St","PROVIDER ZIP 5 CD":83704,"PROVIDER ZIP 4 CD":8703,"PROVIDER PHONE NUM":2083270627,"PROVIDER PHONE EXT":"","PROGRAM YEAR":2012},"geometry":{"type":"Point","coordinates":[-116.261155,43.610123]}},{"type":"Feature","id":"5132dd66a288f42e67350553","properties":{"_id":"5132dd66a288f42e67350553","PROVIDER NPI":1730227927,"PROVIDER NAME":"Bergquist, William","PROVIDER STATE":"Idaho","PROVIDER CITY":"Meridian","PROVIDER  ADDRESS":"2347 E Gala St","PROVIDER ZIP 5 CD":83642,"PROVIDER ZIP 4 CD":4881,"PROVIDER PHONE NUM":2083230031,"PROVIDER PHONE EXT":"","PROGRAM YEAR":2012},"geometry":{"type":"Point","coordinates":[-116.981462,44.264355]}},{"type":"Feature","id":"5132dd66a288f42e67350554","properties":{"_id":"5132dd66a288f42e67350554","PROVIDER NPI":1710081450,"PROVIDER NAME":"Bigsby, Geneen","PROVIDER STATE":"Idaho","PROVIDER CITY":"Lewiston","PROVIDER  ADDRESS":"2315 8th St","PROVIDER ZIP 5 CD":83501,"PROVIDER ZIP 4 CD":7301,"PROVIDER PHONE NUM":2082983093,"PROVIDER PHONE EXT":"","PROGRAM YEAR":2012},"geometry":{"type":"Point","coordinates":[-117.021402,46.396936]}},{"type":"Feature","id":"5132dd66a288f42e67350555","properties":{"_id":"5132dd66a288f42e67350555","PROVIDER NPI":1851478192,"PROVIDER NAME":"Blair, Benjamin","PROVIDER STATE":"Idaho","PROVIDER CITY":"Pocatello","PROVIDER  ADDRESS":"333 N 18th Ave, Ste D1","PROVIDER ZIP 5 CD":83201,"PROVIDER ZIP 4 CD":3358,"PROVIDER PHONE NUM":2082332100,"PROVIDER PHONE EXT":"","PROGRAM YEAR":2012},"geometry":{"type":"Point","coordinates":[-112.428491,42.873356]}},{"type":"Feature","id":"5132dd66a288f42e67350556","properties":{"_id":"5132dd66a288f42e67350556","PROVIDER NPI":1851334817,"PROVIDER NAME":"Blauer, Wayne","PROVIDER STATE":"Idaho","PROVIDER CITY":"Burley","PROVIDER  ADDRESS":"1501 Hiland Ave, Suite L3","PROVIDER ZIP 5 CD":83318,"PROVIDER ZIP 4 CD":2682,"PROVIDER PHONE NUM":2086782283,"PROVIDER PHONE EXT":"","PROGRAM YEAR":2012},"geometry":{"type":"Point","coordinates":[-113.783386,42.534203]}},{"type":"Feature","id":"5132dd66a288f42e67350557","properties":{"_id":"5132dd66a288f42e67350557","PROVIDER NPI":1336197870,"PROVIDER NAME":"BLOUGH, SUSAN","PROVIDER STATE":"Idaho","PROVIDER CITY":"Boise","PROVIDER  ADDRESS":"701 E Parkcenter Blvd","PROVIDER ZIP 5 CD":83706,"PROVIDER ZIP 4 CD":6528,"PROVIDER PHONE NUM":2083816400,"PROVIDER PHONE EXT":"","PROGRAM YEAR":2012},"geometry":{"type":"Point","coordinates":[-116.177712,43.592327]}},{"type":"Feature","id":"5132dd66a288f42e67350558","properties":{"_id":"5132dd66a288f42e67350558","PROVIDER NPI":1962441303,"PROVIDER NAME":"Boespflug, Daniel","PROVIDER STATE":"Idaho","PROVIDER CITY":"Boise","PROVIDER  ADDRESS":"3293 N Milwaukee St","PROVIDER ZIP 5 CD":83704,"PROVIDER ZIP 4 CD":4446,"PROVIDER PHONE NUM":2083222020,"PROVIDER PHONE EXT":"","PROGRAM YEAR":2012},"geometry":{"type":"Point","coordinates":[-116.284295,43.634912]}},{"type":"Feature","id":"5132dd66a288f42e67350559","properties":{"_id":"5132dd66a288f42e67350559","PROVIDER NPI":1942258439,"PROVIDER NAME":"Bollinger, William","PROVIDER STATE":"Idaho","PROVIDER CITY":"Boise","PROVIDER  ADDRESS":"300 E Jefferson St, STE 300","PROVIDER ZIP 5 CD":83712,"PROVIDER ZIP 4 CD":6246,"PROVIDER PHONE NUM":2083814100,"PROVIDER PHONE EXT":"","PROGRAM YEAR":2012},"geometry":{"type":"Point","coordinates":[-116.189713,43.612046]}},{"type":"Feature","id":"5132dd66a288f42e6735055a","properties":{"_id":"5132dd66a288f42e6735055a","PROVIDER NPI":1386721637,"PROVIDER NAME":"Bray, S","PROVIDER STATE":"Idaho","PROVIDER CITY":"Pocatello","PROVIDER  ADDRESS":"333 N 18th Ave, Ste D1","PROVIDER ZIP 5 CD":83201,"PROVIDER ZIP 4 CD":3358,"PROVIDER PHONE NUM":2082332100,"PROVIDER PHONE EXT":"","PROGRAM YEAR":2012},"geometry":{"type":"Point","coordinates":[-112.428491,42.873356]}},{"type":"Feature","id":"5132dd66a288f42e6735055b","properties":{"_id":"5132dd66a288f42e6735055b","PROVIDER NPI":1124016464,"PROVIDER NAME":"Bretz, Bradley","PROVIDER STATE":"Idaho","PROVIDER CITY":"Meridian","PROVIDER  ADDRESS":"2275 S Eagle Rd Ste 160","PROVIDER ZIP 5 CD":83642,"PROVIDER ZIP 4 CD":5075,"PROVIDER PHONE NUM":2089472266,"PROVIDER PHONE EXT":"","PROGRAM YEAR":2012},"geometry":{"type":"Point","coordinates":[-116.354555,43.583829]}},{"type":"Feature","id":"5132dd66a288f42e6735055c","properties":{"_id":"5132dd66a288f42e6735055c","PROVIDER NPI":1891780334,"PROVIDER NAME":"BROWN, JOEL","PROVIDER STATE":"Idaho","PROVIDER CITY":"Grangeville","PROVIDER  ADDRESS":"622 W North St","PROVIDER ZIP 5 CD":83530,"PROVIDER ZIP 4 CD":1240,"PROVIDER PHONE NUM":2089830260,"PROVIDER PHONE EXT":"","PROGRAM YEAR":2012},"geometry":{"type":"Point","coordinates":[-116.126239,45.927469]}},{"type":"Feature","id":"5132dd66a288f42e6735055d","properties":{"_id":"5132dd66a288f42e6735055d","PROVIDER NPI":1104816198,"PROVIDER NAME":"Buersmeyer, Patricia","PROVIDER STATE":"Idaho","PROVIDER CITY":"Nampa","PROVIDER  ADDRESS":"215 E Hawaii Ave","PROVIDER ZIP 5 CD":83686,"PROVIDER ZIP 4 CD":6011,"PROVIDER PHONE NUM":2084685920,"PROVIDER PHONE EXT":"","PROGRAM YEAR":2012},"geometry":{"type":"Point","coordinates":[-116.570931,43.555046]}},{"type":"Feature","id":"5132dd66a288f42e6735055e","properties":{"_id":"5132dd66a288f42e6735055e","PROVIDER NPI":1730395310,"PROVIDER NAME":"Burns, Brittany","PROVIDER STATE":"Idaho","PROVIDER CITY":"Coeur d' Alene","PROVIDER  ADDRESS":"700 Ironwood Drive, Suite 101","PROVIDER ZIP 5 CD":83814,"PROVIDER ZIP 4 CD":"","PROVIDER PHONE NUM":2086672541,"PROVIDER PHONE EXT":"","PROGRAM YEAR":2012},"geometry":{"type":"Point","coordinates":[-116.699291,47.663444]}},{"type":"Feature","id":"5132dd66a288f42e6735055f","properties":{"_id":"5132dd66a288f42e6735055f","PROVIDER NPI":1609847615,"PROVIDER NAME":"burns, timothy","PROVIDER STATE":"Idaho","PROVIDER CITY":"Coeur D Alene","PROVIDER  ADDRESS":"920 W Ironwood Dr","PROVIDER ZIP 5 CD":83814,"PROVIDER ZIP 4 CD":2463,"PROVIDER PHONE NUM":2086674557,"PROVIDER PHONE EXT":"","PROGRAM YEAR":2012},"geometry":{"type":"Point","coordinates":[-116.799138,47.695988]}},{"type":"Feature","id":"5132dd66a288f42e67350560","properties":{"_id":"5132dd66a288f42e67350560","PROVIDER NPI":1063466423,"PROVIDER NAME":"Chai, Andrew","PROVIDER STATE":"Idaho","PROVIDER CITY":"Meridian","PROVIDER  ADDRESS":"520 S Eagle Road, Ste 3104","PROVIDER ZIP 5 CD":83642,"PROVIDER ZIP 4 CD":"","PROVIDER PHONE NUM":2088879828,"PROVIDER PHONE EXT":"","PROGRAM YEAR":2012},"geometry":{"type":"Point","coordinates":[-116.354342,43.524619]}},{"type":"Feature","id":"5132dd66a288f42e67350561","properties":{"_id":"5132dd66a288f42e67350561","PROVIDER NPI":1700857729,"PROVIDER NAME":"chambers, david","PROVIDER STATE":"Idaho","PROVIDER CITY":"Coeur D Alene","PROVIDER  ADDRESS":"920 W Ironwood Dr","PROVIDER ZIP 5 CD":83814,"PROVIDER ZIP 4 CD":2463,"PROVIDER PHONE NUM":2086674557,"PROVIDER PHONE EXT":"","PROGRAM YEAR":2012},"geometry":{"type":"Point","coordinates":[-116.799138,47.695988]}},{"type":"Feature","id":"5132dd66a288f42e67350562","properties":{"_id":"5132dd66a288f42e67350562","PROVIDER NPI":1225028632,"PROVIDER NAME":"Chenore, Michael","PROVIDER STATE":"Idaho","PROVIDER CITY":"Nampa","PROVIDER  ADDRESS":"215 E Hawaii Ave","PROVIDER ZIP 5 CD":83686,"PROVIDER ZIP 4 CD":6011,"PROVIDER PHONE NUM":2084633234,"PROVIDER PHONE EXT":"","PROGRAM YEAR":2012},"geometry":{"type":"Point","coordinates":[-116.570931,43.555046]}},{"type":"Feature","id":"5132dd66a288f42e67350563","properties":{"_id":"5132dd66a288f42e67350563","PROVIDER NPI":1619963600,"PROVIDER NAME":"Chester, Kawal","PROVIDER STATE":"Idaho","PROVIDER CITY":"Coeur d'Alene","PROVIDER  ADDRESS":"2003 Kootenai Health Way","PROVIDER ZIP 5 CD":83814,"PROVIDER ZIP 4 CD":"","PROVIDER PHONE NUM":2086663800,"PROVIDER PHONE EXT":"","PROGRAM YEAR":2012},"geometry":{"type":"Point","coordinates":[-116.757896,47.675041]}},{"type":"Feature","id":"5132dd66a288f42e67350564","properties":{"_id":"5132dd66a288f42e67350564","PROVIDER NPI":1336119932,"PROVIDER NAME":"chisholm, donald","PROVIDER STATE":"Idaho","PROVIDER CITY":"Coeur D Alene","PROVIDER  ADDRESS":"920 W Ironwood Dr","PROVIDER ZIP 5 CD":83814,"PROVIDER ZIP 4 CD":2463,"PROVIDER PHONE NUM":2086674557,"PROVIDER PHONE EXT":"","PROGRAM YEAR":2012},"geometry":{"type":"Point","coordinates":[-116.799138,47.695988]}},{"type":"Feature","id":"5132dd66a288f42e67350565","properties":{"_id":"5132dd66a288f42e67350565","PROVIDER NPI":1811022056,"PROVIDER NAME":"Christensen, Brian","PROVIDER STATE":"Idaho","PROVIDER CITY":"Rexburg","PROVIDER  ADDRESS":"20 Madison Professional Park","PROVIDER ZIP 5 CD":83440,"PROVIDER ZIP 4 CD":2058,"PROVIDER PHONE NUM":2086569008,"PROVIDER PHONE EXT":"","PROGRAM YEAR":2012},"geometry":{"type":"Point","coordinates":[-111.776403,43.825392]}},{"type":"Feature","id":"5132dd66a288f42e67350566","properties":{"_id":"5132dd66a288f42e67350566","PROVIDER NPI":1174572697,"PROVIDER NAME":"Clawson, Mark","PROVIDER STATE":"Idaho","PROVIDER CITY":"Boise","PROVIDER  ADDRESS":"901 N Curtis Rd, Suite 501","PROVIDER ZIP 5 CD":83706,"PROVIDER ZIP 4 CD":1338,"PROVIDER PHONE NUM":2083782868,"PROVIDER PHONE EXT":"","PROGRAM YEAR":2012},"geometry":{"type":"Point","coordinates":[-116.253705,43.612374]}},{"type":"Feature","id":"5132dd66a288f42e67350567","properties":{"_id":"5132dd66a288f42e67350567","PROVIDER NPI":1699769471,"PROVIDER NAME":"Clinger, Mark","PROVIDER STATE":"Idaho","PROVIDER CITY":"Meridian","PROVIDER  ADDRESS":"3277 E Louise Dr, Suite 200","PROVIDER ZIP 5 CD":83642,"PROVIDER ZIP 4 CD":9351,"PROVIDER PHONE NUM":2088842920,"PROVIDER PHONE EXT":"","PROGRAM YEAR":2012},"geometry":{"type":"Point","coordinates":[-116.350975,43.602661]}},{"type":"Feature","id":"5132dd66a288f42e67350568","properties":{"_id":"5132dd66a288f42e67350568","PROVIDER NPI":1891726196,"PROVIDER NAME":"Coffey, Jennifer","PROVIDER STATE":"Idaho","PROVIDER CITY":"Salmon","PROVIDER  ADDRESS":"104 S Daisy St, Suite A","PROVIDER ZIP 5 CD":83467,"PROVIDER ZIP 4 CD":4333,"PROVIDER PHONE NUM":2087562202,"PROVIDER PHONE EXT":"","PROGRAM YEAR":2012},"geometry":{"type":"Point","coordinates":[-113.90505,45.178626]}},{"type":"Feature","id":"5132dd66a288f42e67350569","properties":{"_id":"5132dd66a288f42e67350569","PROVIDER NPI":1699879072,"PROVIDER NAME":"Colbert, Dana","PROVIDER STATE":"Idaho","PROVIDER CITY":"Coeur D Alene","PROVIDER  ADDRESS":"980 W Ironwood Dr Ste 201","PROVIDER ZIP 5 CD":83814,"PROVIDER ZIP 4 CD":2668,"PROVIDER PHONE NUM":2082921315,"PROVIDER PHONE EXT":"","PROGRAM YEAR":2012},"geometry":{"type":"Point","coordinates":[-116.772993,47.674922]}},{"type":"Feature","id":"5132dd66a288f42e6735056a","properties":{"_id":"5132dd66a288f42e6735056a","PROVIDER NPI":1285680488,"PROVIDER NAME":"Cooke, Dennis","PROVIDER STATE":"Idaho","PROVIDER CITY":"Coeur D Alene","PROVIDER  ADDRESS":"700 W Ironwood Dr, Suite 350","PROVIDER ZIP 5 CD":83814,"PROVIDER ZIP 4 CD":2656,"PROVIDER PHONE NUM":2086769913,"PROVIDER PHONE EXT":"","PROGRAM YEAR":2012},"geometry":{"type":"Point","coordinates":[-116.699291,47.663444]}},{"type":"Feature","id":"5132dd66a288f42e6735056b","properties":{"_id":"5132dd66a288f42e6735056b","PROVIDER NPI":1790722783,"PROVIDER NAME":"Cope, Robert","PROVIDER STATE":"Idaho","PROVIDER CITY":"Sandpoint","PROVIDER  ADDRESS":"207 Church St","PROVIDER ZIP 5 CD":83864,"PROVIDER ZIP 4 CD":1342,"PROVIDER PHONE NUM":2082636876,"PROVIDER PHONE EXT":"","PROGRAM YEAR":2012},"geometry":{"type":"Point","coordinates":[-116.548792,48.273967]}},{"type":"Feature","id":"5132dd66a288f42e6735056c","properties":{"_id":"5132dd66a288f42e6735056c","PROVIDER NPI":1285851337,"PROVIDER NAME":"Costello, Frederick","PROVIDER STATE":"Idaho","PROVIDER CITY":"Meridian","PROVIDER  ADDRESS":"520 S. Eagle Rd, Ste 3104","PROVIDER ZIP 5 CD":83642,"PROVIDER ZIP 4 CD":"","PROVIDER PHONE NUM":2088879828,"PROVIDER PHONE EXT":"","PROGRAM YEAR":2012},"geometry":{"type":"Point","coordinates":[-116.354342,43.524619]}},{"type":"Feature","id":"5132dd66a288f42e6735056d","properties":{"_id":"5132dd66a288f42e6735056d","PROVIDER NPI":1295774149,"PROVIDER NAME":"Cothern, Brian","PROVIDER STATE":"Idaho","PROVIDER CITY":"Nampa","PROVIDER  ADDRESS":"3165 E Greenhurst Rd","PROVIDER ZIP 5 CD":83686,"PROVIDER ZIP 4 CD":8655,"PROVIDER PHONE NUM":2084637330,"PROVIDER PHONE EXT":"","PROGRAM YEAR":2012},"geometry":{"type":"Point","coordinates":[-116.51804,43.5468]}},{"type":"Feature","id":"5132dd66a288f42e6735056e","properties":{"_id":"5132dd66a288f42e6735056e","PROVIDER NPI":1801848221,"PROVIDER NAME":"COX, KIM","PROVIDER STATE":"Idaho","PROVIDER CITY":"Pocatello","PROVIDER  ADDRESS":"777 Hospital Way Bldg a Ste 300","PROVIDER ZIP 5 CD":83201,"PROVIDER ZIP 4 CD":"","PROVIDER PHONE NUM":2082326100,"PROVIDER PHONE EXT":"","PROGRAM YEAR":2012},"geometry":{"type":"Point","coordinates":[-112.41854,42.871691]}},{"type":"Feature","id":"5132dd66a288f42e6735056f","properties":{"_id":"5132dd66a288f42e6735056f","PROVIDER NPI":1194762732,"PROVIDER NAME":"Crane, Charles","PROVIDER STATE":"Idaho","PROVIDER CITY":"Sandpoint","PROVIDER  ADDRESS":"207 Church St","PROVIDER ZIP 5 CD":83864,"PROVIDER ZIP 4 CD":1342,"PROVIDER PHONE NUM":2082636876,"PROVIDER PHONE EXT":"","PROGRAM YEAR":2012},"geometry":{"type":"Point","coordinates":[-116.548792,48.273967]}},{"type":"Feature","id":"5132dd66a288f42e67350570","properties":{"_id":"5132dd66a288f42e67350570","PROVIDER NPI":1518949684,"PROVIDER NAME":"Croshaw, David","PROVIDER STATE":"Idaho","PROVIDER CITY":"Pocatello","PROVIDER  ADDRESS":"1155 Pocatello Creek Rd","PROVIDER ZIP 5 CD":83201,"PROVIDER ZIP 4 CD":2949,"PROVIDER PHONE NUM":2082320006,"PROVIDER PHONE EXT":"","PROGRAM YEAR":2012},"geometry":{"type":"Point","coordinates":[-112.438941,42.894963]}},{"type":"Feature","id":"5132dd66a288f42e67350571","properties":{"_id":"5132dd66a288f42e67350571","PROVIDER NPI":1740232529,"PROVIDER NAME":"CRUMP, WILLIAM","PROVIDER STATE":"Idaho","PROVIDER CITY":"Meridian","PROVIDER  ADDRESS":"3090 E Gentry Way, STE 200","PROVIDER ZIP 5 CD":83642,"PROVIDER ZIP 4 CD":3501,"PROVIDER PHONE NUM":2088876813,"PROVIDER PHONE EXT":"","PROGRAM YEAR":2012},"geometry":{"type":"Point","coordinates":[-116.367554,43.629265]}},{"type":"Feature","id":"5132dd66a288f42e67350572","properties":{"_id":"5132dd66a288f42e67350572","PROVIDER NPI":1841397304,"PROVIDER NAME":"Daugharty, Barbara","PROVIDER STATE":"Idaho","PROVIDER CITY":"Coeur D Alene","PROVIDER  ADDRESS":"920 Ironwood Drive","PROVIDER ZIP 5 CD":83814,"PROVIDER ZIP 4 CD":"","PROVIDER PHONE NUM":2086649206,"PROVIDER PHONE EXT":"","PROGRAM YEAR":2012},"geometry":{"type":"Point","coordinates":[-116.799138,47.695988]}},{"type":"Feature","id":"5132dd66a288f42e67350573","properties":{"_id":"5132dd66a288f42e67350573","PROVIDER NPI":1093705022,"PROVIDER NAME":"Davidson, Elaine","PROVIDER STATE":"Idaho","PROVIDER CITY":"Nampa","PROVIDER  ADDRESS":"215 E Hawaii Ave","PROVIDER ZIP 5 CD":83686,"PROVIDER ZIP 4 CD":6011,"PROVIDER PHONE NUM":2084685910,"PROVIDER PHONE EXT":"","PROGRAM YEAR":2012},"geometry":{"type":"Point","coordinates":[-116.570931,43.555046]}},{"type":"Feature","id":"5132dd66a288f42e67350574","properties":{"_id":"5132dd66a288f42e67350574","PROVIDER NPI":1144275694,"PROVIDER NAME":"Davidson, Robert","PROVIDER STATE":"Idaho","PROVIDER CITY":"Meridian","PROVIDER  ADDRESS":"3525 E Louise dr, suite 100","PROVIDER ZIP 5 CD":83642,"PROVIDER ZIP 4 CD":6351,"PROVIDER PHONE NUM":2088468335,"PROVIDER PHONE EXT":"","PROGRAM YEAR":2012},"geometry":{"type":"Point","coordinates":[-116.349774,43.602976]}},{"type":"Feature","id":"5132dd66a288f42e67350575","properties":{"_id":"5132dd66a288f42e67350575","PROVIDER NPI":1053302182,"PROVIDER NAME":"Dee, Michael","PROVIDER STATE":"Idaho","PROVIDER CITY":"Nampa","PROVIDER  ADDRESS":"215 E Hawaii Ave","PROVIDER ZIP 5 CD":83686,"PROVIDER ZIP 4 CD":6011,"PROVIDER PHONE NUM":2084633234,"PROVIDER PHONE EXT":"","PROGRAM YEAR":2012},"geometry":{"type":"Point","coordinates":[-116.570931,43.555046]}},{"type":"Feature","id":"5132dd66a288f42e67350576","properties":{"_id":"5132dd66a288f42e67350576","PROVIDER NPI":1548265028,"PROVIDER NAME":"deTar, Thomas","PROVIDER STATE":"Idaho","PROVIDER CITY":"Post Falls","PROVIDER  ADDRESS":"323 N Spokane St, Ste 100","PROVIDER ZIP 5 CD":83854,"PROVIDER ZIP 4 CD":9513,"PROVIDER PHONE NUM":2087771320,"PROVIDER PHONE EXT":"","PROGRAM YEAR":2012},"geometry":{"type":"Point","coordinates":[-116.996465,47.710545]}},{"type":"Feature","id":"5132dd66a288f42e67350577","properties":{"_id":"5132dd66a288f42e67350577","PROVIDER NPI":1437194552,"PROVIDER NAME":"Dittrich, Mary","PROVIDER STATE":"Idaho","PROVIDER CITY":"Meridian","PROVIDER  ADDRESS":"3525 E Louise Dr, Ste 100","PROVIDER ZIP 5 CD":83642,"PROVIDER ZIP 4 CD":6302,"PROVIDER PHONE NUM":2088468335,"PROVIDER PHONE EXT":"","PROGRAM YEAR":2012},"geometry":{"type":"Point","coordinates":[-116.367554,43.629258]}},{"type":"Feature","id":"5132dd66a288f42e67350578","properties":{"_id":"5132dd66a288f42e67350578","PROVIDER NPI":1346230356,"PROVIDER NAME":"Djernes, Michael","PROVIDER STATE":"Idaho","PROVIDER CITY":"Nampa","PROVIDER  ADDRESS":"215 E Hawaii Ave","PROVIDER ZIP 5 CD":83686,"PROVIDER ZIP 4 CD":6011,"PROVIDER PHONE NUM":2084633197,"PROVIDER PHONE EXT":"","PROGRAM YEAR":2012},"geometry":{"type":"Point","coordinates":[-116.570931,43.555046]}},{"type":"Feature","id":"5132dd66a288f42e67350579","properties":{"_id":"5132dd66a288f42e67350579","PROVIDER NPI":1083663868,"PROVIDER NAME":"Doerr, Timothy","PROVIDER STATE":"Idaho","PROVIDER CITY":"Boise","PROVIDER  ADDRESS":"8854 W Emerald St, Suite 140","PROVIDER ZIP 5 CD":83704,"PROVIDER ZIP 4 CD":4844,"PROVIDER PHONE NUM":2083214790,"PROVIDER PHONE EXT":"","PROGRAM YEAR":2012},"geometry":{"type":"Point","coordinates":[-116.292252,43.611085]}},{"type":"Feature","id":"5132dd66a288f42e6735057a","properties":{"_id":"5132dd66a288f42e6735057a","PROVIDER NPI":1114914512,"PROVIDER NAME":"Donaldson, David","PROVIDER STATE":"Idaho","PROVIDER CITY":"Pocatello","PROVIDER  ADDRESS":"333 N 18th Ave, ST#B-3","PROVIDER ZIP 5 CD":83201,"PROVIDER ZIP 4 CD":3358,"PROVIDER PHONE NUM":2082322146,"PROVIDER PHONE EXT":"","PROGRAM YEAR":2012},"geometry":{"type":"Point","coordinates":[-112.428491,42.873356]}},{"type":"Feature","id":"5132dd66a288f42e6735057b","properties":{"_id":"5132dd66a288f42e6735057b","PROVIDER NPI":1366436677,"PROVIDER NAME":"Drury, Bradley","PROVIDER STATE":"Idaho","PROVIDER CITY":"Coeur D Alene","PROVIDER  ADDRESS":"914 W Ironwood Dr, Suite 101","PROVIDER ZIP 5 CD":83814,"PROVIDER ZIP 4 CD":4927,"PROVIDER PHONE NUM":2087655922,"PROVIDER PHONE EXT":"","PROGRAM YEAR":2012},"geometry":{"type":"Point","coordinates":[-116.699243,47.663316]}},{"type":"Feature","id":"5132dd66a288f42e6735057c","properties":{"_id":"5132dd66a288f42e6735057c","PROVIDER NPI":1588611263,"PROVIDER NAME":"Duerr, Robert","PROVIDER STATE":"Idaho","PROVIDER CITY":"Boise","PROVIDER  ADDRESS":"300 E Jefferson St, Suite 101","PROVIDER ZIP 5 CD":83712,"PROVIDER ZIP 4 CD":6246,"PROVIDER PHONE NUM":2083221680,"PROVIDER PHONE EXT":"","PROGRAM YEAR":2012},"geometry":{"type":"Point","coordinates":[-116.189713,43.612046]}},{"type":"Feature","id":"5132dd66a288f42e6735057d","properties":{"_id":"5132dd66a288f42e6735057d","PROVIDER NPI":1952308405,"PROVIDER NAME":"Dunn, Scott","PROVIDER STATE":"Idaho","PROVIDER CITY":"Sandpoint","PROVIDER  ADDRESS":"606 N Third Ave, Suite #101","PROVIDER ZIP 5 CD":83864,"PROVIDER ZIP 4 CD":1594,"PROVIDER PHONE NUM":2082631435,"PROVIDER PHONE EXT":"","PROGRAM YEAR":2012},"geometry":{"type":"Point","coordinates":[-116.550244,48.278262]}},{"type":"Feature","id":"5132dd66a288f42e6735057e","properties":{"_id":"5132dd66a288f42e6735057e","PROVIDER NPI":1376592758,"PROVIDER NAME":"Dykstra, Timothy","PROVIDER STATE":"Idaho","PROVIDER CITY":"Lewiston","PROVIDER  ADDRESS":"2315 8th St","PROVIDER ZIP 5 CD":83501,"PROVIDER ZIP 4 CD":7301,"PROVIDER PHONE NUM":2082983093,"PROVIDER PHONE EXT":"","PROGRAM YEAR":2012},"geometry":{"type":"Point","coordinates":[-117.021402,46.396936]}},{"type":"Feature","id":"5132dd66a288f42e6735057f","properties":{"_id":"5132dd66a288f42e6735057f","PROVIDER NPI":1255380150,"PROVIDER NAME":"EAST, KAREN","PROVIDER STATE":"Idaho","PROVIDER CITY":"Boise","PROVIDER  ADDRESS":"300 E Jefferson St, STE 300","PROVIDER ZIP 5 CD":83712,"PROVIDER ZIP 4 CD":6246,"PROVIDER PHONE NUM":2083814100,"PROVIDER PHONE EXT":"","PROGRAM YEAR":2012},"geometry":{"type":"Point","coordinates":[-116.189713,43.612046]}},{"type":"Feature","id":"5132dd66a288f42e67350580","properties":{"_id":"5132dd66a288f42e67350580","PROVIDER NPI":1932159258,"PROVIDER NAME":"Eggleston, Melanie","PROVIDER STATE":"Idaho","PROVIDER CITY":"Lewiston","PROVIDER  ADDRESS":"2315 8th St","PROVIDER ZIP 5 CD":83501,"PROVIDER ZIP 4 CD":7301,"PROVIDER PHONE NUM":2087461383,"PROVIDER PHONE EXT":6201,"PROGRAM YEAR":2012},"geometry":{"type":"Point","coordinates":[-117.021402,46.396936]}},{"type":"Feature","id":"5132dd66a288f42e67350581","properties":{"_id":"5132dd66a288f42e67350581","PROVIDER NPI":1932153137,"PROVIDER NAME":"Eiriksson, Charles","PROVIDER STATE":"Idaho","PROVIDER CITY":"Boise","PROVIDER  ADDRESS":"300 E Jeffreson, Ste 101","PROVIDER ZIP 5 CD":83712,"PROVIDER ZIP 4 CD":"","PROVIDER PHONE NUM":2083364141,"PROVIDER PHONE EXT":"","PROGRAM YEAR":2012},"geometry":{"type":"Point","coordinates":[-116.189713,43.612046]}},{"type":"Feature","id":"5132dd66a288f42e67350582","properties":{"_id":"5132dd66a288f42e67350582","PROVIDER NPI":1891732319,"PROVIDER NAME":"Elsbury, Nancy","PROVIDER STATE":"Idaho","PROVIDER CITY":"Moscow","PROVIDER  ADDRESS":"623 S Main St","PROVIDER ZIP 5 CD":83843,"PROVIDER ZIP 4 CD":"","PROVIDER PHONE NUM":2088822011,"PROVIDER PHONE EXT":"","PROGRAM YEAR":2012},"geometry":{"type":"Point","coordinates":[-117.001422,46.729892]}},{"type":"Feature","id":"5132dd66a288f42e67350583","properties":{"_id":"5132dd66a288f42e67350583","PROVIDER NPI":1407883978,"PROVIDER NAME":"England, William","PROVIDER STATE":"Idaho","PROVIDER CITY":"Nampa","PROVIDER  ADDRESS":"215 E Hawaii Ave","PROVIDER ZIP 5 CD":83686,"PROVIDER ZIP 4 CD":6011,"PROVIDER PHONE NUM":2084633234,"PROVIDER PHONE EXT":"","PROGRAM YEAR":2012},"geometry":{"type":"Point","coordinates":[-116.570931,43.555046]}},{"type":"Feature","id":"5132dd66a288f42e67350584","properties":{"_id":"5132dd66a288f42e67350584","PROVIDER NPI":1255422747,"PROVIDER NAME":"Ewings, Maria","PROVIDER STATE":"Idaho","PROVIDER CITY":"Boise","PROVIDER  ADDRESS":"4840 N Cloverdale Rd","PROVIDER ZIP 5 CD":83713,"PROVIDER ZIP 4 CD":2423,"PROVIDER PHONE NUM":2087068000,"PROVIDER PHONE EXT":"","PROGRAM YEAR":2012},"geometry":{"type":"Point","coordinates":[-116.334304,43.648669]}},{"type":"Feature","id":"5132dd66a288f42e67350585","properties":{"_id":"5132dd66a288f42e67350585","PROVIDER NPI":1417906330,"PROVIDER NAME":"Fairfax, Cynthia","PROVIDER STATE":"Idaho","PROVIDER CITY":"Meridian","PROVIDER  ADDRESS":"2855 E Magic View Dr","PROVIDER ZIP 5 CD":83642,"PROVIDER ZIP 4 CD":6245,"PROVIDER PHONE NUM":2086394900,"PROVIDER PHONE EXT":"","PROGRAM YEAR":2012},"geometry":{"type":"Point","coordinates":[-116.36353,43.600172]}},{"type":"Feature","id":"5132dd66a288f42e67350586","properties":{"_id":"5132dd66a288f42e67350586","PROVIDER NPI":1841280872,"PROVIDER NAME":"Fredriksson, William","PROVIDER STATE":"Idaho","PROVIDER CITY":"Meridian","PROVIDER  ADDRESS":"2855 E Magic View Dr","PROVIDER ZIP 5 CD":83642,"PROVIDER ZIP 4 CD":6245,"PROVIDER PHONE NUM":2086394900,"PROVIDER PHONE EXT":"","PROGRAM YEAR":2012},"geometry":{"type":"Point","coordinates":[-116.36353,43.600172]}},{"type":"Feature","id":"5132dd66a288f42e67350587","properties":{"_id":"5132dd66a288f42e67350587","PROVIDER NPI":1801842232,"PROVIDER NAME":"Fritz, Ronald","PROVIDER STATE":"Idaho","PROVIDER CITY":"Coeur D Alene","PROVIDER  ADDRESS":"700 W Ironwood Dr, Suite 350","PROVIDER ZIP 5 CD":83814,"PROVIDER ZIP 4 CD":2656,"PROVIDER PHONE NUM":2086769913,"PROVIDER PHONE EXT":"","PROGRAM YEAR":2012},"geometry":{"type":"Point","coordinates":[-116.699291,47.663444]}},{"type":"Feature","id":"5132dd66a288f42e67350588","properties":{"_id":"5132dd66a288f42e67350588","PROVIDER NPI":1518077437,"PROVIDER NAME":"Gallafent, James","PROVIDER STATE":"Idaho","PROVIDER CITY":"Meridian","PROVIDER  ADDRESS":"520 S. Eagle Road, Suite #3102","PROVIDER ZIP 5 CD":83642,"PROVIDER ZIP 4 CD":"","PROVIDER PHONE NUM":2087065100,"PROVIDER PHONE EXT":"","PROGRAM YEAR":2012},"geometry":{"type":"Point","coordinates":[-116.354683,43.600354]}},{"type":"Feature","id":"5132dd66a288f42e67350589","properties":{"_id":"5132dd66a288f42e67350589","PROVIDER NPI":1568458701,"PROVIDER NAME":"Gardner, Scott","PROVIDER STATE":"Idaho","PROVIDER CITY":"Lewiston","PROVIDER  ADDRESS":"2315 8th St","PROVIDER ZIP 5 CD":83501,"PROVIDER ZIP 4 CD":7301,"PROVIDER PHONE NUM":2082989030,"PROVIDER PHONE EXT":"","PROGRAM YEAR":2012},"geometry":{"type":"Point","coordinates":[-117.021402,46.396936]}},{"type":"Feature","id":"5132dd66a288f42e6735058a","properties":{"_id":"5132dd66a288f42e6735058a","PROVIDER NPI":1689664724,"PROVIDER NAME":"Garland, Erich","PROVIDER STATE":"Idaho","PROVIDER CITY":"Idaho Falls","PROVIDER  ADDRESS":"3920 Washington Pkwy","PROVIDER ZIP 5 CD":83404,"PROVIDER ZIP 4 CD":7596,"PROVIDER PHONE NUM":2082270158,"PROVIDER PHONE EXT":"","PROGRAM YEAR":2012},"geometry":{"type":"Point","coordinates":[-111.961334,43.514213]}},{"type":"Feature","id":"5132dd66a288f42e6735058b","properties":{"_id":"5132dd66a288f42e6735058b","PROVIDER NPI":1568427615,"PROVIDER NAME":"Gibbons, Jeffrey","PROVIDER STATE":"Idaho","PROVIDER CITY":"Mountain Home","PROVIDER  ADDRESS":"855 W 6th S","PROVIDER ZIP 5 CD":83647,"PROVIDER ZIP 4 CD":3335,"PROVIDER PHONE NUM":2085872020,"PROVIDER PHONE EXT":"","PROGRAM YEAR":2012},"geometry":{"type":"Point","coordinates":[-115.702804,43.126571]}},{"type":"Feature","id":"5132dd66a288f42e6735058c","properties":{"_id":"5132dd66a288f42e6735058c","PROVIDER NPI":1972508463,"PROVIDER NAME":"Gilbert, Michael","PROVIDER STATE":"Idaho","PROVIDER CITY":"Post Falls","PROVIDER  ADDRESS":"323 N Spokane St, Ste 100","PROVIDER ZIP 5 CD":83854,"PROVIDER ZIP 4 CD":9513,"PROVIDER PHONE NUM":2087771320,"PROVIDER PHONE EXT":"","PROGRAM YEAR":2012},"geometry":{"type":"Point","coordinates":[-116.996465,47.710545]}},{"type":"Feature","id":"5132dd66a288f42e6735058d","properties":{"_id":"5132dd66a288f42e6735058d","PROVIDER NPI":1356393227,"PROVIDER NAME":"Greer, John","PROVIDER STATE":"Idaho","PROVIDER CITY":"Meridian","PROVIDER  ADDRESS":"2855 E Magic View Dr","PROVIDER ZIP 5 CD":83642,"PROVIDER ZIP 4 CD":6245,"PROVIDER PHONE NUM":2086394900,"PROVIDER PHONE EXT":"","PROGRAM YEAR":2012},"geometry":{"type":"Point","coordinates":[-116.36353,43.600172]}},{"type":"Feature","id":"5132dd66a288f42e6735058e","properties":{"_id":"5132dd66a288f42e6735058e","PROVIDER NPI":1417048075,"PROVIDER NAME":"Haegelin, Hugh","PROVIDER STATE":"Idaho","PROVIDER CITY":"Lewiston","PROVIDER  ADDRESS":"2315 8th St","PROVIDER ZIP 5 CD":83501,"PROVIDER ZIP 4 CD":7301,"PROVIDER PHONE NUM":2087461383,"PROVIDER PHONE EXT":6201,"PROGRAM YEAR":2012},"geometry":{"type":"Point","coordinates":[-117.021402,46.396936]}},{"type":"Feature","id":"5132dd66a288f42e6735058f","properties":{"_id":"5132dd66a288f42e6735058f","PROVIDER NPI":1215943295,"PROVIDER NAME":"Hanks, Kevin","PROVIDER STATE":"Idaho","PROVIDER CITY":"Idaho Falls","PROVIDER  ADDRESS":"3200 Channing Way, Suite A303","PROVIDER ZIP 5 CD":83404,"PROVIDER ZIP 4 CD":7546,"PROVIDER PHONE NUM":2085425414,"PROVIDER PHONE EXT":"","PROGRAM YEAR":2012},"geometry":{"type":"Point","coordinates":[-111.990129,43.468919]}},{"type":"Feature","id":"5132dd66a288f42e67350590","properties":{"_id":"5132dd66a288f42e67350590","PROVIDER NPI":1831145069,"PROVIDER NAME":"Hanson, Carl","PROVIDER STATE":"Idaho","PROVIDER CITY":"Coeur D Alene","PROVIDER  ADDRESS":"700 W Ironwood Dr, Suite 350","PROVIDER ZIP 5 CD":83814,"PROVIDER ZIP 4 CD":2656,"PROVIDER PHONE NUM":2086769913,"PROVIDER PHONE EXT":"","PROGRAM YEAR":2012},"geometry":{"type":"Point","coordinates":[-116.699291,47.663444]}},{"type":"Feature","id":"5132dd66a288f42e67350591","properties":{"_id":"5132dd66a288f42e67350591","PROVIDER NPI":1992805931,"PROVIDER NAME":"Hedemark, Michael","PROVIDER STATE":"Idaho","PROVIDER CITY":"Meridian","PROVIDER  ADDRESS":"520 S Eagle Rd, Suite 3102","PROVIDER ZIP 5 CD":83642,"PROVIDER ZIP 4 CD":6351,"PROVIDER PHONE NUM":2087065100,"PROVIDER PHONE EXT":"","PROGRAM YEAR":2012},"geometry":{"type":"Point","coordinates":[-116.354683,43.600354]}},{"type":"Feature","id":"5132dd66a288f42e67350592","properties":{"_id":"5132dd66a288f42e67350592","PROVIDER NPI":1972694438,"PROVIDER NAME":"Hedrick, Frances","PROVIDER STATE":"Idaho","PROVIDER CITY":"Lewiston","PROVIDER  ADDRESS":"2315 8th St","PROVIDER ZIP 5 CD":83501,"PROVIDER ZIP 4 CD":7301,"PROVIDER PHONE NUM":2087461383,"PROVIDER PHONE EXT":6201,"PROGRAM YEAR":2012},"geometry":{"type":"Point","coordinates":[-117.021402,46.396936]}},{"type":"Feature","id":"5132dd66a288f42e67350593","properties":{"_id":"5132dd66a288f42e67350593","PROVIDER NPI":1689613606,"PROVIDER NAME":"Henry, Sunday","PROVIDER STATE":"Idaho","PROVIDER CITY":"Moscow","PROVIDER  ADDRESS":"623 South Main Street","PROVIDER ZIP 5 CD":83843,"PROVIDER ZIP 4 CD":"","PROVIDER PHONE NUM":2088822011,"PROVIDER PHONE EXT":"","PROGRAM YEAR":2012},"geometry":{"type":"Point","coordinates":[-117.001422,46.729892]}},{"type":"Feature","id":"5132dd66a288f42e67350594","properties":{"_id":"5132dd66a288f42e67350594","PROVIDER NPI":1871688697,"PROVIDER NAME":"Henson, Christopher","PROVIDER STATE":"Idaho","PROVIDER CITY":"Nampa","PROVIDER  ADDRESS":"215 E Hawaii Ave","PROVIDER ZIP 5 CD":83686,"PROVIDER ZIP 4 CD":6011,"PROVIDER PHONE NUM":2084685920,"PROVIDER PHONE EXT":"","PROGRAM YEAR":2012},"geometry":{"type":"Point","coordinates":[-116.570931,43.555046]}},{"type":"Feature","id":"5132dd66a288f42e67350595","properties":{"_id":"5132dd66a288f42e67350595","PROVIDER NPI":1023068194,"PROVIDER NAME":"Hessing, Jeffrey","PROVIDER STATE":"Idaho","PROVIDER CITY":"Boise","PROVIDER  ADDRESS":"8854 W Emerald St, Suite 140","PROVIDER ZIP 5 CD":83704,"PROVIDER ZIP 4 CD":4844,"PROVIDER PHONE NUM":2083274790,"PROVIDER PHONE EXT":"","PROGRAM YEAR":2012},"geometry":{"type":"Point","coordinates":[-116.292252,43.611085]}},{"type":"Feature","id":"5132dd66a288f42e67350596","properties":{"_id":"5132dd66a288f42e67350596","PROVIDER NPI":1205884616,"PROVIDER NAME":"HOLBROOK, MARK","PROVIDER STATE":"Idaho","PROVIDER CITY":"Boise","PROVIDER  ADDRESS":"4840 N Cloverdale Rd","PROVIDER ZIP 5 CD":83713,"PROVIDER ZIP 4 CD":2423,"PROVIDER PHONE NUM":2087068000,"PROVIDER PHONE EXT":"","PROGRAM YEAR":2012},"geometry":{"type":"Point","coordinates":[-116.334304,43.648669]}},{"type":"Feature","id":"5132dd66a288f42e67350597","properties":{"_id":"5132dd66a288f42e67350597","PROVIDER NPI":1801057708,"PROVIDER NAME":"Huntington, Mary","PROVIDER STATE":"Idaho","PROVIDER CITY":"Eagle","PROVIDER  ADDRESS":"3101 E State St, Suite 2120","PROVIDER ZIP 5 CD":83616,"PROVIDER ZIP 4 CD":6232,"PROVIDER PHONE NUM":2084733275,"PROVIDER PHONE EXT":"","PROGRAM YEAR":2012},"geometry":{"type":"Point","coordinates":[-116.315929,43.682877]}},{"type":"Feature","id":"5132dd66a288f42e67350598","properties":{"_id":"5132dd66a288f42e67350598","PROVIDER NPI":1295766822,"PROVIDER NAME":"Ingwersen, Lance","PROVIDER STATE":"Idaho","PROVIDER CITY":"Salmon","PROVIDER  ADDRESS":"104 S Daisy St, Suite A","PROVIDER ZIP 5 CD":83467,"PROVIDER ZIP 4 CD":4333,"PROVIDER PHONE NUM":2087562202,"PROVIDER PHONE EXT":"","PROGRAM YEAR":2012},"geometry":{"type":"Point","coordinates":[-113.90505,45.178626]}},{"type":"Feature","id":"5132dd66a288f42e67350599","properties":{"_id":"5132dd66a288f42e67350599","PROVIDER NPI":1952345241,"PROVIDER NAME":"Ispirescu, Jeffrey","PROVIDER STATE":"Idaho","PROVIDER CITY":"Sandpoint","PROVIDER  ADDRESS":"217 Cedar Street, #230","PROVIDER ZIP 5 CD":83864,"PROVIDER ZIP 4 CD":"","PROVIDER PHONE NUM":2089658118,"PROVIDER PHONE EXT":"","PROGRAM YEAR":2012},"geometry":{"type":"Point","coordinates":[-116.548916,48.276045]}},{"type":"Feature","id":"5132dd66a288f42e6735059a","properties":{"_id":"5132dd66a288f42e6735059a","PROVIDER NPI":1326121286,"PROVIDER NAME":"Jefferson, Jr., Glenn","PROVIDER STATE":"Idaho","PROVIDER CITY":"Lewiston","PROVIDER  ADDRESS":"2315 8th St","PROVIDER ZIP 5 CD":83501,"PROVIDER ZIP 4 CD":7301,"PROVIDER PHONE NUM":2082983093,"PROVIDER PHONE EXT":"","PROGRAM YEAR":2012},"geometry":{"type":"Point","coordinates":[-117.021402,46.396936]}},{"type":"Feature","id":"5132dd66a288f42e6735059b","properties":{"_id":"5132dd66a288f42e6735059b","PROVIDER NPI":1992751648,"PROVIDER NAME":"Jenkins, Ronald","PROVIDER STATE":"Idaho","PROVIDER CITY":"Sandpoint","PROVIDER  ADDRESS":"606 N 3rd Ave, Suite 203","PROVIDER ZIP 5 CD":83864,"PROVIDER ZIP 4 CD":1570,"PROVIDER PHONE NUM":2082632505,"PROVIDER PHONE EXT":"","PROGRAM YEAR":2012},"geometry":{"type":"Point","coordinates":[-116.550244,48.278262]}},{"type":"Feature","id":"5132dd66a288f42e6735059c","properties":{"_id":"5132dd66a288f42e6735059c","PROVIDER NPI":1841249307,"PROVIDER NAME":"JOHNSON, FRANK","PROVIDER STATE":"Idaho","PROVIDER CITY":"Meridian","PROVIDER  ADDRESS":"520 S Eagle Rd, STE 3102","PROVIDER ZIP 5 CD":83642,"PROVIDER ZIP 4 CD":6351,"PROVIDER PHONE NUM":2087065100,"PROVIDER PHONE EXT":"","PROGRAM YEAR":2012},"geometry":{"type":"Point","coordinates":[-116.354342,43.524619]}},{"type":"Feature","id":"5132dd66a288f42e6735059d","properties":{"_id":"5132dd66a288f42e6735059d","PROVIDER NPI":1972696565,"PROVIDER NAME":"JONES, MICHAEL","PROVIDER STATE":"Idaho","PROVIDER CITY":"Pocatello","PROVIDER  ADDRESS":"777 Hospital Way, Bld. A Ste. 300","PROVIDER ZIP 5 CD":83201,"PROVIDER ZIP 4 CD":5176,"PROVIDER PHONE NUM":2082326100,"PROVIDER PHONE EXT":"","PROGRAM YEAR":2012},"geometry":{"type":"Point","coordinates":[-112.41854,42.871691]}},{"type":"Feature","id":"5132dd66a288f42e6735059e","properties":{"_id":"5132dd66a288f42e6735059e","PROVIDER NPI":1083643464,"PROVIDER NAME":"Jones, Stewart","PROVIDER STATE":"Idaho","PROVIDER CITY":"Boise","PROVIDER  ADDRESS":"809 N Liberty St","PROVIDER ZIP 5 CD":83704,"PROVIDER ZIP 4 CD":8703,"PROVIDER PHONE NUM":2083270627,"PROVIDER PHONE EXT":"","PROGRAM YEAR":2012},"geometry":{"type":"Point","coordinates":[-116.261155,43.610123]}},{"type":"Feature","id":"5132dd66a288f42e6735059f","properties":{"_id":"5132dd66a288f42e6735059f","PROVIDER NPI":1255467312,"PROVIDER NAME":"Keller, Christopher","PROVIDER STATE":"Idaho","PROVIDER CITY":"Meridian","PROVIDER  ADDRESS":"3525 E Louise Dr Ste 100","PROVIDER ZIP 5 CD":83642,"PROVIDER ZIP 4 CD":6303,"PROVIDER PHONE NUM":2088468335,"PROVIDER PHONE EXT":"","PROGRAM YEAR":2012},"geometry":{"type":"Point","coordinates":[-116.349774,43.602976]}},{"type":"Feature","id":"5132dd66a288f42e673505a0","properties":{"_id":"5132dd66a288f42e673505a0","PROVIDER NPI":1689768848,"PROVIDER NAME":"Kim, Kevin","PROVIDER STATE":"Idaho","PROVIDER CITY":"Coeur d'Alene","PROVIDER  ADDRESS":"2003 Kootenai Health Way","PROVIDER ZIP 5 CD":83814,"PROVIDER ZIP 4 CD":"","PROVIDER PHONE NUM":2086663800,"PROVIDER PHONE EXT":"","PROGRAM YEAR":2012},"geometry":{"type":"Point","coordinates":[-116.757896,47.675041]}},{"type":"Feature","id":"5132dd66a288f42e673505a1","properties":{"_id":"5132dd66a288f42e673505a1","PROVIDER NPI":1568413763,"PROVIDER NAME":"King, Dawn","PROVIDER STATE":"Idaho","PROVIDER CITY":"Meridian","PROVIDER  ADDRESS":"2855 E Magic View Dr","PROVIDER ZIP 5 CD":83642,"PROVIDER ZIP 4 CD":6245,"PROVIDER PHONE NUM":2086394900,"PROVIDER PHONE EXT":"","PROGRAM YEAR":2012},"geometry":{"type":"Point","coordinates":[-116.36353,43.600172]}},