[{"type":"Feature","id":"5132dd7aa288f42e6735d013","properties":{"_id":"5132dd7aa288f42e6735d013","PROVIDER NPI":1164404232,"PROVIDER NAME":"AABY, AAZY","PROVIDER STATE":"Oregon","PROVIDER CITY":"Portland","PROVIDER  ADDRESS":"1955 NW Northrup St","PROVIDER ZIP 5 CD":97209,"PROVIDER ZIP 4 CD":1614,"PROVIDER PHONE NUM":5032272020,"PROVIDER PHONE EXT":"","PROGRAM YEAR":2011},"geometry":{"type":"Point","coordinates":[-122.691333,45.531419]}},{"type":"Feature","id":"5132dd7aa288f42e6735d014","properties":{"_id":"5132dd7aa288f42e6735d014","PROVIDER NPI":1679557920,"PROVIDER NAME":"Aaronson, John","PROVIDER STATE":"Oregon","PROVIDER CITY":"Canyonville","PROVIDER  ADDRESS":"115 SW Pine Street","PROVIDER ZIP 5 CD":97417,"PROVIDER ZIP 4 CD":198,"PROVIDER PHONE NUM":5418394211,"PROVIDER PHONE EXT":"","PROGRAM YEAR":2011},"geometry":{"type":"Point","coordinates":[-123.28279,42.934327]}},{"type":"Feature","id":"5132dd7aa288f42e6735d015","properties":{"_id":"5132dd7aa288f42e6735d015","PROVIDER NPI":1588779342,"PROVIDER NAME":"Abbey, Kenneth","PROVIDER STATE":"Oregon","PROVIDER CITY":"Portland","PROVIDER  ADDRESS":"3181 SW Sam Jackson Park Rd, UHS-2","PROVIDER ZIP 5 CD":97239,"PROVIDER ZIP 4 CD":3011,"PROVIDER PHONE NUM":5034944910,"PROVIDER PHONE EXT":"","PROGRAM YEAR":2011},"geometry":{"type":"Point","coordinates":[-122.679704,45.489165]}},{"type":"Feature","id":"5132dd7aa288f42e6735d016","properties":{"_id":"5132dd7aa288f42e6735d016","PROVIDER NPI":1396737847,"PROVIDER NAME":"Abdun-Nur, David","PROVIDER STATE":"Oregon","PROVIDER CITY":"Grants Pass","PROVIDER  ADDRESS":"741 NE 6th St","PROVIDER ZIP 5 CD":97526,"PROVIDER ZIP 4 CD":1556,"PROVIDER PHONE NUM":5414712701,"PROVIDER PHONE EXT":"","PROGRAM YEAR":2011},"geometry":{"type":"Point","coordinates":[-123.323719,42.444889]}},{"type":"Feature","id":"5132dd7aa288f42e6735d017","properties":{"_id":"5132dd7aa288f42e6735d017","PROVIDER NPI":1497760995,"PROVIDER NAME":"Abendroth, Francena","PROVIDER STATE":"Oregon","PROVIDER CITY":"Bend","PROVIDER  ADDRESS":"2275 NE Doctors Dr Ste 9","PROVIDER ZIP 5 CD":97701,"PROVIDER ZIP 4 CD":6324,"PROVIDER PHONE NUM":5413306463,"PROVIDER PHONE EXT":"","PROGRAM YEAR":2011},"geometry":{"type":"Point","coordinates":[-121.265948,44.070211]}},{"type":"Feature","id":"5132dd7aa288f42e6735d018","properties":{"_id":"5132dd7aa288f42e6735d018","PROVIDER NPI":1467667428,"PROVIDER NAME":"Abrahams, Matthew","PROVIDER STATE":"Oregon","PROVIDER CITY":"Portland","PROVIDER  ADDRESS":"3181 SW Sam Jackson Park Rd","PROVIDER ZIP 5 CD":97239,"PROVIDER ZIP 4 CD":3011,"PROVIDER PHONE NUM":5034328040,"PROVIDER PHONE EXT":"","PROGRAM YEAR":2011},"geometry":{"type":"Point","coordinates":[-122.688084,45.499289]}},{"type":"Feature","id":"5132dd7aa288f42e6735d019","properties":{"_id":"5132dd7aa288f42e6735d019","PROVIDER NPI":1225003833,"PROVIDER NAME":"Absalon, Jeffrey","PROVIDER STATE":"Oregon","PROVIDER CITY":"Bend","PROVIDER  ADDRESS":"2115 NE Wyatt Ct Ste 101","PROVIDER ZIP 5 CD":97701,"PROVIDER ZIP 4 CD":"","PROVIDER PHONE NUM":5413180124,"PROVIDER PHONE EXT":"","PROGRAM YEAR":2011},"geometry":{"type":"Point","coordinates":[-121.264888,44.072029]}},{"type":"Feature","id":"5132dd7aa288f42e6735d01a","properties":{"_id":"5132dd7aa288f42e6735d01a","PROVIDER NPI":1851599849,"PROVIDER NAME":"Ackerman, Elizabeth","PROVIDER STATE":"Oregon","PROVIDER CITY":"McMinnville","PROVIDER  ADDRESS":"2700 SE Stratus Ave","PROVIDER ZIP 5 CD":97128,"PROVIDER ZIP 4 CD":6258,"PROVIDER PHONE NUM":5034720423,"PROVIDER PHONE EXT":"","PROGRAM YEAR":2011},"geometry":{"type":"Point","coordinates":[-122.904372,45.298648]}},{"type":"Feature","id":"5132dd7aa288f42e6735d01b","properties":{"_id":"5132dd7aa288f42e6735d01b","PROVIDER NPI":1104803691,"PROVIDER NAME":"Agsten, Sarah","PROVIDER STATE":"Oregon","PROVIDER CITY":"Roseburg","PROVIDER  ADDRESS":"2579 NW Edenbower Blvd","PROVIDER ZIP 5 CD":97471,"PROVIDER ZIP 4 CD":6220,"PROVIDER PHONE NUM":5416735225,"PROVIDER PHONE EXT":"","PROGRAM YEAR":2011},"geometry":{"type":"Point","coordinates":[-123.38669,43.185796]}},{"type":"Feature","id":"5132dd7aa288f42e6735d01c","properties":{"_id":"5132dd7aa288f42e6735d01c","PROVIDER NPI":1750457990,"PROVIDER NAME":"Ahmad, Rehan","PROVIDER STATE":"Oregon","PROVIDER CITY":"Portland","PROVIDER  ADDRESS":"4805 NE Glisan St, Suite 6N50","PROVIDER ZIP 5 CD":97213,"PROVIDER ZIP 4 CD":2933,"PROVIDER PHONE NUM":5032810561,"PROVIDER PHONE EXT":"","PROGRAM YEAR":2011},"geometry":{"type":"Point","coordinates":[-122.614154,45.52659]}},{"type":"Feature","id":"5132dd7aa288f42e6735d01d","properties":{"_id":"5132dd7aa288f42e6735d01d","PROVIDER NPI":1891701405,"PROVIDER NAME":"Ahmann, Andrew","PROVIDER STATE":"Oregon","PROVIDER CITY":"Portland","PROVIDER  ADDRESS":"3181 SW Sam Jackson Park Rd","PROVIDER ZIP 5 CD":97239,"PROVIDER ZIP 4 CD":3011,"PROVIDER PHONE NUM":5034945732,"PROVIDER PHONE EXT":"","PROGRAM YEAR":2011},"geometry":{"type":"Point","coordinates":[-122.688084,45.499289]}},{"type":"Feature","id":"5132dd7aa288f42e6735d01e","properties":{"_id":"5132dd7aa288f42e6735d01e","PROVIDER NPI":1184626087,"PROVIDER NAME":"Albaugh, Jeffrey","PROVIDER STATE":"Oregon","PROVIDER CITY":"Portland","PROVIDER  ADDRESS":"1111 NE 99th Ave, Suite 301","PROVIDER ZIP 5 CD":97220,"PROVIDER ZIP 4 CD":9428,"PROVIDER PHONE NUM":5039632707,"PROVIDER PHONE EXT":"","PROGRAM YEAR":2011},"geometry":{"type":"Point","coordinates":[-122.562428,45.532199]}},{"type":"Feature","id":"5132dd7aa288f42e6735d01f","properties":{"_id":"5132dd7aa288f42e6735d01f","PROVIDER NPI":1841273364,"PROVIDER NAME":"Alberts, Michelle","PROVIDER STATE":"Oregon","PROVIDER CITY":"Clackamas","PROVIDER  ADDRESS":"12360 SE Sunnyside Rd","PROVIDER ZIP 5 CD":97015,"PROVIDER ZIP 4 CD":9320,"PROVIDER PHONE NUM":5036594988,"PROVIDER PHONE EXT":"","PROGRAM YEAR":2011},"geometry":{"type":"Point","coordinates":[-122.537235,45.428173]}},{"type":"Feature","id":"5132dd7aa288f42e6735d020","properties":{"_id":"5132dd7aa288f42e6735d020","PROVIDER NPI":1083785562,"PROVIDER NAME":"Aliabadi-Wahle, Shaghayegh","PROVIDER STATE":"Oregon","PROVIDER CITY":"Portland","PROVIDER  ADDRESS":"4805 NE Glisan St, Suite 6N50","PROVIDER ZIP 5 CD":97213,"PROVIDER ZIP 4 CD":2933,"PROVIDER PHONE NUM":5032810561,"PROVIDER PHONE EXT":"","PROGRAM YEAR":2011},"geometry":{"type":"Point","coordinates":[-122.614154,45.52659]}},{"type":"Feature","id":"5132dd7aa288f42e6735d021","properties":{"_id":"5132dd7aa288f42e6735d021","PROVIDER NPI":1235236019,"PROVIDER NAME":"Allada, Gopal","PROVIDER STATE":"Oregon","PROVIDER CITY":"Portland","PROVIDER  ADDRESS":"3181 SW Sam Jackson Park Rd","PROVIDER ZIP 5 CD":97239,"PROVIDER ZIP 4 CD":3011,"PROVIDER PHONE NUM":5034941620,"PROVIDER PHONE EXT":"","PROGRAM YEAR":2011},"geometry":{"type":"Point","coordinates":[-122.688084,45.499289]}},{"type":"Feature","id":"5132dd7aa288f42e6735d022","properties":{"_id":"5132dd7aa288f42e6735d022","PROVIDER NPI":1841295664,"PROVIDER NAME":"ALLAN, JOSEPH","PROVIDER STATE":"Oregon","PROVIDER CITY":"Salem","PROVIDER  ADDRESS":"3099 River Rd S","PROVIDER ZIP 5 CD":97302,"PROVIDER ZIP 4 CD":9754,"PROVIDER PHONE NUM":5035811567,"PROVIDER PHONE EXT":"","PROGRAM YEAR":2011},"geometry":{"type":"Point","coordinates":[-123.06946,44.911429]}},{"type":"Feature","id":"5132dd7aa288f42e6735d023","properties":{"_id":"5132dd7aa288f42e6735d023","PROVIDER NPI":1710969340,"PROVIDER NAME":"Allison, Gina","PROVIDER STATE":"Oregon","PROVIDER CITY":"Tualatin","PROVIDER  ADDRESS":"19250 SW 65th Ave, Suite 300","PROVIDER ZIP 5 CD":97062,"PROVIDER ZIP 4 CD":7452,"PROVIDER PHONE NUM":5036921242,"PROVIDER PHONE EXT":"","PROGRAM YEAR":2011},"geometry":{"type":"Point","coordinates":[-122.743874,45.381327]}},{"type":"Feature","id":"5132dd7aa288f42e6735d024","properties":{"_id":"5132dd7aa288f42e6735d024","PROVIDER NPI":1770797060,"PROVIDER NAME":"Alul, Ida","PROVIDER STATE":"Oregon","PROVIDER CITY":"Bend","PROVIDER  ADDRESS":"2450 NE Mary Rose Pl, Suite 110","PROVIDER ZIP 5 CD":97701,"PROVIDER ZIP 4 CD":7132,"PROVIDER PHONE NUM":5413188388,"PROVIDER PHONE EXT":"","PROGRAM YEAR":2011},"geometry":{"type":"Point","coordinates":[-121.285246,44.151114]}},{"type":"Feature","id":"5132dd7aa288f42e6735d025","properties":{"_id":"5132dd7aa288f42e6735d025","PROVIDER NPI":1114036720,"PROVIDER NAME":"Alumkal, Joshi","PROVIDER STATE":"Oregon","PROVIDER CITY":"Portland","PROVIDER  ADDRESS":"3181 SW Sam Jackson Park Rd, Mail Code: :L586","PROVIDER ZIP 5 CD":97239,"PROVIDER ZIP 4 CD":3011,"PROVIDER PHONE NUM":5034948534,"PROVIDER PHONE EXT":"","PROGRAM YEAR":2011},"geometry":{"type":"Point","coordinates":[-122.688084,45.499289]}},{"type":"Feature","id":"5132dd7aa288f42e6735d026","properties":{"_id":"5132dd7aa288f42e6735d026","PROVIDER NPI":1881600450,"PROVIDER NAME":"Ameen, Khuram","PROVIDER STATE":"Oregon","PROVIDER CITY":"Springfield","PROVIDER  ADDRESS":"3355 Riverbend Dr, Suite 240","PROVIDER ZIP 5 CD":97477,"PROVIDER ZIP 4 CD":8800,"PROVIDER PHONE NUM":5416871712,"PROVIDER PHONE EXT":"","PROGRAM YEAR":2011},"geometry":{"type":"Point","coordinates":[-123.139585,44.066606]}},{"type":"Feature","id":"5132dd7aa288f42e6735d027","properties":{"_id":"5132dd7aa288f42e6735d027","PROVIDER NPI":1811066822,"PROVIDER NAME":"Ameredes, Faye","PROVIDER STATE":"Oregon","PROVIDER CITY":"Roseburg","PROVIDER  ADDRESS":"2460 NW Stewart Pkwy Ste 230","PROVIDER ZIP 5 CD":97471,"PROVIDER ZIP 4 CD":1516,"PROVIDER PHONE NUM":5416774463,"PROVIDER PHONE EXT":"","PROGRAM YEAR":2011},"geometry":{"type":"Point","coordinates":[-123.38669,43.185796]}},{"type":"Feature","id":"5132dd7aa288f42e6735d028","properties":{"_id":"5132dd7aa288f42e6735d028","PROVIDER NPI":1134173032,"PROVIDER NAME":"Amling, Christopher","PROVIDER STATE":"Oregon","PROVIDER CITY":"Portland","PROVIDER  ADDRESS":"3303 SW Bond Ave, Mail Code CH10U, OHSU, Urology","PROVIDER ZIP 5 CD":97239,"PROVIDER ZIP 4 CD":"","PROVIDER PHONE NUM":5034189132,"PROVIDER PHONE EXT":"","PROGRAM YEAR":2011},"geometry":{"type":"Point","coordinates":[-122.670846,45.499254]}},{"type":"Feature","id":"5132dd7aa288f42e6735d029","properties":{"_id":"5132dd7aa288f42e6735d029","PROVIDER NPI":1477558807,"PROVIDER NAME":"Anasz-Kopecka, Beata","PROVIDER STATE":"Oregon","PROVIDER CITY":"McMinnville","PROVIDER  ADDRESS":"2700 SE Stratus Ave, Clinic Operations","PROVIDER ZIP 5 CD":97128,"PROVIDER ZIP 4 CD":6258,"PROVIDER PHONE NUM":5034729002,"PROVIDER PHONE EXT":"","PROGRAM YEAR":2011},"geometry":{"type":"Point","coordinates":[-122.904372,45.298648]}},{"type":"Feature","id":"5132dd7aa288f42e6735d02a","properties":{"_id":"5132dd7aa288f42e6735d02a","PROVIDER NPI":1730194234,"PROVIDER NAME":"Andersen, Peter","PROVIDER STATE":"Oregon","PROVIDER CITY":"Portland","PROVIDER  ADDRESS":"3181 SW Sam Jackson Park Rd","PROVIDER ZIP 5 CD":97239,"PROVIDER ZIP 4 CD":3011,"PROVIDER PHONE NUM":5034945355,"PROVIDER PHONE EXT":"","PROGRAM YEAR":2011},"geometry":{"type":"Point","coordinates":[-122.688084,45.499289]}},{"type":"Feature","id":"5132dd7aa288f42e6735d02b","properties":{"_id":"5132dd7aa288f42e6735d02b","PROVIDER NPI":1972764777,"PROVIDER NAME":"Anderson, Elise","PROVIDER STATE":"Oregon","PROVIDER CITY":"Portland","PROVIDER  ADDRESS":"3181 SW Sam Jackson Park Road","PROVIDER ZIP 5 CD":97239,"PROVIDER ZIP 4 CD":3011,"PROVIDER PHONE NUM":5034948744,"PROVIDER PHONE EXT":"","PROGRAM YEAR":2011},"geometry":{"type":"Point","coordinates":[-122.688084,45.499289]}},{"type":"Feature","id":"5132dd7aa288f42e6735d02c","properties":{"_id":"5132dd7aa288f42e6735d02c","PROVIDER NPI":1376551804,"PROVIDER NAME":"Anderson, James","PROVIDER STATE":"Oregon","PROVIDER CITY":"Portland","PROVIDER  ADDRESS":"3181 SW Sam Jackson Park Rd","PROVIDER ZIP 5 CD":97239,"PROVIDER ZIP 4 CD":3011,"PROVIDER PHONE NUM":5034180990,"PROVIDER PHONE EXT":"","PROGRAM YEAR":2011},"geometry":{"type":"Point","coordinates":[-122.688084,45.499289]}},{"type":"Feature","id":"5132dd7aa288f42e6735d02d","properties":{"_id":"5132dd7aa288f42e6735d02d","PROVIDER NPI":1174513873,"PROVIDER NAME":"Andrews, Kevin","PROVIDER STATE":"Oregon","PROVIDER CITY":"Pendleton","PROVIDER  ADDRESS":"320 SW Court Ave.","PROVIDER ZIP 5 CD":97801,"PROVIDER ZIP 4 CD":3974,"PROVIDER PHONE NUM":5412766244,"PROVIDER PHONE EXT":"","PROGRAM YEAR":2011},"geometry":{"type":"Point","coordinates":[-118.790491,45.671678]}},{"type":"Feature","id":"5132dd7aa288f42e6735d02e","properties":{"_id":"5132dd7aa288f42e6735d02e","PROVIDER NPI":1336209345,"PROVIDER NAME":"ANGELES, ADAM","PROVIDER STATE":"Oregon","PROVIDER CITY":"Bend","PROVIDER  ADDRESS":"2400 NE Neff Road, SUITE B","PROVIDER ZIP 5 CD":97701,"PROVIDER ZIP 4 CD":"","PROVIDER PHONE NUM":5417492282,"PROVIDER PHONE EXT":"","PROGRAM YEAR":2011},"geometry":{"type":"Point","coordinates":[-121.275715,44.065737]}},{"type":"Feature","id":"5132dd7aa288f42e6735d02f","properties":{"_id":"5132dd7aa288f42e6735d02f","PROVIDER NPI":1043242001,"PROVIDER NAME":"Angleton, Paul","PROVIDER STATE":"Oregon","PROVIDER CITY":"Salem","PROVIDER  ADDRESS":"2925 River Rd S","PROVIDER ZIP 5 CD":97301,"PROVIDER ZIP 4 CD":3975,"PROVIDER PHONE NUM":5038144400,"PROVIDER PHONE EXT":"","PROGRAM YEAR":2011},"geometry":{"type":"Point","coordinates":[-123.02863,44.95758]}},{"type":"Feature","id":"5132dd7aa288f42e6735d030","properties":{"_id":"5132dd7aa288f42e6735d030","PROVIDER NPI":1699879056,"PROVIDER NAME":"Arabshahi, Hamid","PROVIDER STATE":"Oregon","PROVIDER CITY":"Salem","PROVIDER  ADDRESS":"1475 Commercial St SE","PROVIDER ZIP 5 CD":97302,"PROVIDER ZIP 4 CD":4307,"PROVIDER PHONE NUM":5039320885,"PROVIDER PHONE EXT":"","PROGRAM YEAR":2011},"geometry":{"type":"Point","coordinates":[-123.044403,44.926467]}},{"type":"Feature","id":"5132dd7aa288f42e6735d031","properties":{"_id":"5132dd7aa288f42e6735d031","PROVIDER NPI":1699750307,"PROVIDER NAME":"Archer, Stephen","PROVIDER STATE":"Oregon","PROVIDER CITY":"Bend","PROVIDER  ADDRESS":"2084 NE Professional Court","PROVIDER ZIP 5 CD":97701,"PROVIDER ZIP 4 CD":6077,"PROVIDER PHONE NUM":5413225753,"PROVIDER PHONE EXT":"","PROGRAM YEAR":2011},"geometry":{"type":"Point","coordinates":[-121.270554,44.064839]}},{"type":"Feature","id":"5132dd7aa288f42e6735d032","properties":{"_id":"5132dd7aa288f42e6735d032","PROVIDER NPI":1114123684,"PROVIDER NAME":"Arden, Emilia","PROVIDER STATE":"Oregon","PROVIDER CITY":"Hillsboro","PROVIDER  ADDRESS":"333 SE 7th Ave, Suite 5200","PROVIDER ZIP 5 CD":97123,"PROVIDER ZIP 4 CD":4157,"PROVIDER PHONE NUM":5036405737,"PROVIDER PHONE EXT":"","PROGRAM YEAR":2011},"geometry":{"type":"Point","coordinates":[-122.979077,45.519609]}},{"type":"Feature","id":"5132dd7aa288f42e6735d033","properties":{"_id":"5132dd7aa288f42e6735d033","PROVIDER NPI":1124042692,"PROVIDER NAME":"Armour, Rebecca","PROVIDER STATE":"Oregon","PROVIDER CITY":"Portland","PROVIDER  ADDRESS":"3375 SW Terwilliger Blvd","PROVIDER ZIP 5 CD":97239,"PROVIDER ZIP 4 CD":"","PROVIDER PHONE NUM":5034948311,"PROVIDER PHONE EXT":"","PROGRAM YEAR":2011},"geometry":{"type":"Point","coordinates":[-122.682668,45.50046]}},{"type":"Feature","id":"5132dd7aa288f42e6735d034","properties":{"_id":"5132dd7aa288f42e6735d034","PROVIDER NPI":1063417392,"PROVIDER NAME":"Ash, Paul","PROVIDER STATE":"Oregon","PROVIDER CITY":"Tualatin","PROVIDER  ADDRESS":"19260 SW 65th Ave, Ste 280","PROVIDER ZIP 5 CD":97062,"PROVIDER ZIP 4 CD":5708,"PROVIDER PHONE NUM":5036922850,"PROVIDER PHONE EXT":"","PROGRAM YEAR":2011},"geometry":{"type":"Point","coordinates":[-122.743873,45.381305]}},{"type":"Feature","id":"5132dd7aa288f42e6735d035","properties":{"_id":"5132dd7aa288f42e6735d035","PROVIDER NPI":1053332742,"PROVIDER NAME":"Atha, Timothy","PROVIDER STATE":"Oregon","PROVIDER CITY":"Corvallis","PROVIDER  ADDRESS":"3600 NW Samaritan Dr, Suite E-350","PROVIDER ZIP 5 CD":97330,"PROVIDER ZIP 4 CD":3737,"PROVIDER PHONE NUM":5417685205,"PROVIDER PHONE EXT":"","PROGRAM YEAR":2011},"geometry":{"type":"Point","coordinates":[-123.249334,44.600448]}},{"type":"Feature","id":"5132dd7aa288f42e6735d036","properties":{"_id":"5132dd7aa288f42e6735d036","PROVIDER NPI":1477502375,"PROVIDER NAME":"Athay, Steven","PROVIDER STATE":"Oregon","PROVIDER CITY":"Corvallis","PROVIDER  ADDRESS":"3680 NW Samaritan Dr","PROVIDER ZIP 5 CD":97330,"PROVIDER ZIP 4 CD":3737,"PROVIDER PHONE NUM":5417541150,"PROVIDER PHONE EXT":"","PROGRAM YEAR":2011},"geometry":{"type":"Point","coordinates":[-123.253297,44.603266]}},{"type":"Feature","id":"5132dd7aa288f42e6735d037","properties":{"_id":"5132dd7aa288f42e6735d037","PROVIDER NPI":1891738332,"PROVIDER NAME":"Austin, Douglas","PROVIDER STATE":"Oregon","PROVIDER CITY":"Eugene","PROVIDER  ADDRESS":"590 Country Club Pkwy, Suite A","PROVIDER ZIP 5 CD":97401,"PROVIDER ZIP 4 CD":6025,"PROVIDER PHONE NUM":5416831559,"PROVIDER PHONE EXT":"","PROGRAM YEAR":2011},"geometry":{"type":"Point","coordinates":[-123.070284,44.063786]}},{"type":"Feature","id":"5132dd7aa288f42e6735d038","properties":{"_id":"5132dd7aa288f42e6735d038","PROVIDER NPI":1588823710,"PROVIDER NAME":"Axley, Michael","PROVIDER STATE":"Oregon","PROVIDER CITY":"Portland","PROVIDER  ADDRESS":"3181 SW Sam Jackson Park Rd","PROVIDER ZIP 5 CD":97239,"PROVIDER ZIP 4 CD":3011,"PROVIDER PHONE NUM":5034947641,"PROVIDER PHONE EXT":"","PROGRAM YEAR":2011},"geometry":{"type":"Point","coordinates":[-122.688084,45.499289]}},{"type":"Feature","id":"5132dd7aa288f42e6735d039","properties":{"_id":"5132dd7aa288f42e6735d039","PROVIDER NPI":1174745095,"PROVIDER NAME":"Azar, Nabiel","PROVIDER STATE":"Oregon","PROVIDER CITY":"Grants Pass","PROVIDER  ADDRESS":"520 SW Ramsey Ave, Suite 205","PROVIDER ZIP 5 CD":97527,"PROVIDER ZIP 4 CD":5863,"PROVIDER PHONE NUM":5414796777,"PROVIDER PHONE EXT":"","PROGRAM YEAR":2011},"geometry":{"type":"Point","coordinates":[-123.340115,42.42137]}},{"type":"Feature","id":"5132dd7aa288f42e6735d03a","properties":{"_id":"5132dd7aa288f42e6735d03a","PROVIDER NPI":1588693105,"PROVIDER NAME":"Backus, Mark","PROVIDER STATE":"Oregon","PROVIDER CITY":"Bend","PROVIDER  ADDRESS":"2115 NE Wyatt Ct, Suite 101","PROVIDER ZIP 5 CD":97701,"PROVIDER ZIP 4 CD":7678,"PROVIDER PHONE NUM":5413180124,"PROVIDER PHONE EXT":"","PROGRAM YEAR":2011},"geometry":{"type":"Point","coordinates":[-121.264888,44.072029]}},{"type":"Feature","id":"5132dd7aa288f42e6735d03b","properties":{"_id":"5132dd7aa288f42e6735d03b","PROVIDER NPI":1972669778,"PROVIDER NAME":"Bailey, Douglas","PROVIDER STATE":"Oregon","PROVIDER CITY":"Junction City","PROVIDER  ADDRESS":"355 W 3rd Ave","PROVIDER ZIP 5 CD":97448,"PROVIDER ZIP 4 CD":1313,"PROVIDER PHONE NUM":5419982468,"PROVIDER PHONE EXT":"","PROGRAM YEAR":2011},"geometry":{"type":"Point","coordinates":[-123.203956,44.216504]}},{"type":"Feature","id":"5132dd7aa288f42e6735d03c","properties":{"_id":"5132dd7aa288f42e6735d03c","PROVIDER NPI":1114032687,"PROVIDER NAME":"Bailey, Steven","PROVIDER STATE":"Oregon","PROVIDER CITY":"Portland","PROVIDER  ADDRESS":"3375 SW Terwilliger Blvd","PROVIDER ZIP 5 CD":97239,"PROVIDER ZIP 4 CD":"","PROVIDER PHONE NUM":5034948311,"PROVIDER PHONE EXT":"","PROGRAM YEAR":2011},"geometry":{"type":"Point","coordinates":[-122.682668,45.50046]}},{"type":"Feature","id":"5132dd7aa288f42e6735d03d","properties":{"_id":"5132dd7aa288f42e6735d03d","PROVIDER NPI":1295919512,"PROVIDER NAME":"Bailey, William","PROVIDER STATE":"Oregon","PROVIDER CITY":"NEWBERG","PROVIDER  ADDRESS":"308 VILLA ROAD STE 114","PROVIDER ZIP 5 CD":97132,"PROVIDER ZIP 4 CD":1881,"PROVIDER PHONE NUM":5035389431,"PROVIDER PHONE EXT":"","PROGRAM YEAR":2011},"geometry":{"type":"Point","coordinates":[-122.962645,45.302952]}},{"type":"Feature","id":"5132dd7aa288f42e6735d03e","properties":{"_id":"5132dd7aa288f42e6735d03e","PROVIDER NPI":1861475733,"PROVIDER NAME":"Bair, Donald","PROVIDER STATE":"Oregon","PROVIDER CITY":"Portland","PROVIDER  ADDRESS":"9701 SW Barnes Rd, Suite 200","PROVIDER ZIP 5 CD":97225,"PROVIDER ZIP 4 CD":6772,"PROVIDER PHONE NUM":5037343700,"PROVIDER PHONE EXT":"","PROGRAM YEAR":2011},"geometry":{"type":"Point","coordinates":[-122.775889,45.510172]}},{"type":"Feature","id":"5132dd7aa288f42e6735d03f","properties":{"_id":"5132dd7aa288f42e6735d03f","PROVIDER NPI":1891734448,"PROVIDER NAME":"Baird, Diane","PROVIDER STATE":"Oregon","PROVIDER CITY":"Eugene","PROVIDER  ADDRESS":"360 S Garden Way, Suite 210","PROVIDER ZIP 5 CD":97401,"PROVIDER ZIP 4 CD":7865,"PROVIDER PHONE NUM":5416833202,"PROVIDER PHONE EXT":"","PROGRAM YEAR":2011},"geometry":{"type":"Point","coordinates":[-123.052902,44.056954]}},{"type":"Feature","id":"5132dd7aa288f42e6735d040","properties":{"_id":"5132dd7aa288f42e6735d040","PROVIDER NPI":1982610564,"PROVIDER NAME":"Bajorek, Mark","PROVIDER STATE":"Oregon","PROVIDER CITY":"Portland","PROVIDER  ADDRESS":"4435 SW Carl Pl","PROVIDER ZIP 5 CD":97239,"PROVIDER ZIP 4 CD":1518,"PROVIDER PHONE NUM":5034979082,"PROVIDER PHONE EXT":"","PROGRAM YEAR":2011},"geometry":{"type":"Point","coordinates":[-122.697532,45.491623]}},{"type":"Feature","id":"5132dd7aa288f42e6735d041","properties":{"_id":"5132dd7aa288f42e6735d041","PROVIDER NPI":1164593646,"PROVIDER NAME":"Balm, Michael","PROVIDER STATE":"Oregon","PROVIDER CITY":"Springfield","PROVIDER  ADDRESS":"3355 Riverbend Dr, Suiye 410","PROVIDER ZIP 5 CD":97477,"PROVIDER ZIP 4 CD":8800,"PROVIDER PHONE NUM":5418689430,"PROVIDER PHONE EXT":"","PROGRAM YEAR":2011},"geometry":{"type":"Point","coordinates":[-123.074763,44.101085]}},{"type":"Feature","id":"5132dd7aa288f42e6735d042","properties":{"_id":"5132dd7aa288f42e6735d042","PROVIDER NPI":1699701227,"PROVIDER NAME":"Banks, Gordon","PROVIDER STATE":"Oregon","PROVIDER CITY":"McMinnville","PROVIDER  ADDRESS":"2700 SE Stratus Ave, Clinic Operations","PROVIDER ZIP 5 CD":97128,"PROVIDER ZIP 4 CD":6258,"PROVIDER PHONE NUM":5034346090,"PROVIDER PHONE EXT":"","PROGRAM YEAR":2011},"geometry":{"type":"Point","coordinates":[-122.904372,45.298648]}},{"type":"Feature","id":"5132dd7aa288f42e6735d043","properties":{"_id":"5132dd7aa288f42e6735d043","PROVIDER NPI":1326053836,"PROVIDER NAME":"Bar, Anna","PROVIDER STATE":"Oregon","PROVIDER CITY":"Portland","PROVIDER  ADDRESS":"3181 SW Sam Jackson Park Rd","PROVIDER ZIP 5 CD":97239,"PROVIDER ZIP 4 CD":3011,"PROVIDER PHONE NUM":5034183376,"PROVIDER PHONE EXT":"","PROGRAM YEAR":2011},"geometry":{"type":"Point","coordinates":[-122.688084,45.499289]}},{"type":"Feature","id":"5132dd7aa288f42e6735d044","properties":{"_id":"5132dd7aa288f42e6735d044","PROVIDER NPI":1790723658,"PROVIDER NAME":"BARBEE, CARL","PROVIDER STATE":"Oregon","PROVIDER CITY":"Klamath Falls","PROVIDER  ADDRESS":"1905 Main St","PROVIDER ZIP 5 CD":97601,"PROVIDER ZIP 4 CD":2638,"PROVIDER PHONE NUM":5418824691,"PROVIDER PHONE EXT":"","PROGRAM YEAR":2011},"geometry":{"type":"Point","coordinates":[-121.769326,42.228433]}},{"type":"Feature","id":"5132dd7aa288f42e6735d045","properties":{"_id":"5132dd7aa288f42e6735d045","PROVIDER NPI":1881686111,"PROVIDER NAME":"Bardo, Dianna","PROVIDER STATE":"Oregon","PROVIDER CITY":"Portland","PROVIDER  ADDRESS":"3181 SW Sam Jackson Park Rd, CR 135","PROVIDER ZIP 5 CD":97239,"PROVIDER ZIP 4 CD":3011,"PROVIDER PHONE NUM":5034180980,"PROVIDER PHONE EXT":"","PROGRAM YEAR":2011},"geometry":{"type":"Point","coordinates":[-122.693662,45.497741]}},{"type":"Feature","id":"5132dd7aa288f42e6735d046","properties":{"_id":"5132dd7aa288f42e6735d046","PROVIDER NPI":1215005558,"PROVIDER NAME":"Barker, Alan","PROVIDER STATE":"Oregon","PROVIDER CITY":"Portland","PROVIDER  ADDRESS":"3181 SW Sam Jackson Park Rd","PROVIDER ZIP 5 CD":97239,"PROVIDER ZIP 4 CD":3011,"PROVIDER PHONE NUM":5034941620,"PROVIDER PHONE EXT":"","PROGRAM YEAR":2011},"geometry":{"type":"Point","coordinates":[-122.688084,45.499289]}},{"type":"Feature","id":"5132dd7aa288f42e6735d047","properties":{"_id":"5132dd7aa288f42e6735d047","PROVIDER NPI":1982639480,"PROVIDER NAME":"Barkhuizen, Andre","PROVIDER STATE":"Oregon","PROVIDER CITY":"Lake Oswego","PROVIDER  ADDRESS":"17050 Pilkington Rd, Suite 130","PROVIDER ZIP 5 CD":97035,"PROVIDER ZIP 4 CD":6306,"PROVIDER PHONE NUM":5036753000,"PROVIDER PHONE EXT":"","PROGRAM YEAR":2011},"geometry":{"type":"Point","coordinates":[-122.733414,45.401898]}},{"type":"Feature","id":"5132dd7aa288f42e6735d048","properties":{"_id":"5132dd7aa288f42e6735d048","PROVIDER NPI":1134154495,"PROVIDER NAME":"Barlow, Darryk","PROVIDER STATE":"Oregon","PROVIDER CITY":"Portland","PROVIDER  ADDRESS":"10101 SE Main St, Suite 2004","PROVIDER ZIP 5 CD":97216,"PROVIDER ZIP 4 CD":"","PROVIDER PHONE NUM":5032573204,"PROVIDER PHONE EXT":"","PROGRAM YEAR":2011},"geometry":{"type":"Point","coordinates":[-122.563987,45.514076]}},{"type":"Feature","id":"5132dd7aa288f42e6735d049","properties":{"_id":"5132dd7aa288f42e6735d049","PROVIDER NPI":1891700381,"PROVIDER NAME":"Barnwell, Stanley","PROVIDER STATE":"Oregon","PROVIDER CITY":"Portland","PROVIDER  ADDRESS":"3181 SW Sam Jackson Park Rd","PROVIDER ZIP 5 CD":97239,"PROVIDER ZIP 4 CD":3011,"PROVIDER PHONE NUM":5034947660,"PROVIDER PHONE EXT":"","PROGRAM YEAR":2011},"geometry":{"type":"Point","coordinates":[-122.688084,45.499289]}},{"type":"Feature","id":"5132dd7aa288f42e6735d04a","properties":{"_id":"5132dd7aa288f42e6735d04a","PROVIDER NPI":1386694776,"PROVIDER NAME":"Barrett, Daniel","PROVIDER STATE":"Oregon","PROVIDER CITY":"Corvallis","PROVIDER  ADDRESS":"3680 NW Samaritan Dr","PROVIDER ZIP 5 CD":97330,"PROVIDER ZIP 4 CD":3737,"PROVIDER PHONE NUM":5417541150,"PROVIDER PHONE EXT":"","PROGRAM YEAR":2011},"geometry":{"type":"Point","coordinates":[-123.253297,44.603266]}},{"type":"Feature","id":"5132dd7aa288f42e6735d04b","properties":{"_id":"5132dd7aa288f42e6735d04b","PROVIDER NPI":1588607600,"PROVIDER NAME":"Barron, Diana","PROVIDER STATE":"Oregon","PROVIDER CITY":"Brownsville","PROVIDER  ADDRESS":"439 N Main St","PROVIDER ZIP 5 CD":97327,"PROVIDER ZIP 4 CD":2147,"PROVIDER PHONE NUM":5414516930,"PROVIDER PHONE EXT":"","PROGRAM YEAR":2011},"geometry":{"type":"Point","coordinates":[-122.984361,44.394526]}},{"type":"Feature","id":"5132dd7aa288f42e6735d04c","properties":{"_id":"5132dd7aa288f42e6735d04c","PROVIDER NPI":1609882281,"PROVIDER NAME":"Barry, John","PROVIDER STATE":"Oregon","PROVIDER CITY":"Portland","PROVIDER  ADDRESS":"3303 SW Bond Ave","PROVIDER ZIP 5 CD":97239,"PROVIDER ZIP 4 CD":4501,"PROVIDER PHONE NUM":5033461500,"PROVIDER PHONE EXT":"","PROGRAM YEAR":2011},"geometry":{"type":"Point","coordinates":[-122.670846,45.499254]}},{"type":"Feature","id":"5132dd7aa288f42e6735d04d","properties":{"_id":"5132dd7aa288f42e6735d04d","PROVIDER NPI":1235285214,"PROVIDER NAME":"Bartholomew, Samuel","PROVIDER STATE":"Oregon","PROVIDER CITY":"Portland","PROVIDER  ADDRESS":"9155 SW Barnes Rd, Suite 532","PROVIDER ZIP 5 CD":97225,"PROVIDER ZIP 4 CD":6625,"PROVIDER PHONE NUM":5032929737,"PROVIDER PHONE EXT":"","PROGRAM YEAR":2011},"geometry":{"type":"Point","coordinates":[-122.771056,45.508947]}},{"type":"Feature","id":"5132dd7aa288f42e6735d04e","properties":{"_id":"5132dd7aa288f42e6735d04e","PROVIDER NPI":1639187164,"PROVIDER NAME":"Barton, Robert","PROVIDER STATE":"Oregon","PROVIDER CITY":"Portland","PROVIDER  ADDRESS":"3181 SW Sam Jackson Park Rd, Mailcode: L-605","PROVIDER ZIP 5 CD":97239,"PROVIDER ZIP 4 CD":3011,"PROVIDER PHONE NUM":5034947660,"PROVIDER PHONE EXT":"","PROGRAM YEAR":2011},"geometry":{"type":"Point","coordinates":[-122.688084,45.499289]}},{"type":"Feature","id":"5132dd7aa288f42e6735d04f","properties":{"_id":"5132dd7aa288f42e6735d04f","PROVIDER NPI":1790714046,"PROVIDER NAME":"Bascom, Thomas","PROVIDER STATE":"Oregon","PROVIDER CITY":"Springfield","PROVIDER  ADDRESS":"3355 Riverbend Dr Ste 300","PROVIDER ZIP 5 CD":97477,"PROVIDER ZIP 4 CD":8800,"PROVIDER PHONE NUM":5418689303,"PROVIDER PHONE EXT":"","PROGRAM YEAR":2011},"geometry":{"type":"Point","coordinates":[-123.074763,44.101085]}},{"type":"Feature","id":"5132dd7aa288f42e6735d050","properties":{"_id":"5132dd7aa288f42e6735d050","PROVIDER NPI":1801084116,"PROVIDER NAME":"Batya, Sara","PROVIDER STATE":"Oregon","PROVIDER CITY":"Springfield","PROVIDER  ADDRESS":"3355 RiverBend Dr, Suite 410","PROVIDER ZIP 5 CD":97477,"PROVIDER ZIP 4 CD":8800,"PROVIDER PHONE NUM":5418689430,"PROVIDER PHONE EXT":"","PROGRAM YEAR":2011},"geometry":{"type":"Point","coordinates":[-123.139585,44.066606]}},{"type":"Feature","id":"5132dd7aa288f42e6735d051","properties":{"_id":"5132dd7aa288f42e6735d051","PROVIDER NPI":1316007669,"PROVIDER NAME":"Bauer, Mauri","PROVIDER STATE":"Oregon","PROVIDER CITY":"Portland","PROVIDER  ADDRESS":"5901 SW MacAdam Ave, Ste 105","PROVIDER ZIP 5 CD":97239,"PROVIDER ZIP 4 CD":3622,"PROVIDER PHONE NUM":5032222990,"PROVIDER PHONE EXT":"","PROGRAM YEAR":2011},"geometry":{"type":"Point","coordinates":[-122.673989,45.489473]}},{"type":"Feature","id":"5132dd7aa288f42e6735d052","properties":{"_id":"5132dd7aa288f42e6735d052","PROVIDER NPI":1811970346,"PROVIDER NAME":"Becker, Sara","PROVIDER STATE":"Oregon","PROVIDER CITY":"Milwaukie","PROVIDER  ADDRESS":"3033 SE Monroe St","PROVIDER ZIP 5 CD":97222,"PROVIDER ZIP 4 CD":6636,"PROVIDER PHONE NUM":5036594988,"PROVIDER PHONE EXT":"","PROGRAM YEAR":2011},"geometry":{"type":"Point","coordinates":[-122.631387,45.445331]}},{"type":"Feature","id":"5132dd7aa288f42e6735d053","properties":{"_id":"5132dd7aa288f42e6735d053","PROVIDER NPI":1275732679,"PROVIDER NAME":"Beckett, Brooke","PROVIDER STATE":"Oregon","PROVIDER CITY":"Portland","PROVIDER  ADDRESS":"3181 SW Sam Jackson Park Rd","PROVIDER ZIP 5 CD":97239,"PROVIDER ZIP 4 CD":3011,"PROVIDER PHONE NUM":5034949000,"PROVIDER PHONE EXT":"","PROGRAM YEAR":2011},"geometry":{"type":"Point","coordinates":[-122.688084,45.499289]}},{"type":"Feature","id":"5132dd7aa288f42e6735d054","properties":{"_id":"5132dd7aa288f42e6735d054","PROVIDER NPI":1669561072,"PROVIDER NAME":"Beller, Byrke","PROVIDER STATE":"Oregon","PROVIDER CITY":"Eugene","PROVIDER  ADDRESS":"10 Coburg Rd, Suite 100","PROVIDER ZIP 5 CD":97401,"PROVIDER ZIP 4 CD":"","PROVIDER PHONE NUM":5413428616,"PROVIDER PHONE EXT":"","PROGRAM YEAR":2011},"geometry":{"type":"Point","coordinates":[-123.080685,44.061829]}},{"type":"Feature","id":"5132dd7aa288f42e6735d055","properties":{"_id":"5132dd7aa288f42e6735d055","PROVIDER NPI":1649272451,"PROVIDER NAME":"Benner, Kent","PROVIDER STATE":"Oregon","PROVIDER CITY":"Portland","PROVIDER  ADDRESS":"1111 NE 99th Ave, Suite 301","PROVIDER ZIP 5 CD":97220,"PROVIDER ZIP 4 CD":9428,"PROVIDER PHONE NUM":5039632707,"PROVIDER PHONE EXT":"","PROGRAM YEAR":2011},"geometry":{"type":"Point","coordinates":[-122.562428,45.532199]}},{"type":"Feature","id":"5132dd7aa288f42e6735d056","properties":{"_id":"5132dd7aa288f42e6735d056","PROVIDER NPI":1407823867,"PROVIDER NAME":"Bensching, Katherine","PROVIDER STATE":"Oregon","PROVIDER CITY":"Portland","PROVIDER  ADDRESS":"3181 SW Sam Jackson Park Rd, SJH 3370","PROVIDER ZIP 5 CD":97239,"PROVIDER ZIP 4 CD":3011,"PROVIDER PHONE NUM":5034946551,"PROVIDER PHONE EXT":"","PROGRAM YEAR":2011},"geometry":{"type":"Point","coordinates":[-122.688084,45.499289]}},{"type":"Feature","id":"5132dd7aa288f42e6735d057","properties":{"_id":"5132dd7aa288f42e6735d057","PROVIDER NPI":1982686671,"PROVIDER NAME":"BENTLEY, ROBERT","PROVIDER STATE":"Oregon","PROVIDER CITY":"Portland","PROVIDER  ADDRESS":"1955 NW Northrup St","PROVIDER ZIP 5 CD":97209,"PROVIDER ZIP 4 CD":1614,"PROVIDER PHONE NUM":5032272020,"PROVIDER PHONE EXT":"","PROGRAM YEAR":2011},"geometry":{"type":"Point","coordinates":[-122.691333,45.531419]}},{"type":"Feature","id":"5132dd7aa288f42e6735d058","properties":{"_id":"5132dd7aa288f42e6735d058","PROVIDER NPI":1538118906,"PROVIDER NAME":"Benton, Nick","PROVIDER STATE":"Oregon","PROVIDER CITY":"Corvallis","PROVIDER  ADDRESS":"444 NW Elks Dr","PROVIDER ZIP 5 CD":97330,"PROVIDER ZIP 4 CD":3745,"PROVIDER PHONE NUM":5417541150,"PROVIDER PHONE EXT":"","PROGRAM YEAR":2011},"geometry":{"type":"Point","coordinates":[-123.252339,44.600902]}},{"type":"Feature","id":"5132dd7aa288f42e6735d059","properties":{"_id":"5132dd7aa288f42e6735d059","PROVIDER NPI":1619916483,"PROVIDER NAME":"Bentson, Lynn","PROVIDER STATE":"Oregon","PROVIDER CITY":"Albany","PROVIDER  ADDRESS":"1086 7th Ave SW, Suite 101","PROVIDER ZIP 5 CD":97321,"PROVIDER ZIP 4 CD":1997,"PROVIDER PHONE NUM":5419266030,"PROVIDER PHONE EXT":"","PROGRAM YEAR":2011},"geometry":{"type":"Point","coordinates":[-123.11703,44.631157]}},{"type":"Feature","id":"5132dd7aa288f42e6735d05a","properties":{"_id":"5132dd7aa288f42e6735d05a","PROVIDER NPI":1811948110,"PROVIDER NAME":"Berney, Joyce","PROVIDER STATE":"Oregon","PROVIDER CITY":"Lake Oswego","PROVIDER  ADDRESS":"6 Centerpointe Drive, Ste 200","PROVIDER ZIP 5 CD":97035,"PROVIDER ZIP 4 CD":"","PROVIDER PHONE NUM":5037972268,"PROVIDER PHONE EXT":"","PROGRAM YEAR":2011},"geometry":{"type":"Point","coordinates":[-122.719953,45.42133]}},{"type":"Feature","id":"5132dd7aa288f42e6735d05b","properties":{"_id":"5132dd7aa288f42e6735d05b","PROVIDER NPI":1992802763,"PROVIDER NAME":"Betlinski, Jonathan","PROVIDER STATE":"Oregon","PROVIDER CITY":"Portland","PROVIDER  ADDRESS":"3181 SW Sam Jackson Park Rd","PROVIDER ZIP 5 CD":97239,"PROVIDER ZIP 4 CD":3011,"PROVIDER PHONE NUM":5034946176,"PROVIDER PHONE EXT":"","PROGRAM YEAR":2011},"geometry":{"type":"Point","coordinates":[-122.688084,45.499289]}},{"type":"Feature","id":"5132dd7aa288f42e6735d05c","properties":{"_id":"5132dd7aa288f42e6735d05c","PROVIDER NPI":1932298494,"PROVIDER NAME":"Beyerlein, Richard","PROVIDER STATE":"Oregon","PROVIDER CITY":"Eugene","PROVIDER  ADDRESS":"10 Coburg Rd, Suite 100","PROVIDER ZIP 5 CD":97401,"PROVIDER ZIP 4 CD":"","PROVIDER PHONE NUM":5413428616,"PROVIDER PHONE EXT":"","PROGRAM YEAR":2011},"geometry":{"type":"Point","coordinates":[-123.080685,44.061829]}},{"type":"Feature","id":"5132dd7aa288f42e6735d05d","properties":{"_id":"5132dd7aa288f42e6735d05d","PROVIDER NPI":1831156025,"PROVIDER NAME":"Bhardwaj, Sidharth","PROVIDER STATE":"Oregon","PROVIDER CITY":"Portland","PROVIDER  ADDRESS":"1111 NE 99th Ave","PROVIDER ZIP 5 CD":97220,"PROVIDER ZIP 4 CD":9428,"PROVIDER PHONE NUM":5039632707,"PROVIDER PHONE EXT":"","PROGRAM YEAR":2011},"geometry":{"type":"Point","coordinates":[-122.562428,45.532199]}},{"type":"Feature","id":"5132dd7aa288f42e6735d05e","properties":{"_id":"5132dd7aa288f42e6735d05e","PROVIDER NPI":1083621916,"PROVIDER NAME":"Biagioli, Frances","PROVIDER STATE":"Oregon","PROVIDER CITY":"Portland","PROVIDER  ADDRESS":"4411 SW Vermont St","PROVIDER ZIP 5 CD":97219,"PROVIDER ZIP 4 CD":1020,"PROVIDER PHONE NUM":5034949992,"PROVIDER PHONE EXT":"","PROGRAM YEAR":2011},"geometry":{"type":"Point","coordinates":[-122.721842,45.476301]}},{"type":"Feature","id":"5132dd7aa288f42e6735d05f","properties":{"_id":"5132dd7aa288f42e6735d05f","PROVIDER NPI":1306826839,"PROVIDER NAME":"BIGLER, EDWARD","PROVIDER STATE":"Oregon","PROVIDER CITY":"Bend","PROVIDER  ADDRESS":"929 SW Simpson Ave, PO Box 490","PROVIDER ZIP 5 CD":97709,"PROVIDER ZIP 4 CD":490,"PROVIDER PHONE NUM":5413897741,"PROVIDER PHONE EXT":"","PROGRAM YEAR":2011},"geometry":{"type":"Point","coordinates":[-120.94952,44.001834]}},{"type":"Feature","id":"5132dd7aa288f42e6735d060","properties":{"_id":"5132dd7aa288f42e6735d060","PROVIDER NPI":1346258803,"PROVIDER NAME":"Billingsley, Kevin","PROVIDER STATE":"Oregon","PROVIDER CITY":"Portland","PROVIDER  ADDRESS":"3181 SW Sam Jackson Park Rd, L619","PROVIDER ZIP 5 CD":97239,"PROVIDER ZIP 4 CD":3011,"PROVIDER PHONE NUM":5034945501,"PROVIDER PHONE EXT":"","PROGRAM YEAR":2011},"geometry":{"type":"Point","coordinates":[-122.688084,45.499289]}},{"type":"Feature","id":"5132dd7aa288f42e6735d061","properties":{"_id":"5132dd7aa288f42e6735d061","PROVIDER NPI":1962450601,"PROVIDER NAME":"Blake, Christopher","PROVIDER STATE":"Oregon","PROVIDER CITY":"McMinnville","PROVIDER  ADDRESS":"2700 SE Stratus Ave, Clinic Operations","PROVIDER ZIP 5 CD":97128,"PROVIDER ZIP 4 CD":6258,"PROVIDER PHONE NUM":5034720423,"PROVIDER PHONE EXT":"","PROGRAM YEAR":2011},"geometry":{"type":"Point","coordinates":[-122.904372,45.298648]}},{"type":"Feature","id":"5132dd7aa288f42e6735d062","properties":{"_id":"5132dd7aa288f42e6735d062","PROVIDER NPI":1750319968,"PROVIDER NAME":"Blanchette, Mary","PROVIDER STATE":"Oregon","PROVIDER CITY":"Portland","PROVIDER  ADDRESS":"3181 SW Sam Jackson Park Rd, UHS-2","PROVIDER ZIP 5 CD":97239,"PROVIDER ZIP 4 CD":3011,"PROVIDER PHONE NUM":5034944910,"PROVIDER PHONE EXT":"","PROGRAM YEAR":2011},"geometry":{"type":"Point","coordinates":[-122.679704,45.489165]}},{"type":"Feature","id":"5132dd7aa288f42e6735d063","properties":{"_id":"5132dd7aa288f42e6735d063","PROVIDER NPI":1255324158,"PROVIDER NAME":"Blankenship, Sheryl","PROVIDER STATE":"Oregon","PROVIDER CITY":"Baker City","PROVIDER  ADDRESS":"2150 3rd St","PROVIDER ZIP 5 CD":97814,"PROVIDER ZIP 4 CD":2609,"PROVIDER PHONE NUM":5415235858,"PROVIDER PHONE EXT":"","PROGRAM YEAR":2011},"geometry":{"type":"Point","coordinates":[-117.833146,44.778593]}},{"type":"Feature","id":"5132dd7aa288f42e6735d064","properties":{"_id":"5132dd7aa288f42e6735d064","PROVIDER NPI":1932115425,"PROVIDER NAME":"Blauvelt, Andrew","PROVIDER STATE":"Oregon","PROVIDER CITY":"Portland","PROVIDER  ADDRESS":"3181 SW Sam Jackson Park Rd","PROVIDER ZIP 5 CD":97239,"PROVIDER ZIP 4 CD":3011,"PROVIDER PHONE NUM":5034183376,"PROVIDER PHONE EXT":"","PROGRAM YEAR":2011},"geometry":{"type":"Point","coordinates":[-122.688084,45.499289]}},{"type":"Feature","id":"5132dd7aa288f42e6735d065","properties":{"_id":"5132dd7aa288f42e6735d065","PROVIDER NPI":1942252168,"PROVIDER NAME":"Bliven, Matthew","PROVIDER STATE":"Oregon","PROVIDER CITY":"McMinnville","PROVIDER  ADDRESS":"254 NE Norton Ln","PROVIDER ZIP 5 CD":97128,"PROVIDER ZIP 4 CD":8470,"PROVIDER PHONE NUM":5034726161,"PROVIDER PHONE EXT":"","PROGRAM YEAR":2011},"geometry":{"type":"Point","coordinates":[-123.16647,45.201805]}},{"type":"Feature","id":"5132dd7aa288f42e6735d066","properties":{"_id":"5132dd7aa288f42e6735d066","PROVIDER NPI":1851373922,"PROVIDER NAME":"BOCK, CHARLES","PROVIDER STATE":"Oregon","PROVIDER CITY":"Oregon City","PROVIDER  ADDRESS":"1306 Division St","PROVIDER ZIP 5 CD":97045,"PROVIDER ZIP 4 CD":1523,"PROVIDER PHONE NUM":5036564221,"PROVIDER PHONE EXT":"","PROGRAM YEAR":2011},"geometry":{"type":"Point","coordinates":[-122.58833,45.354186]}},{"type":"Feature","id":"5132dd7aa288f42e6735d067","properties":{"_id":"5132dd7aa288f42e6735d067","PROVIDER NPI":1306862206,"PROVIDER NAME":"Bodell, Dawn","PROVIDER STATE":"Oregon","PROVIDER CITY":"Springfield","PROVIDER  ADDRESS":"2400 Hartman Ln Ste 200","PROVIDER ZIP 5 CD":97477,"PROVIDER ZIP 4 CD":1122,"PROVIDER PHONE NUM":5414840926,"PROVIDER PHONE EXT":"","PROGRAM YEAR":2011},"geometry":{"type":"Point","coordinates":[-123.039884,44.0702]}},{"type":"Feature","id":"5132dd7aa288f42e6735d068","properties":{"_id":"5132dd7aa288f42e6735d068","PROVIDER NPI":1174538698,"PROVIDER NAME":"Boehnlein, James","PROVIDER STATE":"Oregon","PROVIDER CITY":"Portland","PROVIDER  ADDRESS":"3181 SW Sam Jackson Park Rd","PROVIDER ZIP 5 CD":97239,"PROVIDER ZIP 4 CD":3011,"PROVIDER PHONE NUM":5034946653,"PROVIDER PHONE EXT":"","PROGRAM YEAR":2011},"geometry":{"type":"Point","coordinates":[-122.688084,45.499289]}},{"type":"Feature","id":"5132dd7aa288f42e6735d069","properties":{"_id":"5132dd7aa288f42e6735d069","PROVIDER NPI":1003890153,"PROVIDER NAME":"Boggs, Jerry","PROVIDER STATE":"Oregon","PROVIDER CITY":"Roseburg","PROVIDER  ADDRESS":"2510 NW Edenbower Blvd, Suite 152","PROVIDER ZIP 5 CD":97471,"PROVIDER ZIP 4 CD":8899,"PROVIDER PHONE NUM":5414405320,"PROVIDER PHONE EXT":"","PROGRAM YEAR":2011},"geometry":{"type":"Point","coordinates":[-123.38669,43.185796]}},{"type":"Feature","id":"5132dd7aa288f42e6735d06a","properties":{"_id":"5132dd7aa288f42e6735d06a","PROVIDER NPI":1437112919,"PROVIDER NAME":"Bohman, Bruce","PROVIDER STATE":"Oregon","PROVIDER CITY":"Albany","PROVIDER  ADDRESS":"1046 W 6th Ave","PROVIDER ZIP 5 CD":97321,"PROVIDER ZIP 4 CD":"","PROVIDER PHONE NUM":5039262244,"PROVIDER PHONE EXT":"","PROGRAM YEAR":2011},"geometry":{"type":"Point","coordinates":[-123.092074,44.634764]}},{"type":"Feature","id":"5132dd7aa288f42e6735d06b","properties":{"_id":"5132dd7aa288f42e6735d06b","PROVIDER NPI":1477503878,"PROVIDER NAME":"Bombeck, Christopher","PROVIDER STATE":"Oregon","PROVIDER CITY":"Corvallis","PROVIDER  ADDRESS":"3680 NW Samaritan Dr","PROVIDER ZIP 5 CD":97330,"PROVIDER ZIP 4 CD":3737,"PROVIDER PHONE NUM":5417541150,"PROVIDER PHONE EXT":"","PROGRAM YEAR":2011},"geometry":{"type":"Point","coordinates":[-123.253297,44.603266]}},{"type":"Feature","id":"5132dd7aa288f42e6735d06c","properties":{"_id":"5132dd7aa288f42e6735d06c","PROVIDER NPI":1457366965,"PROVIDER NAME":"Bonazzola, Michael","PROVIDER STATE":"Oregon","PROVIDER CITY":"Portland","PROVIDER  ADDRESS":"3181 SW Sam Jackson Park Rd","PROVIDER ZIP 5 CD":97239,"PROVIDER ZIP 4 CD":3011,"PROVIDER PHONE NUM":5034182070,"PROVIDER PHONE EXT":"","PROGRAM YEAR":2011},"geometry":{"type":"Point","coordinates":[-122.688084,45.499289]}},{"type":"Feature","id":"5132dd7aa288f42e6735d06d","properties":{"_id":"5132dd7aa288f42e6735d06d","PROVIDER NPI":1588671820,"PROVIDER NAME":"Booker, Michael","PROVIDER STATE":"Oregon","PROVIDER CITY":"Portland","PROVIDER  ADDRESS":"2647 NE 33rd Ave","PROVIDER ZIP 5 CD":97212,"PROVIDER ZIP 4 CD":3647,"PROVIDER PHONE NUM":5032880083,"PROVIDER PHONE EXT":"","PROGRAM YEAR":2011},"geometry":{"type":"Point","coordinates":[-122.630752,45.541694]}},{"type":"Feature","id":"5132dd7aa288f42e6735d06e","properties":{"_id":"5132dd7aa288f42e6735d06e","PROVIDER NPI":1679555742,"PROVIDER NAME":"Borden, James","PROVIDER STATE":"Oregon","PROVIDER CITY":"Portland","PROVIDER  ADDRESS":"1411 SW Morrison ST, Ste 200","PROVIDER ZIP 5 CD":97205,"PROVIDER ZIP 4 CD":1945,"PROVIDER PHONE NUM":5032429850,"PROVIDER PHONE EXT":3009,"PROGRAM YEAR":2011},"geometry":{"type":"Point","coordinates":[-122.686241,45.521197]}},{"type":"Feature","id":"5132dd7aa288f42e6735d06f","properties":{"_id":"5132dd7aa288f42e6735d06f","PROVIDER NPI":1689881898,"PROVIDER NAME":"Boric, Lamia","PROVIDER STATE":"Oregon","PROVIDER CITY":"Corvallis","PROVIDER  ADDRESS":"3680 NW Samaritan Dr","PROVIDER ZIP 5 CD":97330,"PROVIDER ZIP 4 CD":3737,"PROVIDER PHONE NUM":5417541150,"PROVIDER PHONE EXT":"","PROGRAM YEAR":2011},"geometry":{"type":"Point","coordinates":[-123.253297,44.603266]}},{"type":"Feature","id":"5132dd7aa288f42e6735d070","properties":{"_id":"5132dd7aa288f42e6735d070","PROVIDER NPI":1114987682,"PROVIDER NAME":"Boskind, Jeffrey","PROVIDER STATE":"Oregon","PROVIDER CITY":"Portland","PROVIDER  ADDRESS":"10000 SE Main St, Suite 316","PROVIDER ZIP 5 CD":97216,"PROVIDER ZIP 4 CD":2448,"PROVIDER PHONE NUM":5032561575,"PROVIDER PHONE EXT":"","PROGRAM YEAR":2011},"geometry":{"type":"Point","coordinates":[-122.572132,45.513619]}},{"type":"Feature","id":"5132dd7aa288f42e6735d071","properties":{"_id":"5132dd7aa288f42e6735d071","PROVIDER NPI":1376658005,"PROVIDER NAME":"Botney, Richard","PROVIDER STATE":"Oregon","PROVIDER CITY":"Portland","PROVIDER  ADDRESS":"3181 SW Sam Jackson Park Rd, UHS-2","PROVIDER ZIP 5 CD":97239,"PROVIDER ZIP 4 CD":3011,"PROVIDER PHONE NUM":5034944910,"PROVIDER PHONE EXT":"","PROGRAM YEAR":2011},"geometry":{"type":"Point","coordinates":[-122.679704,45.489165]}},{"type":"Feature","id":"5132dd7aa288f42e6735d072","properties":{"_id":"5132dd7aa288f42e6735d072","PROVIDER NPI":1104831619,"PROVIDER NAME":"Bourdette, Dennis","PROVIDER STATE":"Oregon","PROVIDER CITY":"Portland","PROVIDER  ADDRESS":"3181 SW Sam Jackson Park Rd, Department of Neurology, L226","PROVIDER ZIP 5 CD":97239,"PROVIDER ZIP 4 CD":3011,"PROVIDER PHONE NUM":5034947772,"PROVIDER PHONE EXT":"","PROGRAM YEAR":2011},"geometry":{"type":"Point","coordinates":[-122.688084,45.499289]}},{"type":"Feature","id":"5132dd7aa288f42e6735d073","properties":{"_id":"5132dd7aa288f42e6735d073","PROVIDER NPI":1457361255,"PROVIDER NAME":"BOVEE, DOUGLAS","PROVIDER STATE":"Oregon","PROVIDER CITY":"Eugene","PROVIDER  ADDRESS":"3525 Hilyard St","PROVIDER ZIP 5 CD":97405,"PROVIDER ZIP 4 CD":3866,"PROVIDER PHONE NUM":5416878581,"PROVIDER PHONE EXT":"","PROGRAM YEAR":2011},"geometry":{"type":"Point","coordinates":[-123.08145,44.018085]}},{"type":"Feature","id":"5132dd7aa288f42e6735d074","properties":{"_id":"5132dd7aa288f42e6735d074","PROVIDER NPI":1811904741,"PROVIDER NAME":"Bower, Elizabeth","PROVIDER STATE":"Oregon","PROVIDER CITY":"Portland","PROVIDER  ADDRESS":"3181 SW Sam Jackson Park Rd","PROVIDER ZIP 5 CD":97239,"PROVIDER ZIP 4 CD":3011,"PROVIDER PHONE NUM":5034948562,"PROVIDER PHONE EXT":"","PROGRAM YEAR":2011},"geometry":{"type":"Point","coordinates":[-122.688084,45.499289]}},{"type":"Feature","id":"5132dd7aa288f42e6735d075","properties":{"_id":"5132dd7aa288f42e6735d075","PROVIDER NPI":1801898663,"PROVIDER NAME":"Bowerfind, William","PROVIDER STATE":"Oregon","PROVIDER CITY":"Portland","PROVIDER  ADDRESS":"1111 NE 99th Ave, Suite 200","PROVIDER ZIP 5 CD":97220,"PROVIDER ZIP 4 CD":9428,"PROVIDER PHONE NUM":5039633030,"PROVIDER PHONE EXT":"","PROGRAM YEAR":2011},"geometry":{"type":"Point","coordinates":[-122.562428,45.532199]}},{"type":"Feature","id":"5132dd7aa288f42e6735d076","properties":{"_id":"5132dd7aa288f42e6735d076","PROVIDER NPI":1891742722,"PROVIDER NAME":"Boyer, John","PROVIDER STATE":"Oregon","PROVIDER CITY":"Portland","PROVIDER  ADDRESS":"3303 SW Bond Ave","PROVIDER ZIP 5 CD":97239,"PROVIDER ZIP 4 CD":4501,"PROVIDER PHONE NUM":5034943098,"PROVIDER PHONE EXT":"","PROGRAM YEAR":2011},"geometry":{"type":"Point","coordinates":[-122.670846,45.499254]}},{"type":"Feature","id":"5132dd7aa288f42e6735d077","properties":{"_id":"5132dd7aa288f42e6735d077","PROVIDER NPI":1972581437,"PROVIDER NAME":"Boyle, Edward","PROVIDER STATE":"Oregon","PROVIDER CITY":"Bend","PROVIDER  ADDRESS":"2200 NE Neff Rd, Suite 204","PROVIDER ZIP 5 CD":97701,"PROVIDER ZIP 4 CD":4283,"PROVIDER PHONE NUM":5413828346,"PROVIDER PHONE EXT":"","PROGRAM YEAR":2011},"geometry":{"type":"Point","coordinates":[-121.261214,44.065764]}},{"type":"Feature","id":"5132dd7aa288f42e6735d078","properties":{"_id":"5132dd7aa288f42e6735d078","PROVIDER NPI":1245273283,"PROVIDER NAME":"Boyle, Jodell","PROVIDER STATE":"Oregon","PROVIDER CITY":"Corvallis","PROVIDER  ADDRESS":"3640 NW Samaritan Dr, Suite 270","PROVIDER ZIP 5 CD":97330,"PROVIDER ZIP 4 CD":3784,"PROVIDER PHONE NUM":5417685300,"PROVIDER PHONE EXT":"","PROGRAM YEAR":2011},"geometry":{"type":"Point","coordinates":[-123.250219,44.603851]}},{"type":"Feature","id":"5132dd7aa288f42e6735d079","properties":{"_id":"5132dd7aa288f42e6735d079","PROVIDER NPI":1053351221,"PROVIDER NAME":"Bradbury, Mark","PROVIDER STATE":"Oregon","PROVIDER CITY":"Klamath Falls","PROVIDER  ADDRESS":"2604 Clover St","PROVIDER ZIP 5 CD":97601,"PROVIDER ZIP 4 CD":1132,"PROVIDER PHONE NUM":5412742888,"PROVIDER PHONE EXT":"","PROGRAM YEAR":2011},"geometry":{"type":"Point","coordinates":[-121.789882,42.251711]}},{"type":"Feature","id":"5132dd7aa288f42e6735d07a","properties":{"_id":"5132dd7aa288f42e6735d07a","PROVIDER NPI":1629065974,"PROVIDER NAME":"Braman, Marcus","PROVIDER STATE":"Oregon","PROVIDER CITY":"Woodburn","PROVIDER  ADDRESS":"612 Glatt Cir","PROVIDER ZIP 5 CD":97071,"PROVIDER ZIP 4 CD":9600,"PROVIDER PHONE NUM":9719835433,"PROVIDER PHONE EXT":"","PROGRAM YEAR":2011},"geometry":{"type":"Point","coordinates":[-122.806278,45.452655]}},{"type":"Feature","id":"5132dd7aa288f42e6735d07b","properties":{"_id":"5132dd7aa288f42e6735d07b","PROVIDER NPI":1750420766,"PROVIDER NAME":"Brandes, Richard","PROVIDER STATE":"Oregon","PROVIDER CITY":"Salem","PROVIDER  ADDRESS":"875 Oak St SE, Ste 3010","PROVIDER ZIP 5 CD":97301,"PROVIDER ZIP 4 CD":"","PROVIDER PHONE NUM":5033997520,"PROVIDER PHONE EXT":"","PROGRAM YEAR":2011},"geometry":{"type":"Point","coordinates":[-123.03473,44.933383]}},{"type":"Feature","id":"5132dd7aa288f42e6735d07c","properties":{"_id":"5132dd7aa288f42e6735d07c","PROVIDER NPI":1932159324,"PROVIDER NAME":"Brant, Michael","PROVIDER STATE":"Oregon","PROVIDER CITY":"Corvallis","PROVIDER  ADDRESS":"444 NW Elks Drive","PROVIDER ZIP 5 CD":97330,"PROVIDER ZIP 4 CD":3737,"PROVIDER PHONE NUM":5417541150,"PROVIDER PHONE EXT":"","PROGRAM YEAR":2011},"geometry":{"type":"Point","coordinates":[-123.252339,44.600902]}},{"type":"Feature","id":"5132dd7aa288f42e6735d07d","properties":{"_id":"5132dd7aa288f42e6735d07d","PROVIDER NPI":1790787554,"PROVIDER NAME":"Bray, Harry","PROVIDER STATE":"Oregon","PROVIDER CITY":"Portland","PROVIDER  ADDRESS":"1111 NE 99th Ave, Suite 301","PROVIDER ZIP 5 CD":97220,"PROVIDER ZIP 4 CD":9428,"PROVIDER PHONE NUM":5039632707,"PROVIDER PHONE EXT":"","PROGRAM YEAR":2011},"geometry":{"type":"Point","coordinates":[-122.562428,45.532199]}},{"type":"Feature","id":"5132dd7aa288f42e6735d07e","properties":{"_id":"5132dd7aa288f42e6735d07e","PROVIDER NPI":1265447759,"PROVIDER NAME":"Braziel, Rita","PROVIDER STATE":"Oregon","PROVIDER CITY":"Portland","PROVIDER  ADDRESS":"3181 SW Sam Jackson Park Rd #L471","PROVIDER ZIP 5 CD":97239,"PROVIDER ZIP 4 CD":9773,"PROVIDER PHONE NUM":5034948276,"PROVIDER PHONE EXT":"","PROGRAM YEAR":2011},"geometry":{"type":"Point","coordinates":[-122.688084,45.499289]}},{"type":"Feature","id":"5132dd7aa288f42e6735d07f","properties":{"_id":"5132dd7aa288f42e6735d07f","PROVIDER NPI":1003855065,"PROVIDER NAME":"Bream, Randall","PROVIDER STATE":"Oregon","PROVIDER CITY":"Corvallis","PROVIDER  ADDRESS":"3600 NW Samaritan Dr, Suite E350","PROVIDER ZIP 5 CD":97330,"PROVIDER ZIP 4 CD":3737,"PROVIDER PHONE NUM":5417685205,"PROVIDER PHONE EXT":"","PROGRAM YEAR":2011},"geometry":{"type":"Point","coordinates":[-123.249334,44.600448]}},{"type":"Feature","id":"5132dd7aa288f42e6735d080","properties":{"_id":"5132dd7aa288f42e6735d080","PROVIDER NPI":1164594248,"PROVIDER NAME":"Breen, Roy","PROVIDER STATE":"Oregon","PROVIDER CITY":"Portland","PROVIDER  ADDRESS":"1040 NW 22nd Ave, Suite 560","PROVIDER ZIP 5 CD":97210,"PROVIDER ZIP 4 CD":3057,"PROVIDER PHONE NUM":5032810561,"PROVIDER PHONE EXT":"","PROGRAM YEAR":2011},"geometry":{"type":"Point","coordinates":[-122.696513,45.53012]}},{"type":"Feature","id":"5132dd7aa288f42e6735d081","properties":{"_id":"5132dd7aa288f42e6735d081","PROVIDER NPI":1104989524,"PROVIDER NAME":"Brennan, Benjamin","PROVIDER STATE":"Oregon","PROVIDER CITY":"Portland","PROVIDER  ADDRESS":"3181 SW Sam Jackson Park Rd, Oregon Health & Sciences University, CR#120","PROVIDER ZIP 5 CD":97239,"PROVIDER ZIP 4 CD":3011,"PROVIDER PHONE NUM":5034945236,"PROVIDER PHONE EXT":"","PROGRAM YEAR":2011},"geometry":{"type":"Point","coordinates":[-122.693662,45.497741]}},{"type":"Feature","id":"5132dd7aa288f42e6735d082","properties":{"_id":"5132dd7aa288f42e6735d082","PROVIDER NPI":1306842919,"PROVIDER NAME":"Bridgeman, DeOna","PROVIDER STATE":"Oregon","PROVIDER CITY":"Canby","PROVIDER  ADDRESS":"345 N Grant St","PROVIDER ZIP 5 CD":97013,"PROVIDER ZIP 4 CD":3610,"PROVIDER PHONE NUM":5032662066,"PROVIDER PHONE EXT":"","PROGRAM YEAR":2011},"geometry":{"type":"Point","coordinates":[-122.696571,45.263819]}},{"type":"Feature","id":"5132dd7aa288f42e6735d083","properties":{"_id":"5132dd7aa288f42e6735d083","PROVIDER NPI":1881637882,"PROVIDER NAME":"Brink, Harold","PROVIDER STATE":"Oregon","PROVIDER CITY":"Lebanon","PROVIDER  ADDRESS":"191 N Main St","PROVIDER ZIP 5 CD":97355,"PROVIDER ZIP 4 CD":2870,"PROVIDER PHONE NUM":5414517940,"PROVIDER PHONE EXT":"","PROGRAM YEAR":2011},"geometry":{"type":"Point","coordinates":[-122.907832,44.547288]}},{"type":"Feature","id":"5132dd7aa288f42e6735d084","properties":{"_id":"5132dd7aa288f42e6735d084","PROVIDER NPI":1780673996,"PROVIDER NAME":"Briscoe, Barbara","PROVIDER STATE":"Oregon","PROVIDER CITY":"West Linn","PROVIDER  ADDRESS":"22400 S Salamo Rd","PROVIDER ZIP 5 CD":97068,"PROVIDER ZIP 4 CD":8269,"PROVIDER PHONE NUM":5037227737,"PROVIDER PHONE EXT":"","PROGRAM YEAR":2011},"geometry":{"type":"Point","coordinates":[-122.648475,45.363859]}},{"type":"Feature","id":"5132dd7aa288f42e6735d085","properties":{"_id":"5132dd7aa288f42e6735d085","PROVIDER NPI":1497743371,"PROVIDER NAME":"Briscoe, William","PROVIDER STATE":"Oregon","PROVIDER CITY":"West Linn","PROVIDER  ADDRESS":"22400 S Salamo Rd","PROVIDER ZIP 5 CD":97068,"PROVIDER ZIP 4 CD":8269,"PROVIDER PHONE NUM":5037227737,"PROVIDER PHONE EXT":"","PROGRAM YEAR":2011},"geometry":{"type":"Point","coordinates":[-122.648475,45.363859]}},{"type":"Feature","id":"5132dd7aa288f42e6735d086","properties":{"_id":"5132dd7aa288f42e6735d086","PROVIDER NPI":1124161104,"PROVIDER NAME":"Britsch, Jerri","PROVIDER STATE":"Oregon","PROVIDER CITY":"Klamath Falls","PROVIDER  ADDRESS":"1905 Main St","PROVIDER ZIP 5 CD":97601,"PROVIDER ZIP 4 CD":2638,"PROVIDER PHONE NUM":5418824691,"PROVIDER PHONE EXT":"","PROGRAM YEAR":2011},"geometry":{"type":"Point","coordinates":[-121.769326,42.228433]}},{"type":"Feature","id":"5132dd7aa288f42e6735d087","properties":{"_id":"5132dd7aa288f42e6735d087","PROVIDER NPI":1114995735,"PROVIDER NAME":"BRITTAIN, SHELLEY","PROVIDER STATE":"Oregon","PROVIDER CITY":"Roseburg","PROVIDER  ADDRESS":"2570 NW Edenbower Blvd, Suite 100","PROVIDER ZIP 5 CD":97471,"PROVIDER ZIP 4 CD":6214,"PROVIDER PHONE NUM":5416777200,"PROVIDER PHONE EXT":"","PROGRAM YEAR":2011},"geometry":{"type":"Point","coordinates":[-123.38669,43.185796]}},{"type":"Feature","id":"5132dd7aa288f42e6735d088","properties":{"_id":"5132dd7aa288f42e6735d088","PROVIDER NPI":1508874058,"PROVIDER NAME":"Broberg, Craig","PROVIDER STATE":"Oregon","PROVIDER CITY":"Portland","PROVIDER  ADDRESS":"3181 SW Sam Jackson Pk Rd, UHN 62 Division of Cardiology","PROVIDER ZIP 5 CD":97239,"PROVIDER ZIP 4 CD":"","PROVIDER PHONE NUM":5034948750,"PROVIDER PHONE EXT":"","PROGRAM YEAR":2011},"geometry":{"type":"Point","coordinates":[-122.688084,45.499289]}},{"type":"Feature","id":"5132dd7aa288f42e6735d089","properties":{"_id":"5132dd7aa288f42e6735d089","PROVIDER NPI":1164430609,"PROVIDER NAME":"Brodsky, Matthew","PROVIDER STATE":"Oregon","PROVIDER CITY":"Portland","PROVIDER  ADDRESS":"3181 SW Sam Jackson Park Rd","PROVIDER ZIP 5 CD":97239,"PROVIDER ZIP 4 CD":3011,"PROVIDER PHONE NUM":5034947772,"PROVIDER PHONE EXT":"","PROGRAM YEAR":2011},"geometry":{"type":"Point","coordinates":[-122.688084,45.499289]}},{"type":"Feature","id":"5132dd7aa288f42e6735d08a","properties":{"_id":"5132dd7aa288f42e6735d08a","PROVIDER NPI":1639160856,"PROVIDER NAME":"Brodsky, Trina","PROVIDER STATE":"Oregon","PROVIDER CITY":"Portland","PROVIDER  ADDRESS":"9555 SW Barnes Rd, Suite 100","PROVIDER ZIP 5 CD":97225,"PROVIDER ZIP 4 CD":6663,"PROVIDER PHONE NUM":5032923577,"PROVIDER PHONE EXT":"","PROGRAM YEAR":2011},"geometry":{"type":"Point","coordinates":[-122.779156,45.494871]}},{"type":"Feature","id":"5132dd7aa288f42e6735d08b","properties":{"_id":"5132dd7aa288f42e6735d08b","PROVIDER NPI":1730184391,"PROVIDER NAME":"Brott, Leslie","PROVIDER STATE":"Oregon","PROVIDER CITY":"McMinnville","PROVIDER  ADDRESS":"254 NE Norton Lane","PROVIDER ZIP 5 CD":97128,"PROVIDER ZIP 4 CD":4698,"PROVIDER PHONE NUM":5034726161,"PROVIDER PHONE EXT":234,"PROGRAM YEAR":2011},"geometry":{"type":"Point","coordinates":[-123.16647,45.201805]}},{"type":"Feature","id":"5132dd7aa288f42e6735d08c","properties":{"_id":"5132dd7aa288f42e6735d08c","PROVIDER NPI":1700094695,"PROVIDER NAME":"Brown, Benjamina","PROVIDER STATE":"Oregon","PROVIDER CITY":"Milwaukie","PROVIDER  ADDRESS":"3033 SE Monroe St","PROVIDER ZIP 5 CD":97222,"PROVIDER ZIP 4 CD":6636,"PROVIDER PHONE NUM":5036594988,"PROVIDER PHONE EXT":"","PROGRAM YEAR":2011},"geometry":{"type":"Point","coordinates":[-122.631387,45.445331]}},{"type":"Feature","id":"5132dd7aa288f42e6735d08d","properties":{"_id":"5132dd7aa288f42e6735d08d","PROVIDER NPI":1992700850,"PROVIDER NAME":"Brown, Caroline","PROVIDER STATE":"Oregon","PROVIDER CITY":"Grants Pass","PROVIDER  ADDRESS":"495 SW Ramsey Ave","PROVIDER ZIP 5 CD":97527,"PROVIDER ZIP 4 CD":5681,"PROVIDER PHONE NUM":5414766644,"PROVIDER PHONE EXT":"","PROGRAM YEAR":2011},"geometry":{"type":"Point","coordinates":[-123.339382,42.421556]}},{"type":"Feature","id":"5132dd7aa288f42e6735d08e","properties":{"_id":"5132dd7aa288f42e6735d08e","PROVIDER NPI":1245449099,"PROVIDER NAME":"Brown, Michael","PROVIDER STATE":"Oregon","PROVIDER CITY":"Salem","PROVIDER  ADDRESS":"3777 Commercial St SE","PROVIDER ZIP 5 CD":97302,"PROVIDER ZIP 4 CD":3832,"PROVIDER PHONE NUM":5035881234,"PROVIDER PHONE EXT":"","PROGRAM YEAR":2011},"geometry":{"type":"Point","coordinates":[-123.03981,44.901346]}},{"type":"Feature","id":"5132dd7aa288f42e6735d08f","properties":{"_id":"5132dd7aa288f42e6735d08f","PROVIDER NPI":1619180668,"PROVIDER NAME":"brown, rashanda","PROVIDER STATE":"Oregon","PROVIDER CITY":"Salem","PROVIDER  ADDRESS":"875 Oak ST SE","PROVIDER ZIP 5 CD":97301,"PROVIDER ZIP 4 CD":3975,"PROVIDER PHONE NUM":5038144400,"PROVIDER PHONE EXT":"","PROGRAM YEAR":2011},"geometry":{"type":"Point","coordinates":[-123.03473,44.933383]}},{"type":"Feature","id":"5132dd7aa288f42e6735d090","properties":{"_id":"5132dd7aa288f42e6735d090","PROVIDER NPI":1215901434,"PROVIDER NAME":"Brown, Robert","PROVIDER STATE":"Oregon","PROVIDER CITY":"Portland","PROVIDER  ADDRESS":"120 NW 14th Ave, Suite 300","PROVIDER ZIP 5 CD":97209,"PROVIDER ZIP 4 CD":2601,"PROVIDER PHONE NUM":5032999906,"PROVIDER PHONE EXT":"","PROGRAM YEAR":2011},"geometry":{"type":"Point","coordinates":[-122.685099,45.523759]}},{"type":"Feature","id":"5132dd7aa288f42e6735d091","properties":{"_id":"5132dd7aa288f42e6735d091","PROVIDER NPI":1285641100,"PROVIDER NAME":"Bryant, Richard","PROVIDER STATE":"Oregon","PROVIDER CITY":"Portland","PROVIDER  ADDRESS":"3181 SW Sam Jackson Park Rd, OHSU NRC3","PROVIDER ZIP 5 CD":97239,"PROVIDER ZIP 4 CD":3011,"PROVIDER PHONE NUM":5034947735,"PROVIDER PHONE EXT":"","PROGRAM YEAR":2011},"geometry":{"type":"Point","coordinates":[-122.688084,45.499289]}},{"type":"Feature","id":"5132dd7aa288f42e6735d092","properties":{"_id":"5132dd7aa288f42e6735d092","PROVIDER NPI":1689652331,"PROVIDER NAME":"Buck, Michael","PROVIDER STATE":"Oregon","PROVIDER CITY":"Salem","PROVIDER  ADDRESS":"875 Oak St SE Ste 3010","PROVIDER ZIP 5 CD":97301,"PROVIDER ZIP 4 CD":"","PROVIDER PHONE NUM":5033997520,"PROVIDER PHONE EXT":"","PROGRAM YEAR":2011},"geometry":{"type":"Point","coordinates":[-123.03473,44.933383]}},{"type":"Feature","id":"5132dd7aa288f42e6735d093","properties":{"_id":"5132dd7aa288f42e6735d093","PROVIDER NPI":1730166828,"PROVIDER NAME":"Buck, Richard","PROVIDER STATE":"Oregon","PROVIDER CITY":"Eugene","PROVIDER  ADDRESS":"1488 Oak St","PROVIDER ZIP 5 CD":97401,"PROVIDER ZIP 4 CD":4043,"PROVIDER PHONE NUM":5414319500,"PROVIDER PHONE EXT":"","PROGRAM YEAR":2011},"geometry":{"type":"Point","coordinates":[-123.091289,44.043437]}},{"type":"Feature","id":"5132dd7aa288f42e6735d094","properties":{"_id":"5132dd7aa288f42e6735d094","PROVIDER NPI":1245214725,"PROVIDER NAME":"Buckley, Christopher","PROVIDER STATE":"Oregon","PROVIDER CITY":"Salem","PROVIDER  ADDRESS":"5050 Skyline Village Loop S","PROVIDER ZIP 5 CD":97306,"PROVIDER ZIP 4 CD":9490,"PROVIDER PHONE NUM":5033911110,"PROVIDER PHONE EXT":"","PROGRAM YEAR":2011},"geometry":{"type":"Point","coordinates":[-123.07018,44.88163]}},{"type":"Feature","id":"5132dd7aa288f42e6735d095","properties":{"_id":"5132dd7aa288f42e6735d095","PROVIDER NPI":1720028335,"PROVIDER NAME":"Buckman, Christy","PROVIDER STATE":"Oregon","PROVIDER CITY":"Gresham","PROVIDER  ADDRESS":"24076 SE Stark St, Suite 230","PROVIDER ZIP 5 CD":97030,"PROVIDER ZIP 4 CD":3373,"PROVIDER PHONE NUM":5034882600,"PROVIDER PHONE EXT":"","PROGRAM YEAR":2011},"geometry":{"type":"Point","coordinates":[-122.413054,45.519011]}},{"type":"Feature","id":"5132dd7aa288f42e6735d096","properties":{"_id":"5132dd7aa288f42e6735d096","PROVIDER NPI":1528271707,"PROVIDER NAME":"Buehler, Patricia","PROVIDER STATE":"Oregon","PROVIDER CITY":"Bend","PROVIDER  ADDRESS":"2450 NE Mary Rose Pl, Suite 110","PROVIDER ZIP 5 CD":97701,"PROVIDER ZIP 4 CD":"","PROVIDER PHONE NUM":5413188388,"PROVIDER PHONE EXT":"","PROGRAM YEAR":2011},"geometry":{"type":"Point","coordinates":[-121.285246,44.151114]}},{"type":"Feature","id":"5132dd7aa288f42e6735d097","properties":{"_id":"5132dd7aa288f42e6735d097","PROVIDER NPI":1174506604,"PROVIDER NAME":"Buhl, Walter","PROVIDER STATE":"Oregon","PROVIDER CITY":"Milwaukie","PROVIDER  ADDRESS":"3033 SE Monroe St","PROVIDER ZIP 5 CD":97222,"PROVIDER ZIP 4 CD":6636,"PROVIDER PHONE NUM":5036594988,"PROVIDER PHONE EXT":"","PROGRAM YEAR":2011},"geometry":{"type":"Point","coordinates":[-122.631387,45.445331]}},{"type":"Feature","id":"5132dd7aa288f42e6735d098","properties":{"_id":"5132dd7aa288f42e6735d098","PROVIDER NPI":1891702726,"PROVIDER NAME":"Burchiel, Kim","PROVIDER STATE":"Oregon","PROVIDER CITY":"Portland","PROVIDER  ADDRESS":"3181 SW Sam Jackson Park Road, OHSU - CH 8N","PROVIDER ZIP 5 CD":97239,"PROVIDER ZIP 4 CD":"","PROVIDER PHONE NUM":5034944314,"PROVIDER PHONE EXT":"","PROGRAM YEAR":2011},"geometry":{"type":"Point","coordinates":[-122.688084,45.499289]}},{"type":"Feature","id":"5132dd7aa288f42e6735d099","properties":{"_id":"5132dd7aa288f42e6735d099","PROVIDER NPI":1184615304,"PROVIDER NAME":"Burgoine, Gary","PROVIDER STATE":"Oregon","PROVIDER CITY":"Tualatin","PROVIDER  ADDRESS":"19250 SW 65th Ave, Suite 300","PROVIDER ZIP 5 CD":97062,"PROVIDER ZIP 4 CD":7452,"PROVIDER PHONE NUM":5036921242,"PROVIDER PHONE EXT":"","PROGRAM YEAR":2011},"geometry":{"type":"Point","coordinates":[-122.743874,45.381327]}},{"type":"Feature","id":"5132dd7aa288f42e6735d09a","properties":{"_id":"5132dd7aa288f42e6735d09a","PROVIDER NPI":1134197213,"PROVIDER NAME":"Burroughs, Duane","PROVIDER STATE":"Oregon","PROVIDER CITY":"Portland","PROVIDER  ADDRESS":"501 N Graham, #100","PROVIDER ZIP 5 CD":97227,"PROVIDER ZIP 4 CD":"","PROVIDER PHONE NUM":5032495780,"PROVIDER PHONE EXT":"","PROGRAM YEAR":2011},"geometry":{"type":"Point","coordinates":[-122.670726,45.542822]}},{"type":"Feature","id":"5132dd7aa288f42e6735d09b","properties":{"_id":"5132dd7aa288f42e6735d09b","PROVIDER NPI":1104860725,"PROVIDER NAME":"Burton, Robert","PROVIDER STATE":"Oregon","PROVIDER CITY":"Corvallis","PROVIDER  ADDRESS":"3615 NW Samaritan Dr, Suite 100","PROVIDER ZIP 5 CD":97330,"PROVIDER ZIP 4 CD":3783,"PROVIDER PHONE NUM":5417685140,"PROVIDER PHONE EXT":"","PROGRAM YEAR":2011},"geometry":{"type":"Point","coordinates":[-123.252059,44.60477]}},{"type":"Feature","id":"5132dd7aa288f42e6735d09c","properties":{"_id":"5132dd7aa288f42e6735d09c","PROVIDER NPI":1801871991,"PROVIDER NAME":"Buzzas, George","PROVIDER STATE":"Oregon","PROVIDER CITY":"Bend","PROVIDER  ADDRESS":"2084 NE Professional Court","PROVIDER ZIP 5 CD":97701,"PROVIDER ZIP 4 CD":6770,"PROVIDER PHONE NUM":5413225753,"PROVIDER PHONE EXT":"","PROGRAM YEAR":2011},"geometry":{"type":"Point","coordinates":[-121.270554,44.064839]}},{"type":"Feature","id":"5132dd7aa288f42e6735d09d","properties":{"_id":"5132dd7aa288f42e6735d09d","PROVIDER NPI":1528017563,"PROVIDER NAME":"Bynum, Edward","PROVIDER STATE":"Oregon","PROVIDER CITY":"Corvallis","PROVIDER  ADDRESS":"3680 NW Samaritan Dr","PROVIDER ZIP 5 CD":97330,"PROVIDER ZIP 4 CD":3737,"PROVIDER PHONE NUM":5417541150,"PROVIDER PHONE EXT":"","PROGRAM YEAR":2011},"geometry":{"type":"Point","coordinates":[-123.253297,44.603266]}},{"type":"Feature","id":"5132dd7aa288f42e6735d09e","properties":{"_id":"5132dd7aa288f42e6735d09e","PROVIDER NPI":1356391445,"PROVIDER NAME":"Byram, Bruce","PROVIDER STATE":"Oregon","PROVIDER CITY":"Philomath","PROVIDER  ADDRESS":"1219 Applegate","PROVIDER ZIP 5 CD":97370,"PROVIDER ZIP 4 CD":"","PROVIDER PHONE NUM":5419292922,"PROVIDER PHONE EXT":"","PROGRAM YEAR":2011},"geometry":{"type":"Point","coordinates":[-123.370149,44.539049]}},{"type":"Feature","id":"5132dd7aa288f42e6735d09f","properties":{"_id":"5132dd7aa288f42e6735d09f","PROVIDER NPI":1295783017,"PROVIDER NAME":"Byrd, Daniel","PROVIDER STATE":"Oregon","PROVIDER CITY":"Pendleton","PROVIDER  ADDRESS":"714 SW Dorion Ave","PROVIDER ZIP 5 CD":97801,"PROVIDER ZIP 4 CD":2039,"PROVIDER PHONE NUM":5412762372,"PROVIDER PHONE EXT":"","PROGRAM YEAR":2011},"geometry":{"type":"Point","coordinates":[-118.793482,45.669531]}},{"type":"Feature","id":"5132dd7aa288f42e6735d0a0","properties":{"_id":"5132dd7aa288f42e6735d0a0","PROVIDER NPI":1336198233,"PROVIDER NAME":"Byrd, Sally","PROVIDER STATE":"Oregon","PROVIDER CITY":"Corvallis","PROVIDER  ADDRESS":"444 NW Elks Dr","PROVIDER ZIP 5 CD":97330,"PROVIDER ZIP 4 CD":3745,"PROVIDER PHONE NUM":5417541150,"PROVIDER PHONE EXT":"","PROGRAM YEAR":2011},"geometry":{"type":"Point","coordinates":[-123.252339,44.600902]}},{"type":"Feature","id":"5132dd7aa288f42e6735d0a1","properties":{"_id":"5132dd7aa288f42e6735d0a1","PROVIDER NPI":1205835048,"PROVIDER NAME":"Cade, Richard","PROVIDER STATE":"Oregon","PROVIDER CITY":"Bend","PROVIDER  ADDRESS":"2088 NE Kim Ln, Suite A","PROVIDER ZIP 5 CD":97701,"PROVIDER ZIP 4 CD":6588,"PROVIDER PHONE NUM":5413834995,"PROVIDER PHONE EXT":"","PROGRAM YEAR":2011},"geometry":{"type":"Point","coordinates":[-121.270927,44.063679]}},{"type":"Feature","id":"5132dd7aa288f42e6735d0a2","properties":{"_id":"5132dd7aa288f42e6735d0a2","PROVIDER NPI":1164405692,"PROVIDER NAME":"Callaghan, Elizabeth","PROVIDER STATE":"Oregon","PROVIDER CITY":"Milwaukie","PROVIDER  ADDRESS":"3033 SE Monroe St","PROVIDER ZIP 5 CD":97222,"PROVIDER ZIP 4 CD":6636,"PROVIDER PHONE NUM":5036594988,"PROVIDER PHONE EXT":"","PROGRAM YEAR":2011},"geometry":{"type":"Point","coordinates":[-122.631387,45.445331]}},{"type":"Feature","id":"5132dd7aa288f42e6735d0a3","properties":{"_id":"5132dd7aa288f42e6735d0a3","PROVIDER NPI":1902871932,"PROVIDER NAME":"Callahan, Kerry","PROVIDER STATE":"Oregon","PROVIDER CITY":"Portland","PROVIDER  ADDRESS":"541 NE 20th Ave","PROVIDER ZIP 5 CD":97232,"PROVIDER ZIP 4 CD":2862,"PROVIDER PHONE NUM":5032336940,"PROVIDER PHONE EXT":"","PROGRAM YEAR":2011},"geometry":{"type":"Point","coordinates":[-122.645539,45.526825]}},{"type":"Feature","id":"5132dd7aa288f42e6735d0a4","properties":{"_id":"5132dd7aa288f42e6735d0a4","PROVIDER NPI":1851363709,"PROVIDER NAME":"Camara, Armando","PROVIDER STATE":"Oregon","PROVIDER CITY":"Hillsboro","PROVIDER  ADDRESS":"333 SE 7th Ave, Suite 5200","PROVIDER ZIP 5 CD":97123,"PROVIDER ZIP 4 CD":4157,"PROVIDER PHONE NUM":5036405737,"PROVIDER PHONE EXT":"","PROGRAM YEAR":2011},"geometry":{"type":"Point","coordinates":[-122.979077,45.519609]}},{"type":"Feature","id":"5132dd7aa288f42e6735d0a5","properties":{"_id":"5132dd7aa288f42e6735d0a5","PROVIDER NPI":1760454615,"PROVIDER NAME":"Camara, Jocelyn","PROVIDER STATE":"Oregon","PROVIDER CITY":"Hillsboro","PROVIDER  ADDRESS":"333 SE 7th Ave, Ste 5200","PROVIDER ZIP 5 CD":97123,"PROVIDER ZIP 4 CD":4157,"PROVIDER PHONE NUM":5036405737,"PROVIDER PHONE EXT":"","PROGRAM YEAR":2011},"geometry":{"type":"Point","coordinates":[-122.979077,45.519609]}},{"type":"Feature","id":"5132dd7aa288f42e6735d0a6","properties":{"_id":"5132dd7aa288f42e6735d0a6","PROVIDER NPI":1184883381,"PROVIDER NAME":"Cameron, Michelle","PROVIDER STATE":"Oregon","PROVIDER CITY":"Portland","PROVIDER  ADDRESS":"3181 SW Sam Jackson Park Rd # L226","PROVIDER ZIP 5 CD":97239,"PROVIDER ZIP 4 CD":3011,"PROVIDER PHONE NUM":5034945236,"PROVIDER PHONE EXT":"","PROGRAM YEAR":2011},"geometry":{"type":"Point","coordinates":[-122.688084,45.499289]}},{"type":"Feature","id":"5132dd7aa288f42e6735d0a7","properties":{"_id":"5132dd7aa288f42e6735d0a7","PROVIDER NPI":1770515447,"PROVIDER NAME":"Campbell Kirwin, Pamela","PROVIDER STATE":"Oregon","PROVIDER CITY":"Portland","PROVIDER  ADDRESS":"3181 SW Sam Jackson Park Rd","PROVIDER ZIP 5 CD":97239,"PROVIDER ZIP 4 CD":3011,"PROVIDER PHONE NUM":5034944910,"PROVIDER PHONE EXT":"","PROGRAM YEAR":2011},"geometry":{"type":"Point","coordinates":[-122.688084,45.499289]}},{"type":"Feature","id":"5132dd7aa288f42e6735d0a8","properties":{"_id":"5132dd7aa288f42e6735d0a8","PROVIDER NPI":1427152818,"PROVIDER NAME":"Campbell, Jay","PROVIDER STATE":"Oregon","PROVIDER CITY":"Salem","PROVIDER  ADDRESS":"5050 Skyline Village Loop S","PROVIDER ZIP 5 CD":97306,"PROVIDER ZIP 4 CD":9490,"PROVIDER PHONE NUM":5033911110,"PROVIDER PHONE EXT":419,"PROGRAM YEAR":2011},"geometry":{"type":"Point","coordinates":[-123.07018,44.88163]}},{"type":"Feature","id":"5132dd7aa288f42e6735d0a9","properties":{"_id":"5132dd7aa288f42e6735d0a9","PROVIDER NPI":1568411130,"PROVIDER NAME":"Card, Amy","PROVIDER STATE":"Oregon","PROVIDER CITY":"Corvallis","PROVIDER  ADDRESS":"3680 NW Samaritan Dr","PROVIDER ZIP 5 CD":97330,"PROVIDER ZIP 4 CD":3737,"PROVIDER PHONE NUM":5417541150,"PROVIDER PHONE EXT":"","PROGRAM YEAR":2011},"geometry":{"type":"Point","coordinates":[-123.253297,44.603266]}},{"type":"Feature","id":"5132dd7aa288f42e6735d0aa","properties":{"_id":"5132dd7aa288f42e6735d0aa","PROVIDER NPI":1902813827,"PROVIDER NAME":"Carlson, Hans","PROVIDER STATE":"Oregon","PROVIDER CITY":"Portland","PROVIDER  ADDRESS":"3181 SW Sam Jackson Park Rd, OHSU Dept Orthopaedics and Rehbilitation (OP31)","PROVIDER ZIP 5 CD":97239,"PROVIDER ZIP 4 CD":3011,"PROVIDER PHONE NUM":5034946400,"PROVIDER PHONE EXT":"","PROGRAM YEAR":2011},"geometry":{"type":"Point","coordinates":[-122.688084,45.499289]}},{"type":"Feature","id":"5132dd7aa288f42e6735d0ab","properties":{"_id":"5132dd7aa288f42e6735d0ab","PROVIDER NPI":1720096282,"PROVIDER NAME":"Carlson, Nels","PROVIDER STATE":"Oregon","PROVIDER CITY":"Portland","PROVIDER  ADDRESS":"3181 SW Sam Jackson Park Rd","PROVIDER ZIP 5 CD":97239,"PROVIDER ZIP 4 CD":3011,"PROVIDER PHONE NUM":5034946400,"PROVIDER PHONE EXT":"","PROGRAM YEAR":2011},"geometry":{"type":"Point","coordinates":[-122.688084,45.499289]}},{"type":"Feature","id":"5132dd7aa288f42e6735d0ac","properties":{"_id":"5132dd7aa288f42e6735d0ac","PROVIDER NPI":1831157403,"PROVIDER NAME":"Carlton, Sharrel","PROVIDER STATE":"Oregon","PROVIDER CITY":"Oregon City","PROVIDER  ADDRESS":"1508 Division St, Suite 205","PROVIDER ZIP 5 CD":97045,"PROVIDER ZIP 4 CD":1582,"PROVIDER PHONE NUM":5036571071,"PROVIDER PHONE EXT":"","PROGRAM YEAR":2011},"geometry":{"type":"Point","coordinates":[-122.588276,45.356687]}},{"type":"Feature","id":"5132dd7aa288f42e6735d0ad","properties":{"_id":"5132dd7aa288f42e6735d0ad","PROVIDER NPI":1073670170,"PROVIDER NAME":"Carmiencke, Christopher","PROVIDER STATE":"Oregon","PROVIDER CITY":"Bend","PROVIDER  ADDRESS":"452 NE Greenwood Ave","PROVIDER ZIP 5 CD":97701,"PROVIDER ZIP 4 CD":4645,"PROVIDER PHONE NUM":5413825701,"PROVIDER PHONE EXT":"","PROGRAM YEAR":2011},"geometry":{"type":"Point","coordinates":[-121.3007,44.059947]}},{"type":"Feature","id":"5132dd7aa288f42e6735d0ae","properties":{"_id":"5132dd7aa288f42e6735d0ae","PROVIDER NPI":1699714782,"PROVIDER NAME":"Carr, Margaret","PROVIDER STATE":"Oregon","PROVIDER CITY":"Corvallis","PROVIDER  ADDRESS":"3517 NW Samaritan Drive, Suite 201","PROVIDER ZIP 5 CD":97330,"PROVIDER ZIP 4 CD":"","PROVIDER PHONE NUM":5417685142,"PROVIDER PHONE EXT":"","PROGRAM YEAR":2011},"geometry":{"type":"Point","coordinates":[-123.249482,44.601806]}},{"type":"Feature","id":"5132dd7aa288f42e6735d0af","properties":{"_id":"5132dd7aa288f42e6735d0af","PROVIDER NPI":1780604454,"PROVIDER NAME":"Carson, Mark","PROVIDER STATE":"Oregon","PROVIDER CITY":"Springfield","PROVIDER  ADDRESS":"2400 Hartman LN Ste 200","PROVIDER ZIP 5 CD":97477,"PROVIDER ZIP 4 CD":1122,"PROVIDER PHONE NUM":5413343350,"PROVIDER PHONE EXT":"","PROGRAM YEAR":2011},"geometry":{"type":"Point","coordinates":[-123.039884,44.0702]}},{"type":"Feature","id":"5132dd7aa288f42e6735d0b0","properties":{"_id":"5132dd7aa288f42e6735d0b0","PROVIDER NPI":1003814799,"PROVIDER NAME":"CARTER, CHRISTOPHER","PROVIDER STATE":"Oregon","PROVIDER CITY":"Portland","PROVIDER  ADDRESS":"9701 SW Barnes Rd, Suite 300","PROVIDER ZIP 5 CD":97225,"PROVIDER ZIP 4 CD":6772,"PROVIDER PHONE NUM":5032978081,"PROVIDER PHONE EXT":"","PROGRAM YEAR":2011},"geometry":{"type":"Point","coordinates":[-122.775889,45.510172]}},{"type":"Feature","id":"5132dd7aa288f42e6735d0b1","properties":{"_id":"5132dd7aa288f42e6735d0b1","PROVIDER NPI":1306819800,"PROVIDER NAME":"Catalano, Giovanni","PROVIDER STATE":"Oregon","PROVIDER CITY":"Depoe Bay","PROVIDER  ADDRESS":"539 NW Hwy 101, Suite A","PROVIDER ZIP 5 CD":97341,"PROVIDER ZIP 4 CD":"","PROVIDER PHONE NUM":5412653265,"PROVIDER PHONE EXT":"","PROGRAM YEAR":2011},"geometry":{"type":"Point","coordinates":[-124.065807,44.788362]}},{"type":"Feature","id":"5132dd7aa288f42e6735d0b2","properties":{"_id":"5132dd7aa288f42e6735d0b2","PROVIDER NPI":1811940778,"PROVIDER NAME":"Chadwick, Gretchen","PROVIDER STATE":"Oregon","PROVIDER CITY":"Redmond","PROVIDER  ADDRESS":"404 NW 5th Street","PROVIDER ZIP 5 CD":97756,"PROVIDER ZIP 4 CD":"","PROVIDER PHONE NUM":5419232221,"PROVIDER PHONE EXT":"","PROGRAM YEAR":2011},"geometry":{"type":"Point","coordinates":[-121.173461,44.284036]}},{"type":"Feature","id":"5132dd7aa288f42e6735d0b3","properties":{"_id":"5132dd7aa288f42e6735d0b3","PROVIDER NPI":1093797177,"PROVIDER NAME":"CHALMERS, BRENT","PROVIDER STATE":"Oregon","PROVIDER CITY":"Oregon City","PROVIDER  ADDRESS":"1306 Division St","PROVIDER ZIP 5 CD":97045,"PROVIDER ZIP 4 CD":1523,"PROVIDER PHONE NUM":5036564221,"PROVIDER PHONE EXT":"","PROGRAM YEAR":2011},"geometry":{"type":"Point","coordinates":[-122.58833,45.354186]}},{"type":"Feature","id":"5132dd7aa288f42e6735d0b4","properties":{"_id":"5132dd7aa288f42e6735d0b4","PROVIDER NPI":1710108162,"PROVIDER NAME":"Chamberlain, Winston","PROVIDER STATE":"Oregon","PROVIDER CITY":"Portland","PROVIDER  ADDRESS":"3375 SW Terwilliger Blvd, Casey Eye Institute","PROVIDER ZIP 5 CD":97239,"PROVIDER ZIP 4 CD":4146,"PROVIDER PHONE NUM":5034947674,"PROVIDER PHONE EXT":"","PROGRAM YEAR":2011},"geometry":{"type":"Point","coordinates":[-122.682668,45.50046]}},{"type":"Feature","id":"5132dd7aa288f42e6735d0b5","properties":{"_id":"5132dd7aa288f42e6735d0b5","PROVIDER NPI":1457375354,"PROVIDER NAME":"Chamberlin, Thomas","PROVIDER STATE":"Oregon","PROVIDER CITY":"Salem","PROVIDER  ADDRESS":"1234 Commercial St SE","PROVIDER ZIP 5 CD":97302,"PROVIDER ZIP 4 CD":4204,"PROVIDER PHONE NUM":5033629334,"PROVIDER PHONE EXT":"","PROGRAM YEAR":2011},"geometry":{"type":"Point","coordinates":[-123.044112,44.928859]}},{"type":"Feature","id":"5132dd7aa288f42e6735d0b6","properties":{"_id":"5132dd7aa288f42e6735d0b6","PROVIDER NPI":1578690566,"PROVIDER NAME":"Chan-Kai, Brian","PROVIDER STATE":"Oregon","PROVIDER CITY":"Portland","PROVIDER  ADDRESS":"10819 SE Stark Street","PROVIDER ZIP 5 CD":97216,"PROVIDER ZIP 4 CD":3161,"PROVIDER PHONE NUM":5036547264,"PROVIDER PHONE EXT":"","PROGRAM YEAR":2011},"geometry":{"type":"Point","coordinates":[-122.551812,45.519093]}},{"type":"Feature","id":"5132dd7aa288f42e6735d0b7","properties":{"_id":"5132dd7aa288f42e6735d0b7","PROVIDER NPI":1235179755,"PROVIDER NAME":"Chapin, Pamela","PROVIDER STATE":"Oregon","PROVIDER CITY":"Albany","PROVIDER  ADDRESS":"1700 Geary St SE","PROVIDER ZIP 5 CD":97322,"PROVIDER ZIP 4 CD":6842,"PROVIDER PHONE NUM":5418125655,"PROVIDER PHONE EXT":"","PROGRAM YEAR":2011},"geometry":{"type":"Point","coordinates":[-123.083281,44.625929]}},{"type":"Feature","id":"5132dd7aa288f42e6735d0b8","properties":{"_id":"5132dd7aa288f42e6735d0b8","PROVIDER NPI":1629144290,"PROVIDER NAME":"CHEEK, MICHAEL","PROVIDER STATE":"Oregon","PROVIDER CITY":"Lincoln City","PROVIDER  ADDRESS":"2930 NE West Devils Lake Rd, Suite 1","PROVIDER ZIP 5 CD":97367,"PROVIDER ZIP 4 CD":5127,"PROVIDER PHONE NUM":5419944440,"PROVIDER PHONE EXT":"","PROGRAM YEAR":2011},"geometry":{"type":"Point","coordinates":[-124.014766,44.966581]}},{"type":"Feature","id":"5132dd7aa288f42e6735d0b9","properties":{"_id":"5132dd7aa288f42e6735d0b9","PROVIDER NPI":1124081096,"PROVIDER NAME":"Chen, Andrew","PROVIDER STATE":"Oregon","PROVIDER CITY":"Beaverton","PROVIDER  ADDRESS":"15700 SW Greystone Ct.","PROVIDER ZIP 5 CD":97006,"PROVIDER ZIP 4 CD":5208,"PROVIDER PHONE NUM":5034946400,"PROVIDER PHONE EXT":"","PROGRAM YEAR":2011},"geometry":{"type":"Point","coordinates":[-122.836479,45.514929]}},{"type":"Feature","id":"5132dd7aa288f42e6735d0ba","properties":{"_id":"5132dd7aa288f42e6735d0ba","PROVIDER NPI":1053510370,"PROVIDER NAME":"Chen, Grace","PROVIDER STATE":"Oregon","PROVIDER CITY":"Portland","PROVIDER  ADDRESS":"3303 SW Bond Ave","PROVIDER ZIP 5 CD":97239,"PROVIDER ZIP 4 CD":4501,"PROVIDER PHONE NUM":5034949000,"PROVIDER PHONE EXT":"","PROGRAM YEAR":2011},"geometry":{"type":"Point","coordinates":[-122.670846,45.499254]}},{"type":"Feature","id":"5132dd7aa288f42e6735d0bb","properties":{"_id":"5132dd7aa288f42e6735d0bb","PROVIDER NPI":1619926011,"PROVIDER NAME":"Chen, Michael","PROVIDER STATE":"Oregon","PROVIDER CITY":"Corvallis","PROVIDER  ADDRESS":"3680 NW Samaritan Dr","PROVIDER ZIP 5 CD":97330,"PROVIDER ZIP 4 CD":3737,"PROVIDER PHONE NUM":5417541150,"PROVIDER PHONE EXT":"","PROGRAM YEAR":2011},"geometry":{"type":"Point","coordinates":[-123.253297,44.603266]}},{"type":"Feature","id":"5132dd7aa288f42e6735d0bc","properties":{"_id":"5132dd7aa288f42e6735d0bc","PROVIDER NPI":1255421467,"PROVIDER NAME":"Chen, Poly","PROVIDER STATE":"Oregon","PROVIDER CITY":"SALEM","PROVIDER  ADDRESS":"2480 LIBERTY STREET NE SUITE 110","PROVIDER ZIP 5 CD":97301,"PROVIDER ZIP 4 CD":8381,"PROVIDER PHONE NUM":5033711010,"PROVIDER PHONE EXT":"","PROGRAM YEAR":2011},"geometry":{"type":"Point","coordinates":[-123.031345,44.964132]}},{"type":"Feature","id":"5132dd7aa288f42e6735d0bd","properties":{"_id":"5132dd7aa288f42e6735d0bd","PROVIDER NPI":1770555716,"PROVIDER NAME":"Chen, Wan-Jui","PROVIDER STATE":"Oregon","PROVIDER CITY":"Hillsboro","PROVIDER  ADDRESS":"364 SE 8th Ave, Suite 101","PROVIDER ZIP 5 CD":97123,"PROVIDER ZIP 4 CD":4253,"PROVIDER PHONE NUM":5036810816,"PROVIDER PHONE EXT":"","PROGRAM YEAR":2011},"geometry":{"type":"Point","coordinates":[-122.977229,45.519202]}},{"type":"Feature","id":"5132dd7aa288f42e6735d0be","properties":{"_id":"5132dd7aa288f42e6735d0be","PROVIDER NPI":1124020987,"PROVIDER NAME":"Chesnutt, Asha","PROVIDER STATE":"Oregon","PROVIDER CITY":"Portland","PROVIDER  ADDRESS":"1111 NE 99th Ave, Suite 200","PROVIDER ZIP 5 CD":97220,"PROVIDER ZIP 4 CD":9428,"PROVIDER PHONE NUM":5039633030,"PROVIDER PHONE EXT":"","PROGRAM YEAR":2011},"geometry":{"type":"Point","coordinates":[-122.562428,45.532199]}},{"type":"Feature","id":"5132dd7aa288f42e6735d0bf","properties":{"_id":"5132dd7aa288f42e6735d0bf","PROVIDER NPI":1043225543,"PROVIDER NAME":"Chesnutt, James","PROVIDER STATE":"Oregon","PROVIDER CITY":"Portland","PROVIDER  ADDRESS":"3181 SW Sam Jackson Park Rd","PROVIDER ZIP 5 CD":97239,"PROVIDER ZIP 4 CD":3011,"PROVIDER PHONE NUM":5034946400,"PROVIDER PHONE EXT":"","PROGRAM YEAR":2011},"geometry":{"type":"Point","coordinates":[-122.688084,45.499289]}},{"type":"Feature","id":"5132dd7aa288f42e6735d0c0","properties":{"_id":"5132dd7aa288f42e6735d0c0","PROVIDER NPI":1891892667,"PROVIDER NAME":"Chesnutt, Mark","PROVIDER STATE":"Oregon","PROVIDER CITY":"Portland","PROVIDER  ADDRESS":"3181 SW Sam Jackson Park Rd","PROVIDER ZIP 5 CD":97239,"PROVIDER ZIP 4 CD":3011,"PROVIDER PHONE NUM":5034947660,"PROVIDER PHONE EXT":"","PROGRAM YEAR":2011},"geometry":{"type":"Point","coordinates":[-122.688084,45.499289]}},{"type":"Feature","id":"5132dd7aa288f42e6735d0c1","properties":{"_id":"5132dd7aa288f42e6735d0c1","PROVIDER NPI":1265515563,"PROVIDER NAME":"Childers, Jennifer","PROVIDER STATE":"Oregon","PROVIDER CITY":"Medford","PROVIDER  ADDRESS":"3156 State St","PROVIDER ZIP 5 CD":97504,"PROVIDER ZIP 4 CD":8450,"PROVIDER PHONE NUM":5417739772,"PROVIDER PHONE EXT":"","PROGRAM YEAR":2011},"geometry":{"type":"Point","coordinates":[-122.82389,42.314363]}},{"type":"Feature","id":"5132dd7aa288f42e6735d0c2","properties":{"_id":"5132dd7aa288f42e6735d0c2","PROVIDER NPI":1235351974,"PROVIDER NAME":"Chin, Raymond","PROVIDER STATE":"Oregon","PROVIDER CITY":"Albany","PROVIDER  ADDRESS":"1705 Waverly Dr SE","PROVIDER ZIP 5 CD":97322,"PROVIDER ZIP 4 CD":6952,"PROVIDER PHONE NUM":5419678221,"PROVIDER PHONE EXT":"","PROGRAM YEAR":2011},"geometry":{"type":"Point","coordinates":[-123.072898,44.625301]}},{"type":"Feature","id":"5132dd7aa288f42e6735d0c3","properties":{"_id":"5132dd7aa288f42e6735d0c3","PROVIDER NPI":1932263845,"PROVIDER NAME":"Ching, Alexander","PROVIDER STATE":"Oregon","PROVIDER CITY":"Portland","PROVIDER  ADDRESS":"3181 SW Sam Jackson Park Rd, Mail Code OP31","PROVIDER ZIP 5 CD":97239,"PROVIDER ZIP 4 CD":3011,"PROVIDER PHONE NUM":5034946400,"PROVIDER PHONE EXT":"","PROGRAM YEAR":2011},"geometry":{"type":"Point","coordinates":[-122.688084,45.499289]}},{"type":"Feature","id":"5132dd7aa288f42e6735d0c4","properties":{"_id":"5132dd7aa288f42e6735d0c4","PROVIDER NPI":1093780751,"PROVIDER NAME":"Chiu, Andrew","PROVIDER STATE":"Oregon","PROVIDER CITY":"Portland","PROVIDER  ADDRESS":"120 NW 14th Ave, Suite 300","PROVIDER ZIP 5 CD":97209,"PROVIDER ZIP 4 CD":2601,"PROVIDER PHONE NUM":5032999906,"PROVIDER PHONE EXT":"","PROGRAM YEAR":2011},"geometry":{"type":"Point","coordinates":[-122.685099,45.523759]}},{"type":"Feature","id":"5132dd7aa288f42e6735d0c5","properties":{"_id":"5132dd7aa288f42e6735d0c5","PROVIDER NPI":1194775437,"PROVIDER NAME":"Cho, Susan","PROVIDER STATE":"Oregon","PROVIDER CITY":"Corvallis","PROVIDER  ADDRESS":"3680 NW Samaritan Dr","PROVIDER ZIP 5 CD":97330,"PROVIDER ZIP 4 CD":3737,"PROVIDER PHONE NUM":5417541150,"PROVIDER PHONE EXT":"","PROGRAM YEAR":2011},"geometry":{"type":"Point","coordinates":[-123.253297,44.603266]}},{"type":"Feature","id":"5132dd7aa288f42e6735d0c6","properties":{"_id":"5132dd7aa288f42e6735d0c6","PROVIDER NPI":1851473730,"PROVIDER NAME":"Chopra, Pavan","PROVIDER STATE":"Oregon","PROVIDER CITY":"Springfield","PROVIDER  ADDRESS":"3355 River Bend Drive Suite 200","PROVIDER ZIP 5 CD":97477,"PROVIDER ZIP 4 CD":8800,"PROVIDER PHONE NUM":5414856478,"PROVIDER PHONE EXT":"","PROGRAM YEAR":2011},"geometry":{"type":"Point","coordinates":[-123.074763,44.101085]}},{"type":"Feature","id":"5132dd7aa288f42e6735d0c7","properties":{"_id":"5132dd7aa288f42e6735d0c7","PROVIDER NPI":1184639601,"PROVIDER NAME":"Chou, Roger","PROVIDER STATE":"Oregon","PROVIDER CITY":"Portland","PROVIDER  ADDRESS":"3181 SW Sam Jackson Park Rd, Mail Code: SJH39","PROVIDER ZIP 5 CD":97239,"PROVIDER ZIP 4 CD":3011,"PROVIDER PHONE NUM":5034948562,"PROVIDER PHONE EXT":"","PROGRAM YEAR":2011},"geometry":{"type":"Point","coordinates":[-122.688084,45.499289]}},{"type":"Feature","id":"5132dd7aa288f42e6735d0c8","properties":{"_id":"5132dd7aa288f42e6735d0c8","PROVIDER NPI":1356431464,"PROVIDER NAME":"CHOW, HSICHAO","PROVIDER STATE":"Oregon","PROVIDER CITY":"Corvallis","PROVIDER  ADDRESS":"3680 NW Samaritan Dr","PROVIDER ZIP 5 CD":97330,"PROVIDER ZIP 4 CD":3737,"PROVIDER PHONE NUM":5417541150,"PROVIDER PHONE EXT":"","PROGRAM YEAR":2011},"geometry":{"type":"Point","coordinates":[-123.253297,44.603266]}},{"type":"Feature","id":"5132dd7aa288f42e6735d0c9","properties":{"_id":"5132dd7aa288f42e6735d0c9","PROVIDER NPI":1134135635,"PROVIDER NAME":"Chow, Lawrence","PROVIDER STATE":"Oregon","PROVIDER CITY":"Portland","PROVIDER  ADDRESS":"3181 SW Sam Jackson Park Rd, MC L340","PROVIDER ZIP 5 CD":97239,"PROVIDER ZIP 4 CD":3011,"PROVIDER PHONE NUM":5034944511,"PROVIDER PHONE EXT":"","PROGRAM YEAR":2011},"geometry":{"type":"Point","coordinates":[-122.688084,45.499289]}},{"type":"Feature","id":"5132dd7aa288f42e6735d0ca","properties":{"_id":"5132dd7aa288f42e6735d0ca","PROVIDER NPI":1376506444,"PROVIDER NAME":"Christensen, Jeness","PROVIDER STATE":"Oregon","PROVIDER CITY":"Bend","PROVIDER  ADDRESS":"929 SW Simpson Ave, PO Box 490","PROVIDER ZIP 5 CD":97709,"PROVIDER ZIP 4 CD":490,"PROVIDER PHONE NUM":5415487134,"PROVIDER PHONE EXT":"","PROGRAM YEAR":2011},"geometry":{"type":"Point","coordinates":[-120.94952,44.001834]}},{"type":"Feature","id":"5132dd7aa288f42e6735d0cb","properties":{"_id":"5132dd7aa288f42e6735d0cb","PROVIDER NPI":1619984853,"PROVIDER NAME":"Christon, James","PROVIDER STATE":"Oregon","PROVIDER CITY":"Springfield","PROVIDER  ADDRESS":"3355 Riverbend Dr, Suite 240","PROVIDER ZIP 5 CD":97477,"PROVIDER ZIP 4 CD":8800,"PROVIDER PHONE NUM":5416871712,"PROVIDER PHONE EXT":"","PROGRAM YEAR":2011},"geometry":{"type":"Point","coordinates":[-123.139585,44.066606]}},{"type":"Feature","id":"5132dd7aa288f42e6735d0cc","properties":{"_id":"5132dd7aa288f42e6735d0cc","PROVIDER NPI":1780625780,"PROVIDER NAME":"Chu, Cong-Qiu","PROVIDER STATE":"Oregon","PROVIDER CITY":"Portland","PROVIDER  ADDRESS":"3181 SW Sam Jackson Park Rd, OP 09","PROVIDER ZIP 5 CD":97239,"PROVIDER ZIP 4 CD":3011,"PROVIDER PHONE NUM":5034941793,"PROVIDER PHONE EXT":"","PROGRAM YEAR":2011},"geometry":{"type":"Point","coordinates":[-122.688084,45.499289]}},{"type":"Feature","id":"5132dd7aa288f42e6735d0cd","properties":{"_id":"5132dd7aa288f42e6735d0cd","PROVIDER NPI":1477575017,"PROVIDER NAME":"Chui, Stephen","PROVIDER STATE":"Oregon","PROVIDER CITY":"Portland","PROVIDER  ADDRESS":"3181 SW Sam Jackson Park Rd, Mail Code L586, MNP 3208","PROVIDER ZIP 5 CD":97239,"PROVIDER ZIP 4 CD":3011,"PROVIDER PHONE NUM":5034946594,"PROVIDER PHONE EXT":"","PROGRAM YEAR":2011},"geometry":{"type":"Point","coordinates":[-122.688084,45.499289]}},{"type":"Feature","id":"5132dd7aa288f42e6735d0ce","properties":{"_id":"5132dd7aa288f42e6735d0ce","PROVIDER NPI":1700921152,"PROVIDER NAME":"CHUN, SOOYUN","PROVIDER STATE":"Oregon","PROVIDER CITY":"Corvallis","PROVIDER  ADDRESS":"3680 NW Samaritan Dr, Asbury Building","PROVIDER ZIP 5 CD":97330,"PROVIDER ZIP 4 CD":3737,"PROVIDER PHONE NUM":5417541150,"PROVIDER PHONE EXT":"","PROGRAM YEAR":2011},"geometry":{"type":"Point","coordinates":[-123.253297,44.603266]}},{"type":"Feature","id":"5132dd7aa288f42e6735d0cf","properties":{"_id":"5132dd7aa288f42e6735d0cf","PROVIDER NPI":1376552778,"PROVIDER NAME":"CHUNG, DAVID","PROVIDER STATE":"Oregon","PROVIDER CITY":"Aloha","PROVIDER  ADDRESS":"4055 SW 185TH AVE, SUITE 100","PROVIDER ZIP 5 CD":97007,"PROVIDER ZIP 4 CD":1573,"PROVIDER PHONE NUM":5035917449,"PROVIDER PHONE EXT":"","PROGRAM YEAR":2011},"geometry":{"type":"Point","coordinates":[-122.867273,45.490616]}},{"type":"Feature","id":"5132dd7aa288f42e6735d0d0","properties":{"_id":"5132dd7aa288f42e6735d0d0","PROVIDER NPI":1073600029,"PROVIDER NAME":"Chung, Kathryn","PROVIDER STATE":"Oregon","PROVIDER CITY":"Portland","PROVIDER  ADDRESS":"3181 SW Sam Jackson Park Rd","PROVIDER ZIP 5 CD":97239,"PROVIDER ZIP 4 CD":3011,"PROVIDER PHONE NUM":5034947772,"PROVIDER PHONE EXT":"","PROGRAM YEAR":2011},"geometry":{"type":"Point","coordinates":[-122.688084,45.499289]}},{"type":"Feature","id":"5132dd7aa288f42e6735d0d1","properties":{"_id":"5132dd7aa288f42e6735d0d1","PROVIDER NPI":1407880545,"PROVIDER NAME":"Cigarroa, Joaquin","PROVIDER STATE":"Oregon","PROVIDER CITY":"Portland","PROVIDER  ADDRESS":"3181 SW Sam Jackson Park Rd","PROVIDER ZIP 5 CD":97239,"PROVIDER ZIP 4 CD":3011,"PROVIDER PHONE NUM":5034948750,"PROVIDER PHONE EXT":"","PROGRAM YEAR":2011},"geometry":{"type":"Point","coordinates":[-122.688084,45.499289]}},{"type":"Feature","id":"5132dd7aa288f42e6735d0d2","properties":{"_id":"5132dd7aa288f42e6735d0d2","PROVIDER NPI":1740382613,"PROVIDER NAME":"Cirino, Christopher","PROVIDER STATE":"Oregon","PROVIDER CITY":"McMinnville","PROVIDER  ADDRESS":"2700 SE Stratus Ave, Attn: Clinic Operations","PROVIDER ZIP 5 CD":97128,"PROVIDER ZIP 4 CD":6258,"PROVIDER PHONE NUM":5034354514,"PROVIDER PHONE EXT":"","PROGRAM YEAR":2011},"geometry":{"type":"Point","coordinates":[-122.904372,45.298648]}},{"type":"Feature","id":"5132dd7aa288f42e6735d0d3","properties":{"_id":"5132dd7aa288f42e6735d0d3","PROVIDER NPI":1669424917,"PROVIDER NAME":"Clack, Susan","PROVIDER STATE":"Oregon","PROVIDER CITY":"Tigard","PROVIDER  ADDRESS":"13200 SW Pacific Hwy","PROVIDER ZIP 5 CD":97223,"PROVIDER ZIP 4 CD":"","PROVIDER PHONE NUM":5035982000,"PROVIDER PHONE EXT":"","PROGRAM YEAR":2011},"geometry":{"type":"Point","coordinates":[-122.79817,45.436623]}},{"type":"Feature","id":"5132dd7aa288f42e6735d0d4","properties":{"_id":"5132dd7aa288f42e6735d0d4","PROVIDER NPI":1053355628,"PROVIDER NAME":"Clark, Thomas","PROVIDER STATE":"Oregon","PROVIDER CITY":"Albany","PROVIDER  ADDRESS":"1086 7th Ave SW, Suite 101","PROVIDER ZIP 5 CD":97321,"PROVIDER ZIP 4 CD":1997,"PROVIDER PHONE NUM":5419260393,"PROVIDER PHONE EXT":"","PROGRAM YEAR":2011},"geometry":{"type":"Point","coordinates":[-123.11703,44.631157]}},{"type":"Feature","id":"5132dd7aa288f42e6735d0d5","properties":{"_id":"5132dd7aa288f42e6735d0d5","PROVIDER NPI":1356357958,"PROVIDER NAME":"Clark, Wayne","PROVIDER STATE":"Oregon","PROVIDER CITY":"Portland","PROVIDER  ADDRESS":"3181 SW Sam Jackson Park Rd","PROVIDER ZIP 5 CD":97239,"PROVIDER ZIP 4 CD":3011,"PROVIDER PHONE NUM":5034947772,"PROVIDER PHONE EXT":"","PROGRAM YEAR":2011},"geometry":{"type":"Point","coordinates":[-122.688084,45.499289]}},{"type":"Feature","id":"5132dd7aa288f42e6735d0d6","properties":{"_id":"5132dd7aa288f42e6735d0d6","PROVIDER NPI":1063461564,"PROVIDER NAME":"Cleary, Bryce","PROVIDER STATE":"Oregon","PROVIDER CITY":"Corvallis","PROVIDER  ADDRESS":"3680 NW Samaritan Dr","PROVIDER ZIP 5 CD":97330,"PROVIDER ZIP 4 CD":3737,"PROVIDER PHONE NUM":5417541150,"PROVIDER PHONE EXT":"","PROGRAM YEAR":2011},"geometry":{"type":"Point","coordinates":[-123.253297,44.603266]}},{"type":"Feature","id":"5132dd7aa288f42e6735d0d7","properties":{"_id":"5132dd7aa288f42e6735d0d7","PROVIDER NPI":1215933411,"PROVIDER NAME":"Cleary, Timothy","PROVIDER STATE":"Oregon","PROVIDER CITY":"Portland","PROVIDER  ADDRESS":"11786 SW Barnes Rd, Ste 270","PROVIDER ZIP 5 CD":97225,"PROVIDER ZIP 4 CD":5929,"PROVIDER PHONE NUM":5035200777,"PROVIDER PHONE EXT":"","PROGRAM YEAR":2011},"geometry":{"type":"Point","coordinates":[-122.79755,45.517503]}},{"type":"Feature","id":"5132dd7aa288f42e6735d0d8","properties":{"_id":"5132dd7aa288f42e6735d0d8","PROVIDER NPI":1407812480,"PROVIDER NAME":"Cleveland, Trevor","PROVIDER STATE":"Oregon","PROVIDER CITY":"Springfield","PROVIDER  ADDRESS":"1717 Centennial Blvd, Suite 2","PROVIDER ZIP 5 CD":97477,"PROVIDER ZIP 4 CD":3378,"PROVIDER PHONE NUM":5417470616,"PROVIDER PHONE EXT":"","PROGRAM YEAR":2011},"geometry":{"type":"Point","coordinates":[-123.009145,44.027366]}},{"type":"Feature","id":"5132dd7aa288f42e6735d0d9","properties":{"_id":"5132dd7aa288f42e6735d0d9","PROVIDER NPI":1760584726,"PROVIDER NAME":"Clifton, Ronald","PROVIDER STATE":"Oregon","PROVIDER CITY":"Lebanon","PROVIDER  ADDRESS":"541 Park St","PROVIDER ZIP 5 CD":97355,"PROVIDER ZIP 4 CD":3313,"PROVIDER PHONE NUM":5414511290,"PROVIDER PHONE EXT":"","PROGRAM YEAR":2011},"geometry":{"type":"Point","coordinates":[-122.905574,44.540532]}},{"type":"Feature","id":"5132dd7aa288f42e6735d0da","properties":{"_id":"5132dd7aa288f42e6735d0da","PROVIDER NPI":1871790360,"PROVIDER NAME":"Cohen, Corinne","PROVIDER STATE":"Oregon","PROVIDER CITY":"Portland","PROVIDER  ADDRESS":"541 NE 20th Ave, Suite 210","PROVIDER ZIP 5 CD":97232,"PROVIDER ZIP 4 CD":2862,"PROVIDER PHONE NUM":5032336940,"PROVIDER PHONE EXT":"","PROGRAM YEAR":2011},"geometry":{"type":"Point","coordinates":[-122.645539,45.526825]}},{"type":"Feature","id":"5132dd7aa288f42e6735d0db","properties":{"_id":"5132dd7aa288f42e6735d0db","PROVIDER NPI":1215071568,"PROVIDER NAME":"Colby, Sarah","PROVIDER STATE":"Oregon","PROVIDER CITY":"Wilsonville","PROVIDER  ADDRESS":"30050 SWTown Center Loop West, PO BOX 966","PROVIDER ZIP 5 CD":97070,"PROVIDER ZIP 4 CD":"","PROVIDER PHONE NUM":5036859841,"PROVIDER PHONE EXT":"","PROGRAM YEAR":2011},"geometry":{"type":"Point","coordinates":[-122.785518,45.308493]}},{"type":"Feature","id":"5132dd7aa288f42e6735d0dc","properties":{"_id":"5132dd7aa288f42e6735d0dc","PROVIDER NPI":1265472161,"PROVIDER NAME":"COLLINS, DAVID","PROVIDER STATE":"Oregon","PROVIDER CITY":"McMinnville","PROVIDER  ADDRESS":"2700 SE Stratus Ave, Clinic Operations","PROVIDER ZIP 5 CD":97128,"PROVIDER ZIP 4 CD":6258,"PROVIDER PHONE NUM":5038434909,"PROVIDER PHONE EXT":"","PROGRAM YEAR":2011},"geometry":{"type":"Point","coordinates":[-122.904372,45.298648]}},{"type":"Feature","id":"5132dd7aa288f42e6735d0dd","properties":{"_id":"5132dd7aa288f42e6735d0dd","PROVIDER NPI":1639186554,"PROVIDER NAME":"Collins, Judith","PROVIDER STATE":"Oregon","PROVIDER CITY":"Portland","PROVIDER  ADDRESS":"3181 SW Sam Jackson Park Rd","PROVIDER ZIP 5 CD":97239,"PROVIDER ZIP 4 CD":3011,"PROVIDER PHONE NUM":5034948577,"PROVIDER PHONE EXT":"","PROGRAM YEAR":2011},"geometry":{"type":"Point","coordinates":[-122.688084,45.499289]}},{"type":"Feature","id":"5132dd7aa288f42e6735d0de","properties":{"_id":"5132dd7aa288f42e6735d0de","PROVIDER NPI":1396766796,"PROVIDER NAME":"Conrad, Edward","PROVIDER STATE":"Oregon","PROVIDER CITY":"Lake Oswego","PROVIDER  ADDRESS":"550 3rd St","PROVIDER ZIP 5 CD":97034,"PROVIDER ZIP 4 CD":3002,"PROVIDER PHONE NUM":5036355044,"PROVIDER PHONE EXT":"","PROGRAM YEAR":2011},"geometry":{"type":"Point","coordinates":[-122.666431,45.421589]}},{"type":"Feature","id":"5132dd7aa288f42e6735d0df","properties":{"_id":"5132dd7aa288f42e6735d0df","PROVIDER NPI":1457368375,"PROVIDER NAME":"Cook, David","PROVIDER STATE":"Oregon","PROVIDER CITY":"Portland","PROVIDER  ADDRESS":"3181 SW Sam Jackson Park Rd","PROVIDER ZIP 5 CD":97239,"PROVIDER ZIP 4 CD":3011,"PROVIDER PHONE NUM":5034948311,"PROVIDER PHONE EXT":"","PROGRAM YEAR":2011},"geometry":{"type":"Point","coordinates":[-122.688084,45.499289]}},{"type":"Feature","id":"5132dd7aa288f42e6735d0e0","properties":{"_id":"5132dd7aa288f42e6735d0e0","PROVIDER NPI":1093804353,"PROVIDER NAME":"Cook, David","PROVIDER STATE":"Oregon","PROVIDER CITY":"Portland","PROVIDER  ADDRESS":"9155 SW Barnes Rd, Suite 740","PROVIDER ZIP 5 CD":97225,"PROVIDER ZIP 4 CD":6625,"PROVIDER PHONE NUM":5032971351,"PROVIDER PHONE EXT":"","PROGRAM YEAR":2011},"geometry":{"type":"Point","coordinates":[-122.771056,45.508947]}},{"type":"Feature","id":"5132dd7aa288f42e6735d0e1","properties":{"_id":"5132dd7aa288f42e6735d0e1","PROVIDER NPI":1326055211,"PROVIDER NAME":"Cook, Ted","PROVIDER STATE":"Oregon","PROVIDER CITY":"Portland","PROVIDER  ADDRESS":"3181 SW Sam Jackson Park Rd","PROVIDER ZIP 5 CD":97239,"PROVIDER ZIP 4 CD":3011,"PROVIDER PHONE NUM":5034945674,"PROVIDER PHONE EXT":"","PROGRAM YEAR":2011},"geometry":{"type":"Point","coordinates":[-122.688084,45.499289]}},{"type":"Feature","id":"5132dd7aa288f42e6735d0e2","properties":{"_id":"5132dd7aa288f42e6735d0e2","PROVIDER NPI":1770541831,"PROVIDER NAME":"Cooper, Arthur","PROVIDER STATE":"Oregon","PROVIDER CITY":"Oregon City","PROVIDER  ADDRESS":"1508 Division St, Suite 205","PROVIDER ZIP 5 CD":97045,"PROVIDER ZIP 4 CD":1582,"PROVIDER PHONE NUM":5036571071,"PROVIDER PHONE EXT":"","PROGRAM YEAR":2011},"geometry":{"type":"Point","coordinates":[-122.588276,45.356687]}},{"type":"Feature","id":"5132dd7aa288f42e6735d0e3","properties":{"_id":"5132dd7aa288f42e6735d0e3","PROVIDER NPI":1326065251,"PROVIDER NAME":"Copperman, Terry","PROVIDER STATE":"Oregon","PROVIDER CITY":"Eugene","PROVIDER  ADDRESS":"3525 Hilyard St","PROVIDER ZIP 5 CD":97405,"PROVIDER ZIP 4 CD":3866,"PROVIDER PHONE NUM":5416878581,"PROVIDER PHONE EXT":"","PROGRAM YEAR":2011},"geometry":{"type":"Point","coordinates":[-123.08145,44.018085]}},{"type":"Feature","id":"5132dd7aa288f42e6735d0e4","properties":{"_id":"5132dd7aa288f42e6735d0e4","PROVIDER NPI":1699727917,"PROVIDER NAME":"Cordova, Lee","PROVIDER STATE":"Oregon","PROVIDER CITY":"Oregon City","PROVIDER  ADDRESS":"1001 Molalla Ave, Ste 100","PROVIDER ZIP 5 CD":97045,"PROVIDER ZIP 4 CD":3788,"PROVIDER PHONE NUM":5036565273,"PROVIDER PHONE EXT":"","PROGRAM YEAR":2011},"geometry":{"type":"Point","coordinates":[-122.585215,45.329938]}},{"type":"Feature","id":"5132dd7aa288f42e6735d0e5","properties":{"_id":"5132dd7aa288f42e6735d0e5","PROVIDER NPI":1568477065,"PROVIDER NAME":"Corless, Christopher","PROVIDER STATE":"Oregon","PROVIDER CITY":"Portland","PROVIDER  ADDRESS":"3181 SW Sam Jackson Park Rd","PROVIDER ZIP 5 CD":97239,"PROVIDER ZIP 4 CD":3011,"PROVIDER PHONE NUM":5034948276,"PROVIDER PHONE EXT":"","PROGRAM YEAR":2011},"geometry":{"type":"Point","coordinates":[-122.688084,45.499289]}},{"type":"Feature","id":"5132dd7aa288f42e6735d0e6","properties":{"_id":"5132dd7aa288f42e6735d0e6","PROVIDER NPI":1629188982,"PROVIDER NAME":"CORNELL, FLOYD","PROVIDER STATE":"Oregon","PROVIDER CITY":"Clackamas","PROVIDER  ADDRESS":"10001 SE Sunnyside Rd, SUITE 100","PROVIDER ZIP 5 CD":97015,"PROVIDER ZIP 4 CD":5746,"PROVIDER PHONE NUM":5036520600,"PROVIDER PHONE EXT":"","PROGRAM YEAR":2011},"geometry":{"type":"Point","coordinates":[-122.561336,45.433496]}},{"type":"Feature","id":"5132dd7aa288f42e6735d0e7","properties":{"_id":"5132dd7aa288f42e6735d0e7","PROVIDER NPI":1205907268,"PROVIDER NAME":"Corzilius, Susan","PROVIDER STATE":"Oregon","PROVIDER CITY":"Salem","PROVIDER  ADDRESS":"2925 River Rd S","PROVIDER ZIP 5 CD":97302,"PROVIDER ZIP 4 CD":9754,"PROVIDER PHONE NUM":5038144400,"PROVIDER PHONE EXT":"","PROGRAM YEAR":2011},"geometry":{"type":"Point","coordinates":[-123.066801,44.914212]}},{"type":"Feature","id":"5132dd7aa288f42e6735d0e8","properties":{"_id":"5132dd7aa288f42e6735d0e8","PROVIDER NPI":1144225921,"PROVIDER NAME":"Countiss, John","PROVIDER STATE":"Oregon","PROVIDER CITY":"Grants Pass","PROVIDER  ADDRESS":"495 SW Ramsey Ave","PROVIDER ZIP 5 CD":97527,"PROVIDER ZIP 4 CD":"","PROVIDER PHONE NUM":5414766644,"PROVIDER PHONE EXT":"","PROGRAM YEAR":2011},"geometry":{"type":"Point","coordinates":[-123.339382,42.421556]}},{"type":"Feature","id":"5132dd7aa288f42e6735d0e9","properties":{"_id":"5132dd7aa288f42e6735d0e9","PROVIDER NPI":1861408312,"PROVIDER NAME":"Crawford, Dennis","PROVIDER STATE":"Oregon","PROVIDER CITY":"Portland","PROVIDER  ADDRESS":"3181 SW Sam Jackson Park Rd","PROVIDER ZIP 5 CD":97239,"PROVIDER ZIP 4 CD":3011,"PROVIDER PHONE NUM":5034946400,"PROVIDER PHONE EXT":"","PROGRAM YEAR":2011},"geometry":{"type":"Point","coordinates":[-122.688084,45.499289]}},{"type":"Feature","id":"5132dd7aa288f42e6735d0ea","properties":{"_id":"5132dd7aa288f42e6735d0ea","PROVIDER NPI":1528049640,"PROVIDER NAME":"Crim, Catherine","PROVIDER STATE":"Oregon","PROVIDER CITY":"Tualatin","PROVIDER  ADDRESS":"19250 SW 65th Ave, Suite 300","PROVIDER ZIP 5 CD":97062,"PROVIDER ZIP 4 CD":7452,"PROVIDER PHONE NUM":5036921242,"PROVIDER PHONE EXT":"","PROGRAM YEAR":2011},"geometry":{"type":"Point","coordinates":[-122.743874,45.381327]}},{"type":"Feature","id":"5132dd7aa288f42e6735d0eb","properties":{"_id":"5132dd7aa288f42e6735d0eb","PROVIDER NPI":1841251832,"PROVIDER NAME":"Crook, Stephen","PROVIDER STATE":"Oregon","PROVIDER CITY":"Portland","PROVIDER  ADDRESS":"10000 SE Main St, Suite 316","PROVIDER ZIP 5 CD":97216,"PROVIDER ZIP 4 CD":2448,"PROVIDER PHONE NUM":5032561575,"PROVIDER PHONE EXT":"","PROGRAM YEAR":2011},"geometry":{"type":"Point","coordinates":[-122.572132,45.513619]}},{"type":"Feature","id":"5132dd7aa288f42e6735d0ec","properties":{"_id":"5132dd7aa288f42e6735d0ec","PROVIDER NPI":1720016090,"PROVIDER NAME":"Cross, Robert","PROVIDER STATE":"Oregon","PROVIDER CITY":"Portland","PROVIDER  ADDRESS":"3181 SW Sam Jackson Park Rd, UHS-2","PROVIDER ZIP 5 CD":97239,"PROVIDER ZIP 4 CD":3011,"PROVIDER PHONE NUM":5034944910,"PROVIDER PHONE EXT":"","PROGRAM YEAR":2011},"geometry":{"type":"Point","coordinates":[-122.679704,45.489165]}},{"type":"Feature","id":"5132dd7aa288f42e6735d0ed","properties":{"_id":"5132dd7aa288f42e6735d0ed","PROVIDER NPI":1194707315,"PROVIDER NAME":"CROWELL, GARY","PROVIDER STATE":"Oregon","PROVIDER CITY":"McMinnville","PROVIDER  ADDRESS":"1291 N Highway 99W","PROVIDER ZIP 5 CD":97128,"PROVIDER ZIP 4 CD":2720,"PROVIDER PHONE NUM":5034720644,"PROVIDER PHONE EXT":"","PROGRAM YEAR":2011},"geometry":{"type":"Point","coordinates":[-123.198982,45.217144]}},{"type":"Feature","id":"5132dd7aa288f42e6735d0ee","properties":{"_id":"5132dd7aa288f42e6735d0ee","PROVIDER NPI":1598843039,"PROVIDER NAME":"Csanky, Judith","PROVIDER STATE":"Oregon","PROVIDER CITY":"Albany","PROVIDER  ADDRESS":"631 Elm Street, Suite 200","PROVIDER ZIP 5 CD":97321,"PROVIDER ZIP 4 CD":1952,"PROVIDER PHONE NUM":5418124058,"PROVIDER PHONE EXT":"","PROGRAM YEAR":2011},"geometry":{"type":"Point","coordinates":[-123.11508,44.632015]}},