[{"type":"Feature","id":"5132dd76a288f42e6735a89f","properties":{"_id":"5132dd76a288f42e6735a89f","PROVIDER NPI":1225180961,"PROVIDER NAME":"ABEL, MARK","PROVIDER STATE":"North Carolina","PROVIDER CITY":"Rocky Mount","PROVIDER  ADDRESS":"804 English Rd, SUITE 100","PROVIDER ZIP 5 CD":27804,"PROVIDER ZIP 4 CD":6032,"PROVIDER PHONE NUM":2524433133,"PROVIDER PHONE EXT":227,"PROGRAM YEAR":2011},"geometry":{"type":"Point","coordinates":[-77.840173,35.976858]}},{"type":"Feature","id":"5132dd76a288f42e6735a8a0","properties":{"_id":"5132dd76a288f42e6735a8a0","PROVIDER NPI":1679532196,"PROVIDER NAME":"Abernathy, William","PROVIDER STATE":"North Carolina","PROVIDER CITY":"Durham","PROVIDER  ADDRESS":"5213 S. Alston Ave, 3E-344","PROVIDER ZIP 5 CD":27713,"PROVIDER ZIP 4 CD":4430,"PROVIDER PHONE NUM":9196205297,"PROVIDER PHONE EXT":"","PROGRAM YEAR":2011},"geometry":{"type":"Point","coordinates":[-78.884917,35.888056]}},{"type":"Feature","id":"5132dd76a288f42e6735a8a1","properties":{"_id":"5132dd76a288f42e6735a8a1","PROVIDER NPI":1265438253,"PROVIDER NAME":"Abernethy, William","PROVIDER STATE":"North Carolina","PROVIDER CITY":"Asheville","PROVIDER  ADDRESS":"5 Vanderbilt Park Dr","PROVIDER ZIP 5 CD":28803,"PROVIDER ZIP 4 CD":1700,"PROVIDER PHONE NUM":8282746000,"PROVIDER PHONE EXT":232,"PROGRAM YEAR":2011},"geometry":{"type":"Point","coordinates":[-82.543307,35.564163]}},{"type":"Feature","id":"5132dd76a288f42e6735a8a2","properties":{"_id":"5132dd76a288f42e6735a8a2","PROVIDER NPI":1942205307,"PROVIDER NAME":"Abrons, Seymore","PROVIDER STATE":"North Carolina","PROVIDER CITY":"Wilmington","PROVIDER  ADDRESS":"1911 S 17th St, Ste 130-A","PROVIDER ZIP 5 CD":28401,"PROVIDER ZIP 4 CD":6662,"PROVIDER PHONE NUM":9107907840,"PROVIDER PHONE EXT":"","PROGRAM YEAR":2011},"geometry":{"type":"Point","coordinates":[-77.924903,34.212379]}},{"type":"Feature","id":"5132dd76a288f42e6735a8a3","properties":{"_id":"5132dd76a288f42e6735a8a3","PROVIDER NPI":1114120169,"PROVIDER NAME":"Adams, Christina","PROVIDER STATE":"North Carolina","PROVIDER CITY":"Albemarle","PROVIDER  ADDRESS":"105 Yadkin St, Suite 301","PROVIDER ZIP 5 CD":28001,"PROVIDER ZIP 4 CD":3449,"PROVIDER PHONE NUM":7049829144,"PROVIDER PHONE EXT":"","PROGRAM YEAR":2011},"geometry":{"type":"Point","coordinates":[-80.197126,35.362762]}},{"type":"Feature","id":"5132dd76a288f42e6735a8a4","properties":{"_id":"5132dd76a288f42e6735a8a4","PROVIDER NPI":1326051590,"PROVIDER NAME":"Adams, David","PROVIDER STATE":"North Carolina","PROVIDER CITY":"Cary","PROVIDER  ADDRESS":"218 Ashville Ave, Suite 20","PROVIDER ZIP 5 CD":27518,"PROVIDER ZIP 4 CD":6118,"PROVIDER PHONE NUM":9192330410,"PROVIDER PHONE EXT":"","PROGRAM YEAR":2011},"geometry":{"type":"Point","coordinates":[-78.783859,35.739754]}},{"type":"Feature","id":"5132dd76a288f42e6735a8a5","properties":{"_id":"5132dd76a288f42e6735a8a5","PROVIDER NPI":1932425402,"PROVIDER NAME":"Adams, Holly","PROVIDER STATE":"North Carolina","PROVIDER CITY":"Wilson","PROVIDER  ADDRESS":"3001 Raleigh Road Pkwy West","PROVIDER ZIP 5 CD":27896,"PROVIDER ZIP 4 CD":8213,"PROVIDER PHONE NUM":2522912767,"PROVIDER PHONE EXT":"","PROGRAM YEAR":2011},"geometry":{"type":"Point","coordinates":[-77.968362,35.748165]}},{"type":"Feature","id":"5132dd76a288f42e6735a8a6","properties":{"_id":"5132dd76a288f42e6735a8a6","PROVIDER NPI":1497750178,"PROVIDER NAME":"Adams, James","PROVIDER STATE":"North Carolina","PROVIDER CITY":"Leland","PROVIDER  ADDRESS":"1003 Olde Waterford Way, Suite 1-C","PROVIDER ZIP 5 CD":28451,"PROVIDER ZIP 4 CD":"","PROVIDER PHONE NUM":9103380588,"PROVIDER PHONE EXT":"","PROGRAM YEAR":2011},"geometry":{"type":"Point","coordinates":[-78.013693,34.212984]}},{"type":"Feature","id":"5132dd76a288f42e6735a8a7","properties":{"_id":"5132dd76a288f42e6735a8a7","PROVIDER NPI":1366446965,"PROVIDER NAME":"Adams, Kenneth","PROVIDER STATE":"North Carolina","PROVIDER CITY":"Rocky Mount","PROVIDER  ADDRESS":"901 N Winstead Ave","PROVIDER ZIP 5 CD":27804,"PROVIDER ZIP 4 CD":8467,"PROVIDER PHONE NUM":2529370200,"PROVIDER PHONE EXT":"","PROGRAM YEAR":2011},"geometry":{"type":"Point","coordinates":[-77.844505,35.978758]}},{"type":"Feature","id":"5132dd76a288f42e6735a8a8","properties":{"_id":"5132dd76a288f42e6735a8a8","PROVIDER NPI":1649241753,"PROVIDER NAME":"Adams, Rick","PROVIDER STATE":"North Carolina","PROVIDER CITY":"Rocky Mount","PROVIDER  ADDRESS":"3044 Sunset Ave","PROVIDER ZIP 5 CD":27804,"PROVIDER ZIP 4 CD":3647,"PROVIDER PHONE NUM":2524437011,"PROVIDER PHONE EXT":214,"PROGRAM YEAR":2011},"geometry":{"type":"Point","coordinates":[-77.83868,35.963061]}},{"type":"Feature","id":"5132dd76a288f42e6735a8a9","properties":{"_id":"5132dd76a288f42e6735a8a9","PROVIDER NPI":1104865963,"PROVIDER NAME":"ADCOCK, RUSTAN","PROVIDER STATE":"North Carolina","PROVIDER CITY":"Asheville","PROVIDER  ADDRESS":"206 Asheland Ave","PROVIDER ZIP 5 CD":28801,"PROVIDER ZIP 4 CD":4016,"PROVIDER PHONE NUM":8282103709,"PROVIDER PHONE EXT":"","PROGRAM YEAR":2011},"geometry":{"type":"Point","coordinates":[-82.556386,35.589129]}},{"type":"Feature","id":"5132dd76a288f42e6735a8aa","properties":{"_id":"5132dd76a288f42e6735a8aa","PROVIDER NPI":1609921212,"PROVIDER NAME":"Adekanmbi, Adebola","PROVIDER STATE":"North Carolina","PROVIDER CITY":"Concord","PROVIDER  ADDRESS":"271 Executive Park Dr","PROVIDER ZIP 5 CD":28025,"PROVIDER ZIP 4 CD":1895,"PROVIDER PHONE NUM":7047214232,"PROVIDER PHONE EXT":"","PROGRAM YEAR":2011},"geometry":{"type":"Point","coordinates":[-80.600016,35.45015]}},{"type":"Feature","id":"5132dd76a288f42e6735a8ab","properties":{"_id":"5132dd76a288f42e6735a8ab","PROVIDER NPI":1104832534,"PROVIDER NAME":"Adelman, Richard","PROVIDER STATE":"North Carolina","PROVIDER CITY":"Raleigh","PROVIDER  ADDRESS":"7320 Six Forks Rd, Ste 260","PROVIDER ZIP 5 CD":27615,"PROVIDER ZIP 4 CD":"","PROVIDER PHONE NUM":9198469292,"PROVIDER PHONE EXT":"","PROGRAM YEAR":2011},"geometry":{"type":"Point","coordinates":[-78.667148,35.890924]}},{"type":"Feature","id":"5132dd76a288f42e6735a8ac","properties":{"_id":"5132dd76a288f42e6735a8ac","PROVIDER NPI":1649277757,"PROVIDER NAME":"Adeyina, Feyisayo","PROVIDER STATE":"North Carolina","PROVIDER CITY":"Morrisville","PROVIDER  ADDRESS":"6402 McCrimmon Pkwy, Suite 100","PROVIDER ZIP 5 CD":27560,"PROVIDER ZIP 4 CD":8136,"PROVIDER PHONE NUM":9196551000,"PROVIDER PHONE EXT":"","PROGRAM YEAR":2011},"geometry":{"type":"Point","coordinates":[-78.859233,35.833682]}},{"type":"Feature","id":"5132dd76a288f42e6735a8ad","properties":{"_id":"5132dd76a288f42e6735a8ad","PROVIDER NPI":1497853360,"PROVIDER NAME":"Adkins, Neal","PROVIDER STATE":"North Carolina","PROVIDER CITY":"Rocky Mount","PROVIDER  ADDRESS":"132 Foy Dr","PROVIDER ZIP 5 CD":27804,"PROVIDER ZIP 4 CD":2417,"PROVIDER PHONE NUM":2524436622,"PROVIDER PHONE EXT":239,"PROGRAM YEAR":2011},"geometry":{"type":"Point","coordinates":[-77.839366,35.964972]}},{"type":"Feature","id":"5132dd76a288f42e6735a8ae","properties":{"_id":"5132dd76a288f42e6735a8ae","PROVIDER NPI":1205811403,"PROVIDER NAME":"Agner, Roy","PROVIDER STATE":"North Carolina","PROVIDER CITY":"Salisbury","PROVIDER  ADDRESS":"611 Mocksville Ave","PROVIDER ZIP 5 CD":28144,"PROVIDER ZIP 4 CD":2705,"PROVIDER PHONE NUM":7046337220,"PROVIDER PHONE EXT":"","PROGRAM YEAR":2011},"geometry":{"type":"Point","coordinates":[-80.47154,35.681337]}},{"type":"Feature","id":"5132dd76a288f42e6735a8af","properties":{"_id":"5132dd76a288f42e6735a8af","PROVIDER NPI":1871693507,"PROVIDER NAME":"agsten, joseph","PROVIDER STATE":"North Carolina","PROVIDER CITY":"Kinston","PROVIDER  ADDRESS":"107 Airport Rd","PROVIDER ZIP 5 CD":28501,"PROVIDER ZIP 4 CD":1603,"PROVIDER PHONE NUM":2525274146,"PROVIDER PHONE EXT":"","PROGRAM YEAR":2011},"geometry":{"type":"Point","coordinates":[-77.580555,35.29035]}},{"type":"Feature","id":"5132dd76a288f42e6735a8b0","properties":{"_id":"5132dd76a288f42e6735a8b0","PROVIDER NPI":1679599096,"PROVIDER NAME":"Aguiar, Rafaela","PROVIDER STATE":"North Carolina","PROVIDER CITY":"High Point","PROVIDER  ADDRESS":"4515 Premier Drive, Suite 201","PROVIDER ZIP 5 CD":27265,"PROVIDER ZIP 4 CD":"","PROVIDER PHONE NUM":3368022350,"PROVIDER PHONE EXT":"","PROGRAM YEAR":2011},"geometry":{"type":"Point","coordinates":[-79.95667,36.039459]}},{"type":"Feature","id":"5132dd76a288f42e6735a8b1","properties":{"_id":"5132dd76a288f42e6735a8b1","PROVIDER NPI":1174591119,"PROVIDER NAME":"AHMED, IFTEQUAR","PROVIDER STATE":"North Carolina","PROVIDER CITY":"Raleigh","PROVIDER  ADDRESS":"3225 Blue Ridge Rd, SUITE 113","PROVIDER ZIP 5 CD":27612,"PROVIDER ZIP 4 CD":8060,"PROVIDER PHONE NUM":9197890891,"PROVIDER PHONE EXT":"","PROGRAM YEAR":2011},"geometry":{"type":"Point","coordinates":[-78.700102,35.823609]}},{"type":"Feature","id":"5132dd76a288f42e6735a8b2","properties":{"_id":"5132dd76a288f42e6735a8b2","PROVIDER NPI":1841469061,"PROVIDER NAME":"Ahmed, Rizwan","PROVIDER STATE":"North Carolina","PROVIDER CITY":"Elkin","PROVIDER  ADDRESS":"201 W Main St","PROVIDER ZIP 5 CD":28621,"PROVIDER ZIP 4 CD":3490,"PROVIDER PHONE NUM":3365277308,"PROVIDER PHONE EXT":"","PROGRAM YEAR":2011},"geometry":{"type":"Point","coordinates":[-80.852041,36.243856]}},{"type":"Feature","id":"5132dd76a288f42e6735a8b3","properties":{"_id":"5132dd76a288f42e6735a8b3","PROVIDER NPI":1942203310,"PROVIDER NAME":"Aiello, Joseph","PROVIDER STATE":"North Carolina","PROVIDER CITY":"Asheville","PROVIDER  ADDRESS":"10 McDowell St","PROVIDER ZIP 5 CD":28801,"PROVIDER ZIP 4 CD":4104,"PROVIDER PHONE NUM":8282588545,"PROVIDER PHONE EXT":"","PROGRAM YEAR":2011},"geometry":{"type":"Point","coordinates":[-82.555507,35.58381]}},{"type":"Feature","id":"5132dd76a288f42e6735a8b4","properties":{"_id":"5132dd76a288f42e6735a8b4","PROVIDER NPI":1194789727,"PROVIDER NAME":"AIKEN, BONNIE","PROVIDER STATE":"North Carolina","PROVIDER CITY":"Winston-Salem","PROVIDER  ADDRESS":"1364 Westgate Center Drive","PROVIDER ZIP 5 CD":27103,"PROVIDER ZIP 4 CD":2932,"PROVIDER PHONE NUM":3367684140,"PROVIDER PHONE EXT":"","PROGRAM YEAR":2011},"geometry":{"type":"Point","coordinates":[-80.277878,36.09066]}},{"type":"Feature","id":"5132dd76a288f42e6735a8b5","properties":{"_id":"5132dd76a288f42e6735a8b5","PROVIDER NPI":1326048661,"PROVIDER NAME":"Ajlouny, Martha","PROVIDER STATE":"North Carolina","PROVIDER CITY":"Greensboro","PROVIDER  ADDRESS":"530 N Elam Ave","PROVIDER ZIP 5 CD":27403,"PROVIDER ZIP 4 CD":1153,"PROVIDER PHONE NUM":3362990271,"PROVIDER PHONE EXT":"","PROGRAM YEAR":2011},"geometry":{"type":"Point","coordinates":[-79.826284,36.081924]}},{"type":"Feature","id":"5132dd76a288f42e6735a8b6","properties":{"_id":"5132dd76a288f42e6735a8b6","PROVIDER NPI":1053372474,"PROVIDER NAME":"Akbary, Ali","PROVIDER STATE":"North Carolina","PROVIDER CITY":"High Point","PROVIDER  ADDRESS":"306 Westwood Ave, Suite 401","PROVIDER ZIP 5 CD":27262,"PROVIDER ZIP 4 CD":4341,"PROVIDER PHONE NUM":3368856168,"PROVIDER PHONE EXT":"","PROGRAM YEAR":2011},"geometry":{"type":"Point","coordinates":[-80.011753,35.961541]}},{"type":"Feature","id":"5132dd76a288f42e6735a8b7","properties":{"_id":"5132dd76a288f42e6735a8b7","PROVIDER NPI":1124090170,"PROVIDER NAME":"Akers, Thomas","PROVIDER STATE":"North Carolina","PROVIDER CITY":"Rocky Mount","PROVIDER  ADDRESS":"3044 Sunset Ave","PROVIDER ZIP 5 CD":27804,"PROVIDER ZIP 4 CD":3647,"PROVIDER PHONE NUM":2524437011,"PROVIDER PHONE EXT":213,"PROGRAM YEAR":2011},"geometry":{"type":"Point","coordinates":[-77.83868,35.963061]}},{"type":"Feature","id":"5132dd76a288f42e6735a8b8","properties":{"_id":"5132dd76a288f42e6735a8b8","PROVIDER NPI":1740284157,"PROVIDER NAME":"Akiwumi, Benjamin","PROVIDER STATE":"North Carolina","PROVIDER CITY":"Burgaw","PROVIDER  ADDRESS":"105 W Courthouse Ave., PO Box 1579","PROVIDER ZIP 5 CD":28425,"PROVIDER ZIP 4 CD":"","PROVIDER PHONE NUM":9103009220,"PROVIDER PHONE EXT":"","PROGRAM YEAR":2011},"geometry":{"type":"Point","coordinates":[-77.894389,34.562207]}},{"type":"Feature","id":"5132dd76a288f42e6735a8b9","properties":{"_id":"5132dd76a288f42e6735a8b9","PROVIDER NPI":1740274844,"PROVIDER NAME":"Alatar, Kira","PROVIDER STATE":"North Carolina","PROVIDER CITY":"Leland","PROVIDER  ADDRESS":"110A Village Rd NE","PROVIDER ZIP 5 CD":28451,"PROVIDER ZIP 4 CD":7412,"PROVIDER PHONE NUM":9103710055,"PROVIDER PHONE EXT":"","PROGRAM YEAR":2011},"geometry":{"type":"Point","coordinates":[-78.004149,34.236614]}},{"type":"Feature","id":"5132dd76a288f42e6735a8ba","properties":{"_id":"5132dd76a288f42e6735a8ba","PROVIDER NPI":1124080445,"PROVIDER NAME":"Albertson, Elizabeth","PROVIDER STATE":"North Carolina","PROVIDER CITY":"Winston-Salem","PROVIDER  ADDRESS":"140 Kimel Park Dr","PROVIDER ZIP 5 CD":27103,"PROVIDER ZIP 4 CD":6946,"PROVIDER PHONE NUM":3362452100,"PROVIDER PHONE EXT":"","PROGRAM YEAR":2011},"geometry":{"type":"Point","coordinates":[-80.301491,36.057808]}},{"type":"Feature","id":"5132dd76a288f42e6735a8bb","properties":{"_id":"5132dd76a288f42e6735a8bb","PROVIDER NPI":1619924891,"PROVIDER NAME":"Aldrich, Juan","PROVIDER STATE":"North Carolina","PROVIDER CITY":"Southport","PROVIDER  ADDRESS":"4222 Long Beach Rd SE","PROVIDER ZIP 5 CD":28461,"PROVIDER ZIP 4 CD":8627,"PROVIDER PHONE NUM":9103413300,"PROVIDER PHONE EXT":"","PROGRAM YEAR":2011},"geometry":{"type":"Point","coordinates":[-78.06704,33.933686]}},{"type":"Feature","id":"5132dd76a288f42e6735a8bc","properties":{"_id":"5132dd76a288f42e6735a8bc","PROVIDER NPI":1336140730,"PROVIDER NAME":"ALDRIDGE, CHARLES","PROVIDER STATE":"North Carolina","PROVIDER CITY":"Burnsville","PROVIDER  ADDRESS":"419 E Main St","PROVIDER ZIP 5 CD":28714,"PROVIDER ZIP 4 CD":3050,"PROVIDER PHONE NUM":8286822104,"PROVIDER PHONE EXT":"","PROGRAM YEAR":2011},"geometry":{"type":"Point","coordinates":[-82.288737,35.916417]}},{"type":"Feature","id":"5132dd76a288f42e6735a8bd","properties":{"_id":"5132dd76a288f42e6735a8bd","PROVIDER NPI":1154313468,"PROVIDER NAME":"Alexander, David","PROVIDER STATE":"North Carolina","PROVIDER CITY":"Morganton","PROVIDER  ADDRESS":"149 W Parker Rd","PROVIDER ZIP 5 CD":28655,"PROVIDER ZIP 4 CD":4673,"PROVIDER PHONE NUM":8284372950,"PROVIDER PHONE EXT":"","PROGRAM YEAR":2011},"geometry":{"type":"Point","coordinates":[-81.662422,35.723999]}},{"type":"Feature","id":"5132dd76a288f42e6735a8be","properties":{"_id":"5132dd76a288f42e6735a8be","PROVIDER NPI":1144220286,"PROVIDER NAME":"Alexander, John","PROVIDER STATE":"North Carolina","PROVIDER CITY":"Charlotte","PROVIDER  ADDRESS":"1718 E 4th St, Ste 501","PROVIDER ZIP 5 CD":28204,"PROVIDER ZIP 4 CD":3261,"PROVIDER PHONE NUM":7043439800,"PROVIDER PHONE EXT":"","PROGRAM YEAR":2011},"geometry":{"type":"Point","coordinates":[-80.826422,35.212003]}},{"type":"Feature","id":"5132dd76a288f42e6735a8bf","properties":{"_id":"5132dd76a288f42e6735a8bf","PROVIDER NPI":1740222157,"PROVIDER NAME":"Al-Khori, Fareed","PROVIDER STATE":"North Carolina","PROVIDER CITY":"High Point","PROVIDER  ADDRESS":"306 Westwood Avenue","PROVIDER ZIP 5 CD":27262,"PROVIDER ZIP 4 CD":"","PROVIDER PHONE NUM":3368856168,"PROVIDER PHONE EXT":"","PROGRAM YEAR":2011},"geometry":{"type":"Point","coordinates":[-80.011753,35.961541]}},{"type":"Feature","id":"5132dd76a288f42e6735a8c0","properties":{"_id":"5132dd76a288f42e6735a8c0","PROVIDER NPI":1588644157,"PROVIDER NAME":"Alligood, Gilbert","PROVIDER STATE":"North Carolina","PROVIDER CITY":"Tarboro","PROVIDER  ADDRESS":"101 Clinic Dr","PROVIDER ZIP 5 CD":27886,"PROVIDER ZIP 4 CD":1935,"PROVIDER PHONE NUM":2528232105,"PROVIDER PHONE EXT":"","PROGRAM YEAR":2011},"geometry":{"type":"Point","coordinates":[-77.556157,35.923155]}},{"type":"Feature","id":"5132dd76a288f42e6735a8c1","properties":{"_id":"5132dd76a288f42e6735a8c1","PROVIDER NPI":1922099035,"PROVIDER NAME":"ALMIRALL, PETER","PROVIDER STATE":"North Carolina","PROVIDER CITY":"Oak Island","PROVIDER  ADDRESS":"8715 E Oak Island Dr","PROVIDER ZIP 5 CD":28465,"PROVIDER ZIP 4 CD":8367,"PROVIDER PHONE NUM":9102783316,"PROVIDER PHONE EXT":"","PROGRAM YEAR":2011},"geometry":{"type":"Point","coordinates":[-78.077815,33.908694]}},{"type":"Feature","id":"5132dd76a288f42e6735a8c2","properties":{"_id":"5132dd76a288f42e6735a8c2","PROVIDER NPI":1487617858,"PROVIDER NAME":"Al-Sabbagh, Ghassan","PROVIDER STATE":"North Carolina","PROVIDER CITY":"Louisburg","PROVIDER  ADDRESS":"626 N Bickett Blvd","PROVIDER ZIP 5 CD":27549,"PROVIDER ZIP 4 CD":"","PROVIDER PHONE NUM":9194962745,"PROVIDER PHONE EXT":"","PROGRAM YEAR":2011},"geometry":{"type":"Point","coordinates":[-78.294009,36.101064]}},{"type":"Feature","id":"5132dd76a288f42e6735a8c3","properties":{"_id":"5132dd76a288f42e6735a8c3","PROVIDER NPI":1831161926,"PROVIDER NAME":"Alsina, George","PROVIDER STATE":"North Carolina","PROVIDER CITY":"Wilmington","PROVIDER  ADDRESS":"1025 Medical Center Dr, Suite 201","PROVIDER ZIP 5 CD":28401,"PROVIDER ZIP 4 CD":7354,"PROVIDER PHONE NUM":9103382773,"PROVIDER PHONE EXT":"","PROGRAM YEAR":2011},"geometry":{"type":"Point","coordinates":[-77.931754,34.252842]}},{"type":"Feature","id":"5132dd76a288f42e6735a8c4","properties":{"_id":"5132dd76a288f42e6735a8c4","PROVIDER NPI":1588665616,"PROVIDER NAME":"Aluko, Akinyele","PROVIDER STATE":"North Carolina","PROVIDER CITY":"Charlotte","PROVIDER  ADDRESS":"1718 E 4th St, Ste 501","PROVIDER ZIP 5 CD":28204,"PROVIDER ZIP 4 CD":3260,"PROVIDER PHONE NUM":7043439800,"PROVIDER PHONE EXT":"","PROGRAM YEAR":2011},"geometry":{"type":"Point","coordinates":[-80.826422,35.212003]}},{"type":"Feature","id":"5132dd76a288f42e6735a8c5","properties":{"_id":"5132dd76a288f42e6735a8c5","PROVIDER NPI":1720046147,"PROVIDER NAME":"Amin, Saad","PROVIDER STATE":"North Carolina","PROVIDER CITY":"Asheboro","PROVIDER  ADDRESS":"350 N Cox St Ste 6","PROVIDER ZIP 5 CD":27203,"PROVIDER ZIP 4 CD":4709,"PROVIDER PHONE NUM":3366292201,"PROVIDER PHONE EXT":"","PROGRAM YEAR":2011},"geometry":{"type":"Point","coordinates":[-79.810585,35.71001]}},{"type":"Feature","id":"5132dd76a288f42e6735a8c6","properties":{"_id":"5132dd76a288f42e6735a8c6","PROVIDER NPI":1295714327,"PROVIDER NAME":"Anagnos, Damon","PROVIDER STATE":"North Carolina","PROVIDER CITY":"Boone","PROVIDER  ADDRESS":"141 Doctors Dr","PROVIDER ZIP 5 CD":28607,"PROVIDER ZIP 4 CD":5017,"PROVIDER PHONE NUM":8282680082,"PROVIDER PHONE EXT":"","PROGRAM YEAR":2011},"geometry":{"type":"Point","coordinates":[-81.115842,36.508838]}},{"type":"Feature","id":"5132dd76a288f42e6735a8c7","properties":{"_id":"5132dd76a288f42e6735a8c7","PROVIDER NPI":1750374146,"PROVIDER NAME":"Anagnost, John","PROVIDER STATE":"North Carolina","PROVIDER CITY":"Wilmington","PROVIDER  ADDRESS":"1515 Doctors Cir, Hanover Medical Specialists","PROVIDER ZIP 5 CD":28401,"PROVIDER ZIP 4 CD":7403,"PROVIDER PHONE NUM":9103430447,"PROVIDER PHONE EXT":"","PROGRAM YEAR":2011},"geometry":{"type":"Point","coordinates":[-77.926438,34.204454]}},{"type":"Feature","id":"5132dd76a288f42e6735a8c8","properties":{"_id":"5132dd76a288f42e6735a8c8","PROVIDER NPI":1013935519,"PROVIDER NAME":"ANDERSEN, JANE","PROVIDER STATE":"North Carolina","PROVIDER CITY":"Chapel Hill","PROVIDER  ADDRESS":"1506 E Franklin St, SUITE 104","PROVIDER ZIP 5 CD":27514,"PROVIDER ZIP 4 CD":2825,"PROVIDER PHONE NUM":9199608858,"PROVIDER PHONE EXT":"","PROGRAM YEAR":2011},"geometry":{"type":"Point","coordinates":[-79.028109,35.936535]}},{"type":"Feature","id":"5132dd76a288f42e6735a8c9","properties":{"_id":"5132dd76a288f42e6735a8c9","PROVIDER NPI":1205835915,"PROVIDER NAME":"Andracchi, Susan","PROVIDER STATE":"North Carolina","PROVIDER CITY":"Wilmington","PROVIDER  ADDRESS":"2512 Delaney Avenue","PROVIDER ZIP 5 CD":28403,"PROVIDER ZIP 4 CD":"","PROVIDER PHONE NUM":9102021067,"PROVIDER PHONE EXT":"","PROGRAM YEAR":2011},"geometry":{"type":"Point","coordinates":[-77.921796,34.202464]}},{"type":"Feature","id":"5132dd76a288f42e6735a8ca","properties":{"_id":"5132dd76a288f42e6735a8ca","PROVIDER NPI":1114925419,"PROVIDER NAME":"Andreou, Costa","PROVIDER STATE":"North Carolina","PROVIDER CITY":"Gastonia","PROVIDER  ADDRESS":"2555 Court Dr, Ste 300","PROVIDER ZIP 5 CD":28054,"PROVIDER ZIP 4 CD":2134,"PROVIDER PHONE NUM":7048683256,"PROVIDER PHONE EXT":"","PROGRAM YEAR":2011},"geometry":{"type":"Point","coordinates":[-81.131025,35.251173]}},{"type":"Feature","id":"5132dd76a288f42e6735a8cb","properties":{"_id":"5132dd76a288f42e6735a8cb","PROVIDER NPI":1225199409,"PROVIDER NAME":"ANDREWS, ALLAN","PROVIDER STATE":"North Carolina","PROVIDER CITY":"Wilmington","PROVIDER  ADDRESS":"1202 Medical Center Dr","PROVIDER ZIP 5 CD":28401,"PROVIDER ZIP 4 CD":7307,"PROVIDER PHONE NUM":9103413300,"PROVIDER PHONE EXT":"","PROGRAM YEAR":2011},"geometry":{"type":"Point","coordinates":[-77.928867,34.202801]}},{"type":"Feature","id":"5132dd76a288f42e6735a8cc","properties":{"_id":"5132dd76a288f42e6735a8cc","PROVIDER NPI":1982690129,"PROVIDER NAME":"Andrews, James","PROVIDER STATE":"North Carolina","PROVIDER CITY":"Asheville","PROVIDER  ADDRESS":"147 Asheland Avenue","PROVIDER ZIP 5 CD":28801,"PROVIDER ZIP 4 CD":4013,"PROVIDER PHONE NUM":8282581188,"PROVIDER PHONE EXT":258,"PROGRAM YEAR":2011},"geometry":{"type":"Point","coordinates":[-82.556444,35.588861]}},{"type":"Feature","id":"5132dd76a288f42e6735a8cd","properties":{"_id":"5132dd76a288f42e6735a8cd","PROVIDER NPI":1063469088,"PROVIDER NAME":"Ange, Jessica","PROVIDER STATE":"North Carolina","PROVIDER CITY":"Sylva","PROVIDER  ADDRESS":"430 Fisher Creek Rd","PROVIDER ZIP 5 CD":28779,"PROVIDER ZIP 4 CD":7700,"PROVIDER PHONE NUM":8285864012,"PROVIDER PHONE EXT":226,"PROGRAM YEAR":2011},"geometry":{"type":"Point","coordinates":[-83.195972,35.399941]}},{"type":"Feature","id":"5132dd76a288f42e6735a8ce","properties":{"_id":"5132dd76a288f42e6735a8ce","PROVIDER NPI":1851366652,"PROVIDER NAME":"Annamaneni, Ravinder","PROVIDER STATE":"North Carolina","PROVIDER CITY":"Fayetteville","PROVIDER  ADDRESS":"4140 Ferncreek Dr, Suite 601","PROVIDER ZIP 5 CD":28314,"PROVIDER ZIP 4 CD":2563,"PROVIDER PHONE NUM":9104853880,"PROVIDER PHONE EXT":"","PROGRAM YEAR":2011},"geometry":{"type":"Point","coordinates":[-78.941692,35.045664]}},{"type":"Feature","id":"5132dd76a288f42e6735a8cf","properties":{"_id":"5132dd76a288f42e6735a8cf","PROVIDER NPI":1841265865,"PROVIDER NAME":"Antinori, Joseph","PROVIDER STATE":"North Carolina","PROVIDER CITY":"Burnsville","PROVIDER  ADDRESS":"14 Academy St","PROVIDER ZIP 5 CD":28714,"PROVIDER ZIP 4 CD":2902,"PROVIDER PHONE NUM":8286827333,"PROVIDER PHONE EXT":"","PROGRAM YEAR":2011},"geometry":{"type":"Point","coordinates":[-82.300922,35.91807]}},{"type":"Feature","id":"5132dd76a288f42e6735a8d0","properties":{"_id":"5132dd76a288f42e6735a8d0","PROVIDER NPI":1679589055,"PROVIDER NAME":"Apolinario, Arthur","PROVIDER STATE":"North Carolina","PROVIDER CITY":"Clinton","PROVIDER  ADDRESS":"403 Fairview St","PROVIDER ZIP 5 CD":28328,"PROVIDER ZIP 4 CD":2311,"PROVIDER PHONE NUM":9105926011,"PROVIDER PHONE EXT":"","PROGRAM YEAR":2011},"geometry":{"type":"Point","coordinates":[-78.32949,35.013191]}},{"type":"Feature","id":"5132dd76a288f42e6735a8d1","properties":{"_id":"5132dd76a288f42e6735a8d1","PROVIDER NPI":1669466405,"PROVIDER NAME":"Arb, Birgit","PROVIDER STATE":"North Carolina","PROVIDER CITY":"Wilmington","PROVIDER  ADDRESS":"1515 Doctors Cir, Hanover Medical Specialists, P.A.","PROVIDER ZIP 5 CD":28401,"PROVIDER ZIP 4 CD":7403,"PROVIDER PHONE NUM":9103430447,"PROVIDER PHONE EXT":"","PROGRAM YEAR":2011},"geometry":{"type":"Point","coordinates":[-77.935716,34.243669]}},{"type":"Feature","id":"5132dd76a288f42e6735a8d2","properties":{"_id":"5132dd76a288f42e6735a8d2","PROVIDER NPI":1285613976,"PROVIDER NAME":"Arcara, Victoria","PROVIDER STATE":"North Carolina","PROVIDER CITY":"Hendersonville","PROVIDER  ADDRESS":"27 Doctors Dr","PROVIDER ZIP 5 CD":28792,"PROVIDER ZIP 4 CD":7209,"PROVIDER PHONE NUM":8286873800,"PROVIDER PHONE EXT":"","PROGRAM YEAR":2011},"geometry":{"type":"Point","coordinates":[-82.487348,35.391241]}},{"type":"Feature","id":"5132dd76a288f42e6735a8d3","properties":{"_id":"5132dd76a288f42e6735a8d3","PROVIDER NPI":1013917673,"PROVIDER NAME":"Arn, Anthony","PROVIDER STATE":"North Carolina","PROVIDER CITY":"Gastonia","PROVIDER  ADDRESS":"2555 Court Dr, Suite 300","PROVIDER ZIP 5 CD":28054,"PROVIDER ZIP 4 CD":2134,"PROVIDER PHONE NUM":7048683256,"PROVIDER PHONE EXT":"","PROGRAM YEAR":2011},"geometry":{"type":"Point","coordinates":[-81.833846,35.47847]}},{"type":"Feature","id":"5132dd76a288f42e6735a8d4","properties":{"_id":"5132dd76a288f42e6735a8d4","PROVIDER NPI":1174511547,"PROVIDER NAME":"Arnold, David","PROVIDER STATE":"North Carolina","PROVIDER CITY":"Rockingham","PROVIDER  ADDRESS":"809 S Long Dr, Suite A","PROVIDER ZIP 5 CD":28379,"PROVIDER ZIP 4 CD":4317,"PROVIDER PHONE NUM":9109972727,"PROVIDER PHONE EXT":"","PROGRAM YEAR":2011},"geometry":{"type":"Point","coordinates":[-79.747534,35.002012]}},{"type":"Feature","id":"5132dd76a288f42e6735a8d5","properties":{"_id":"5132dd76a288f42e6735a8d5","PROVIDER NPI":1811087786,"PROVIDER NAME":"Arnold, Paulsen","PROVIDER STATE":"North Carolina","PROVIDER CITY":"Greenville","PROVIDER  ADDRESS":"601 SE Greenville Blvd","PROVIDER ZIP 5 CD":27858,"PROVIDER ZIP 4 CD":6738,"PROVIDER PHONE NUM":2527564204,"PROVIDER PHONE EXT":"","PROGRAM YEAR":2011},"geometry":{"type":"Point","coordinates":[-77.37057,35.585682]}},{"type":"Feature","id":"5132dd76a288f42e6735a8d6","properties":{"_id":"5132dd76a288f42e6735a8d6","PROVIDER NPI":1861411431,"PROVIDER NAME":"Aronson, Richard","PROVIDER STATE":"North Carolina","PROVIDER CITY":"Greensboro","PROVIDER  ADDRESS":"2703 Henry St","PROVIDER ZIP 5 CD":27405,"PROVIDER ZIP 4 CD":3669,"PROVIDER PHONE NUM":3366218911,"PROVIDER PHONE EXT":102,"PROGRAM YEAR":2011},"geometry":{"type":"Point","coordinates":[-79.781867,36.114979]}},{"type":"Feature","id":"5132dd76a288f42e6735a8d7","properties":{"_id":"5132dd76a288f42e6735a8d7","PROVIDER NPI":1922008960,"PROVIDER NAME":"Arter, James","PROVIDER STATE":"North Carolina","PROVIDER CITY":"Gastonia","PROVIDER  ADDRESS":"2555 Court Dr, Suite 300","PROVIDER ZIP 5 CD":28054,"PROVIDER ZIP 4 CD":2134,"PROVIDER PHONE NUM":7048683256,"PROVIDER PHONE EXT":"","PROGRAM YEAR":2011},"geometry":{"type":"Point","coordinates":[-81.833846,35.47847]}},{"type":"Feature","id":"5132dd76a288f42e6735a8d8","properties":{"_id":"5132dd76a288f42e6735a8d8","PROVIDER NPI":1730193665,"PROVIDER NAME":"Arvind, Moogali","PROVIDER STATE":"North Carolina","PROVIDER CITY":"High Point","PROVIDER  ADDRESS":"507 N Lindsay St","PROVIDER ZIP 5 CD":27262,"PROVIDER ZIP 4 CD":4303,"PROVIDER PHONE NUM":3368830029,"PROVIDER PHONE EXT":"","PROGRAM YEAR":2011},"geometry":{"type":"Point","coordinates":[-80.014463,35.959942]}},{"type":"Feature","id":"5132dd76a288f42e6735a8d9","properties":{"_id":"5132dd76a288f42e6735a8d9","PROVIDER NPI":1730185729,"PROVIDER NAME":"Asbill, Brian","PROVIDER STATE":"North Carolina","PROVIDER CITY":"Asheville","PROVIDER  ADDRESS":"5 Vanderbilt Park Dr","PROVIDER ZIP 5 CD":28803,"PROVIDER ZIP 4 CD":1700,"PROVIDER PHONE NUM":8282746000,"PROVIDER PHONE EXT":232,"PROGRAM YEAR":2011},"geometry":{"type":"Point","coordinates":[-82.543307,35.564163]}},{"type":"Feature","id":"5132dd76a288f42e6735a8da","properties":{"_id":"5132dd76a288f42e6735a8da","PROVIDER NPI":1194727479,"PROVIDER NAME":"Atassi, Nawaf","PROVIDER STATE":"North Carolina","PROVIDER CITY":"Kinston","PROVIDER  ADDRESS":"608A Airport Rd","PROVIDER ZIP 5 CD":28504,"PROVIDER ZIP 4 CD":8210,"PROVIDER PHONE NUM":2525238513,"PROVIDER PHONE EXT":"","PROGRAM YEAR":2011},"geometry":{"type":"Point","coordinates":[-77.588399,35.299558]}},{"type":"Feature","id":"5132dd76a288f42e6735a8db","properties":{"_id":"5132dd76a288f42e6735a8db","PROVIDER NPI":1417902156,"PROVIDER NAME":"Athans, William","PROVIDER STATE":"North Carolina","PROVIDER CITY":"Pinehurst","PROVIDER  ADDRESS":"160 Fox Hollow, Spectrum Family Eye Center","PROVIDER ZIP 5 CD":28374,"PROVIDER ZIP 4 CD":"","PROVIDER PHONE NUM":9106923937,"PROVIDER PHONE EXT":"","PROGRAM YEAR":2011},"geometry":{"type":"Point","coordinates":[-79.436969,35.178479]}},{"type":"Feature","id":"5132dd76a288f42e6735a8dc","properties":{"_id":"5132dd76a288f42e6735a8dc","PROVIDER NPI":1487638169,"PROVIDER NAME":"Atkins, John","PROVIDER STATE":"North Carolina","PROVIDER CITY":"Laurinburg","PROVIDER  ADDRESS":"601 Lauchwood Dr","PROVIDER ZIP 5 CD":28352,"PROVIDER ZIP 4 CD":5510,"PROVIDER PHONE NUM":9102767727,"PROVIDER PHONE EXT":"","PROGRAM YEAR":2011},"geometry":{"type":"Point","coordinates":[-79.46806,34.750951]}},{"type":"Feature","id":"5132dd76a288f42e6735a8dd","properties":{"_id":"5132dd76a288f42e6735a8dd","PROVIDER NPI":1891742763,"PROVIDER NAME":"Averell, Brian","PROVIDER STATE":"North Carolina","PROVIDER CITY":"Wilmington","PROVIDER  ADDRESS":"1202 Medical Center Dr","PROVIDER ZIP 5 CD":28401,"PROVIDER ZIP 4 CD":7307,"PROVIDER PHONE NUM":9103413300,"PROVIDER PHONE EXT":"","PROGRAM YEAR":2011},"geometry":{"type":"Point","coordinates":[-77.928867,34.202801]}},{"type":"Feature","id":"5132dd76a288f42e6735a8de","properties":{"_id":"5132dd76a288f42e6735a8de","PROVIDER NPI":1417283268,"PROVIDER NAME":"Aviles, Juan","PROVIDER STATE":"North Carolina","PROVIDER CITY":"Kinston","PROVIDER  ADDRESS":"107 Airport Rd","PROVIDER ZIP 5 CD":28501,"PROVIDER ZIP 4 CD":1603,"PROVIDER PHONE NUM":2525274146,"PROVIDER PHONE EXT":"","PROGRAM YEAR":2011},"geometry":{"type":"Point","coordinates":[-77.580555,35.29035]}},{"type":"Feature","id":"5132dd76a288f42e6735a8df","properties":{"_id":"5132dd76a288f42e6735a8df","PROVIDER NPI":1396727251,"PROVIDER NAME":"Avitabile, Steven","PROVIDER STATE":"North Carolina","PROVIDER CITY":"Morrisville","PROVIDER  ADDRESS":"1000 Bear Cat Way, Suite 101","PROVIDER ZIP 5 CD":27560,"PROVIDER ZIP 4 CD":6619,"PROVIDER PHONE NUM":9195321000,"PROVIDER PHONE EXT":"","PROGRAM YEAR":2011},"geometry":{"type":"Point","coordinates":[-78.82043,35.827505]}},{"type":"Feature","id":"5132dd76a288f42e6735a8e0","properties":{"_id":"5132dd76a288f42e6735a8e0","PROVIDER NPI":1861427494,"PROVIDER NAME":"Avva, Ravisankar","PROVIDER STATE":"North Carolina","PROVIDER CITY":"Greensboro","PROVIDER  ADDRESS":"2703 Henry St","PROVIDER ZIP 5 CD":27405,"PROVIDER ZIP 4 CD":3669,"PROVIDER PHONE NUM":3366218911,"PROVIDER PHONE EXT":102,"PROGRAM YEAR":2011},"geometry":{"type":"Point","coordinates":[-79.781867,36.114979]}},{"type":"Feature","id":"5132dd76a288f42e6735a8e1","properties":{"_id":"5132dd76a288f42e6735a8e1","PROVIDER NPI":1235173824,"PROVIDER NAME":"Ayres, Thomas","PROVIDER STATE":"North Carolina","PROVIDER CITY":"Raleigh","PROVIDER  ADDRESS":"6837 Falls Of Neuse Rd, Suite 106","PROVIDER ZIP 5 CD":27615,"PROVIDER ZIP 4 CD":5308,"PROVIDER PHONE NUM":9198460100,"PROVIDER PHONE EXT":"","PROGRAM YEAR":2011},"geometry":{"type":"Point","coordinates":[-78.624455,35.877935]}},{"type":"Feature","id":"5132dd76a288f42e6735a8e2","properties":{"_id":"5132dd76a288f42e6735a8e2","PROVIDER NPI":1134162464,"PROVIDER NAME":"Azizi, Ghobad","PROVIDER STATE":"North Carolina","PROVIDER CITY":"Wilmington","PROVIDER  ADDRESS":"1717 Shipyard Blvd, Suite 220","PROVIDER ZIP 5 CD":28403,"PROVIDER ZIP 4 CD":8019,"PROVIDER PHONE NUM":9102549464,"PROVIDER PHONE EXT":"","PROGRAM YEAR":2011},"geometry":{"type":"Point","coordinates":[-77.919743,34.193595]}},{"type":"Feature","id":"5132dd76a288f42e6735a8e3","properties":{"_id":"5132dd76a288f42e6735a8e3","PROVIDER NPI":1619904810,"PROVIDER NAME":"Babiss, Paula","PROVIDER STATE":"North Carolina","PROVIDER CITY":"Wilmington","PROVIDER  ADDRESS":"1202 Medical Center Dr","PROVIDER ZIP 5 CD":28401,"PROVIDER ZIP 4 CD":7307,"PROVIDER PHONE NUM":9103413300,"PROVIDER PHONE EXT":"","PROGRAM YEAR":2011},"geometry":{"type":"Point","coordinates":[-77.928867,34.202801]}},{"type":"Feature","id":"5132dd76a288f42e6735a8e4","properties":{"_id":"5132dd76a288f42e6735a8e4","PROVIDER NPI":1063439982,"PROVIDER NAME":"Badreddine, Rami","PROVIDER STATE":"North Carolina","PROVIDER CITY":"High Point","PROVIDER  ADDRESS":"624 Quaker Lane, Suite 105C","PROVIDER ZIP 5 CD":27262,"PROVIDER ZIP 4 CD":"","PROVIDER PHONE NUM":3368022105,"PROVIDER PHONE EXT":"","PROGRAM YEAR":2011},"geometry":{"type":"Point","coordinates":[-80.016923,35.961296]}},{"type":"Feature","id":"5132dd76a288f42e6735a8e5","properties":{"_id":"5132dd76a288f42e6735a8e5","PROVIDER NPI":1710089271,"PROVIDER NAME":"Bailey, Clayton","PROVIDER STATE":"North Carolina","PROVIDER CITY":"Charlotte","PROVIDER  ADDRESS":"10226 Couloak Dr, Suite 110","PROVIDER ZIP 5 CD":28216,"PROVIDER ZIP 4 CD":7675,"PROVIDER PHONE NUM":7043991415,"PROVIDER PHONE EXT":"","PROGRAM YEAR":2011},"geometry":{"type":"Point","coordinates":[-80.948889,35.326031]}},{"type":"Feature","id":"5132dd76a288f42e6735a8e6","properties":{"_id":"5132dd76a288f42e6735a8e6","PROVIDER NPI":1891793121,"PROVIDER NAME":"Bailey, John","PROVIDER STATE":"North Carolina","PROVIDER CITY":"Charlotte","PROVIDER  ADDRESS":"1718 E 4th St, Ste 501","PROVIDER ZIP 5 CD":28204,"PROVIDER ZIP 4 CD":3261,"PROVIDER PHONE NUM":7043439800,"PROVIDER PHONE EXT":"","PROGRAM YEAR":2011},"geometry":{"type":"Point","coordinates":[-80.826422,35.212003]}},{"type":"Feature","id":"5132dd76a288f42e6735a8e7","properties":{"_id":"5132dd76a288f42e6735a8e7","PROVIDER NPI":1487607123,"PROVIDER NAME":"bajwa, waheed","PROVIDER STATE":"North Carolina","PROVIDER CITY":"Cary","PROVIDER  ADDRESS":"160 NE Maynard Road, Suite 200","PROVIDER ZIP 5 CD":27513,"PROVIDER ZIP 4 CD":"","PROVIDER PHONE NUM":9194667540,"PROVIDER PHONE EXT":"","PROGRAM YEAR":2011},"geometry":{"type":"Point","coordinates":[-78.801431,35.775863]}},{"type":"Feature","id":"5132dd76a288f42e6735a8e8","properties":{"_id":"5132dd76a288f42e6735a8e8","PROVIDER NPI":1376586867,"PROVIDER NAME":"Balch, Charles","PROVIDER STATE":"North Carolina","PROVIDER CITY":"Fayetteville","PROVIDER  ADDRESS":"579 Cross Creek Mall","PROVIDER ZIP 5 CD":28303,"PROVIDER ZIP 4 CD":7245,"PROVIDER PHONE NUM":9104872900,"PROVIDER PHONE EXT":"","PROGRAM YEAR":2011},"geometry":{"type":"Point","coordinates":[-78.959698,35.082822]}},{"type":"Feature","id":"5132dd76a288f42e6735a8e9","properties":{"_id":"5132dd76a288f42e6735a8e9","PROVIDER NPI":1588658504,"PROVIDER NAME":"Bales, Donald","PROVIDER STATE":"North Carolina","PROVIDER CITY":"Rocky Mount","PROVIDER  ADDRESS":"901 N Winstead Ave","PROVIDER ZIP 5 CD":27804,"PROVIDER ZIP 4 CD":8467,"PROVIDER PHONE NUM":2529370200,"PROVIDER PHONE EXT":"","PROGRAM YEAR":2011},"geometry":{"type":"Point","coordinates":[-77.844505,35.978758]}},{"type":"Feature","id":"5132dd76a288f42e6735a8ea","properties":{"_id":"5132dd76a288f42e6735a8ea","PROVIDER NPI":1114098647,"PROVIDER NAME":"Balla, Somasekhara","PROVIDER STATE":"North Carolina","PROVIDER CITY":"Roanoke Rapids","PROVIDER  ADDRESS":"270 Smith Church Road","PROVIDER ZIP 5 CD":27870,"PROVIDER ZIP 4 CD":4914,"PROVIDER PHONE NUM":2525370134,"PROVIDER PHONE EXT":"","PROGRAM YEAR":2011},"geometry":{"type":"Point","coordinates":[-77.661819,36.428622]}},{"type":"Feature","id":"5132dd76a288f42e6735a8eb","properties":{"_id":"5132dd76a288f42e6735a8eb","PROVIDER NPI":1801835624,"PROVIDER NAME":"Ballantine, William","PROVIDER STATE":"North Carolina","PROVIDER CITY":"Asheville","PROVIDER  ADDRESS":"76 Peachtree Rd  Suite 120","PROVIDER ZIP 5 CD":28803,"PROVIDER ZIP 4 CD":"","PROVIDER PHONE NUM":8282776789,"PROVIDER PHONE EXT":"","PROGRAM YEAR":2011},"geometry":{"type":"Point","coordinates":[-82.526793,35.51427]}},{"type":"Feature","id":"5132dd76a288f42e6735a8ec","properties":{"_id":"5132dd76a288f42e6735a8ec","PROVIDER NPI":1912980178,"PROVIDER NAME":"Balta, Ofelia","PROVIDER STATE":"North Carolina","PROVIDER CITY":"Sylva","PROVIDER  ADDRESS":"63 Healthcare Dr","PROVIDER ZIP 5 CD":28779,"PROVIDER ZIP 4 CD":5120,"PROVIDER PHONE NUM":8285867798,"PROVIDER PHONE EXT":"","PROGRAM YEAR":2011},"geometry":{"type":"Point","coordinates":[-83.259593,35.309266]}},{"type":"Feature","id":"5132dd76a288f42e6735a8ed","properties":{"_id":"5132dd76a288f42e6735a8ed","PROVIDER NPI":1124198593,"PROVIDER NAME":"Baltich, Derik","PROVIDER STATE":"North Carolina","PROVIDER CITY":"Mooresville","PROVIDER  ADDRESS":"206 Joe V Knox Ave, Suite C","PROVIDER ZIP 5 CD":28117,"PROVIDER ZIP 4 CD":9147,"PROVIDER PHONE NUM":7047991999,"PROVIDER PHONE EXT":"","PROGRAM YEAR":2011},"geometry":{"type":"Point","coordinates":[-80.722559,35.114201]}},{"type":"Feature","id":"5132dd76a288f42e6735a8ee","properties":{"_id":"5132dd76a288f42e6735a8ee","PROVIDER NPI":1548290489,"PROVIDER NAME":"Barker, Robert","PROVIDER STATE":"North Carolina","PROVIDER CITY":"Asheville","PROVIDER  ADDRESS":"333 Gashes Creek Rd","PROVIDER ZIP 5 CD":28803,"PROVIDER ZIP 4 CD":9405,"PROVIDER PHONE NUM":8282980333,"PROVIDER PHONE EXT":"","PROGRAM YEAR":2011},"geometry":{"type":"Point","coordinates":[-82.495663,35.564835]}},{"type":"Feature","id":"5132dd76a288f42e6735a8ef","properties":{"_id":"5132dd76a288f42e6735a8ef","PROVIDER NPI":1437142890,"PROVIDER NAME":"Barnes, Alecia","PROVIDER STATE":"North Carolina","PROVIDER CITY":"Raleigh","PROVIDER  ADDRESS":"6566 Glenwood Ave","PROVIDER ZIP 5 CD":27612,"PROVIDER ZIP 4 CD":7156,"PROVIDER PHONE NUM":9197830011,"PROVIDER PHONE EXT":"","PROGRAM YEAR":2011},"geometry":{"type":"Point","coordinates":[-78.707075,35.859536]}},{"type":"Feature","id":"5132dd76a288f42e6735a8f0","properties":{"_id":"5132dd76a288f42e6735a8f0","PROVIDER NPI":1770587255,"PROVIDER NAME":"Barnes, Christopher","PROVIDER STATE":"North Carolina","PROVIDER CITY":"Fayetteville","PROVIDER  ADDRESS":"1991 Fordham Drive, Suite 100","PROVIDER ZIP 5 CD":28304,"PROVIDER ZIP 4 CD":3650,"PROVIDER PHONE NUM":9104843114,"PROVIDER PHONE EXT":228,"PROGRAM YEAR":2011},"geometry":{"type":"Point","coordinates":[-78.918095,35.036966]}},{"type":"Feature","id":"5132dd76a288f42e6735a8f1","properties":{"_id":"5132dd76a288f42e6735a8f1","PROVIDER NPI":1629015326,"PROVIDER NAME":"BARNES, ELIZABETH","PROVIDER STATE":"North Carolina","PROVIDER CITY":"Greensboro","PROVIDER  ADDRESS":"603 Dolley Madison Rd # A","PROVIDER ZIP 5 CD":27410,"PROVIDER ZIP 4 CD":4283,"PROVIDER PHONE NUM":3362946190,"PROVIDER PHONE EXT":"","PROGRAM YEAR":2011},"geometry":{"type":"Point","coordinates":[-79.885206,36.086922]}},{"type":"Feature","id":"5132dd76a288f42e6735a8f2","properties":{"_id":"5132dd76a288f42e6735a8f2","PROVIDER NPI":1821091232,"PROVIDER NAME":"Barowsky, Robert","PROVIDER STATE":"North Carolina","PROVIDER CITY":"Clinton","PROVIDER  ADDRESS":"340A Northeast Blvd, Jordan Shopping Center","PROVIDER ZIP 5 CD":28328,"PROVIDER ZIP 4 CD":2424,"PROVIDER PHONE NUM":9105925379,"PROVIDER PHONE EXT":"","PROGRAM YEAR":2011},"geometry":{"type":"Point","coordinates":[-78.346117,34.973363]}},{"type":"Feature","id":"5132dd76a288f42e6735a8f3","properties":{"_id":"5132dd76a288f42e6735a8f3","PROVIDER NPI":1669472106,"PROVIDER NAME":"Bartlett, Rick","PROVIDER STATE":"North Carolina","PROVIDER CITY":"Statesville","PROVIDER  ADDRESS":"843 N Center St","PROVIDER ZIP 5 CD":28677,"PROVIDER ZIP 4 CD":3222,"PROVIDER PHONE NUM":7048782660,"PROVIDER PHONE EXT":22,"PROGRAM YEAR":2011},"geometry":{"type":"Point","coordinates":[-80.899795,35.796866]}},{"type":"Feature","id":"5132dd76a288f42e6735a8f4","properties":{"_id":"5132dd76a288f42e6735a8f4","PROVIDER NPI":1154303568,"PROVIDER NAME":"Basinger, Scott","PROVIDER STATE":"North Carolina","PROVIDER CITY":"Charlotte","PROVIDER  ADDRESS":"12610 N Community House Rd, Suite 202","PROVIDER ZIP 5 CD":28277,"PROVIDER ZIP 4 CD":"","PROVIDER PHONE NUM":7045413668,"PROVIDER PHONE EXT":"","PROGRAM YEAR":2011},"geometry":{"type":"Point","coordinates":[-80.830292,35.043343]}},{"type":"Feature","id":"5132dd76a288f42e6735a8f5","properties":{"_id":"5132dd76a288f42e6735a8f5","PROVIDER NPI":1457309981,"PROVIDER NAME":"Bass, Elizabeth","PROVIDER STATE":"North Carolina","PROVIDER CITY":"Dunn","PROVIDER  ADDRESS":"303 Tilghman Dr","PROVIDER ZIP 5 CD":28334,"PROVIDER ZIP 4 CD":5524,"PROVIDER PHONE NUM":9108923338,"PROVIDER PHONE EXT":24,"PROGRAM YEAR":2011},"geometry":{"type":"Point","coordinates":[-78.633349,35.314226]}},{"type":"Feature","id":"5132dd76a288f42e6735a8f6","properties":{"_id":"5132dd76a288f42e6735a8f6","PROVIDER NPI":1396739116,"PROVIDER NAME":"Bassett-Shaftoe, Linda","PROVIDER STATE":"North Carolina","PROVIDER CITY":"Rocky Mount","PROVIDER  ADDRESS":"901 N Winstead Ave","PROVIDER ZIP 5 CD":27804,"PROVIDER ZIP 4 CD":8467,"PROVIDER PHONE NUM":2529370200,"PROVIDER PHONE EXT":"","PROGRAM YEAR":2011},"geometry":{"type":"Point","coordinates":[-77.844505,35.978758]}},{"type":"Feature","id":"5132dd76a288f42e6735a8f7","properties":{"_id":"5132dd76a288f42e6735a8f7","PROVIDER NPI":1245335090,"PROVIDER NAME":"Bast, Randal","PROVIDER STATE":"North Carolina","PROVIDER CITY":"Lenoir","PROVIDER  ADDRESS":"401 Mulberry St SW, Ste 101","PROVIDER ZIP 5 CD":28645,"PROVIDER ZIP 4 CD":1648,"PROVIDER PHONE NUM":8287585501,"PROVIDER PHONE EXT":"","PROGRAM YEAR":2011},"geometry":{"type":"Point","coordinates":[-81.535514,35.909517]}},{"type":"Feature","id":"5132dd76a288f42e6735a8f8","properties":{"_id":"5132dd76a288f42e6735a8f8","PROVIDER NPI":1124012695,"PROVIDER NAME":"Battle, Philip","PROVIDER STATE":"North Carolina","PROVIDER CITY":"Asheville","PROVIDER  ADDRESS":"1091 Hendersonville Rd, Ste 202","PROVIDER ZIP 5 CD":28803,"PROVIDER ZIP 4 CD":1873,"PROVIDER PHONE NUM":8282749765,"PROVIDER PHONE EXT":"","PROGRAM YEAR":2011},"geometry":{"type":"Point","coordinates":[-82.486126,35.550435]}},{"type":"Feature","id":"5132dd76a288f42e6735a8f9","properties":{"_id":"5132dd76a288f42e6735a8f9","PROVIDER NPI":1053402875,"PROVIDER NAME":"BAUER, STEVEN","PROVIDER STATE":"North Carolina","PROVIDER CITY":"Charlotte","PROVIDER  ADDRESS":"12311 Copper Way, Suite 100","PROVIDER ZIP 5 CD":28277,"PROVIDER ZIP 4 CD":3642,"PROVIDER PHONE NUM":7045401640,"PROVIDER PHONE EXT":"","PROGRAM YEAR":2011},"geometry":{"type":"Point","coordinates":[-80.845368,35.068405]}},{"type":"Feature","id":"5132dd76a288f42e6735a8fa","properties":{"_id":"5132dd76a288f42e6735a8fa","PROVIDER NPI":1275576282,"PROVIDER NAME":"Baughan, Michael","PROVIDER STATE":"North Carolina","PROVIDER CITY":"Elizabeth City","PROVIDER  ADDRESS":"1813 W Ehringhaus St","PROVIDER ZIP 5 CD":27909,"PROVIDER ZIP 4 CD":4555,"PROVIDER PHONE NUM":2523331155,"PROVIDER PHONE EXT":"","PROGRAM YEAR":2011},"geometry":{"type":"Point","coordinates":[-76.249529,36.290579]}},{"type":"Feature","id":"5132dd76a288f42e6735a8fb","properties":{"_id":"5132dd76a288f42e6735a8fb","PROVIDER NPI":1962619023,"PROVIDER NAME":"Baule, Raymond","PROVIDER STATE":"North Carolina","PROVIDER CITY":"Rocky Mount","PROVIDER  ADDRESS":"4056 Capital Dr","PROVIDER ZIP 5 CD":27804,"PROVIDER ZIP 4 CD":"","PROVIDER PHONE NUM":2529376007,"PROVIDER PHONE EXT":"","PROGRAM YEAR":2011},"geometry":{"type":"Point","coordinates":[-77.66761,35.609235]}},{"type":"Feature","id":"5132dd76a288f42e6735a8fc","properties":{"_id":"5132dd76a288f42e6735a8fc","PROVIDER NPI":1205860970,"PROVIDER NAME":"Bauman, Ted","PROVIDER STATE":"North Carolina","PROVIDER CITY":"Clinton","PROVIDER  ADDRESS":"403 Fairview St","PROVIDER ZIP 5 CD":28328,"PROVIDER ZIP 4 CD":2311,"PROVIDER PHONE NUM":9105920808,"PROVIDER PHONE EXT":"","PROGRAM YEAR":2011},"geometry":{"type":"Point","coordinates":[-78.32949,35.013191]}},{"type":"Feature","id":"5132dd76a288f42e6735a8fd","properties":{"_id":"5132dd76a288f42e6735a8fd","PROVIDER NPI":1023079381,"PROVIDER NAME":"Baumgarten, Alan","PROVIDER STATE":"North Carolina","PROVIDER CITY":"Asheville","PROVIDER  ADDRESS":"206 Asheland Ave","PROVIDER ZIP 5 CD":28801,"PROVIDER ZIP 4 CD":4016,"PROVIDER PHONE NUM":8282103709,"PROVIDER PHONE EXT":"","PROGRAM YEAR":2011},"geometry":{"type":"Point","coordinates":[-82.556386,35.589129]}},{"type":"Feature","id":"5132dd76a288f42e6735a8fe","properties":{"_id":"5132dd76a288f42e6735a8fe","PROVIDER NPI":1972567006,"PROVIDER NAME":"Beatty, Artis","PROVIDER STATE":"North Carolina","PROVIDER CITY":"Raleigh","PROVIDER  ADDRESS":"8231 Brier Creek Pkwy","PROVIDER ZIP 5 CD":27617,"PROVIDER ZIP 4 CD":7705,"PROVIDER PHONE NUM":"","PROVIDER PHONE EXT":"","PROGRAM YEAR":2011},"geometry":{"type":"Point","coordinates":[-78.778604,35.916939]}},{"type":"Feature","id":"5132dd76a288f42e6735a8ff","properties":{"_id":"5132dd76a288f42e6735a8ff","PROVIDER NPI":1043232606,"PROVIDER NAME":"Beauford, Wayne","PROVIDER STATE":"North Carolina","PROVIDER CITY":"High Point","PROVIDER  ADDRESS":"507 N Lindsay St","PROVIDER ZIP 5 CD":27262,"PROVIDER ZIP 4 CD":4303,"PROVIDER PHONE NUM":3368830029,"PROVIDER PHONE EXT":"","PROGRAM YEAR":2011},"geometry":{"type":"Point","coordinates":[-80.014463,35.959942]}},{"type":"Feature","id":"5132dd76a288f42e6735a900","properties":{"_id":"5132dd76a288f42e6735a900","PROVIDER NPI":1205836525,"PROVIDER NAME":"Beck, Daniel","PROVIDER STATE":"North Carolina","PROVIDER CITY":"Wallace","PROVIDER  ADDRESS":"104 W Main St","PROVIDER ZIP 5 CD":28466,"PROVIDER ZIP 4 CD":2902,"PROVIDER PHONE NUM":9102855050,"PROVIDER PHONE EXT":"","PROGRAM YEAR":2011},"geometry":{"type":"Point","coordinates":[-77.996299,34.734795]}},{"type":"Feature","id":"5132dd76a288f42e6735a901","properties":{"_id":"5132dd76a288f42e6735a901","PROVIDER NPI":1750359113,"PROVIDER NAME":"Becker, Denis","PROVIDER STATE":"North Carolina","PROVIDER CITY":"Raleigh","PROVIDER  ADDRESS":"2709 Blue Ridge Rd, Suite 350","PROVIDER ZIP 5 CD":27607,"PROVIDER ZIP 4 CD":"","PROVIDER PHONE NUM":9198767692,"PROVIDER PHONE EXT":"","PROGRAM YEAR":2011},"geometry":{"type":"Point","coordinates":[-78.705113,35.817422]}},{"type":"Feature","id":"5132dd76a288f42e6735a902","properties":{"_id":"5132dd76a288f42e6735a902","PROVIDER NPI":1417941402,"PROVIDER NAME":"Beckham, Michelle","PROVIDER STATE":"North Carolina","PROVIDER CITY":"Spring Hope","PROVIDER  ADDRESS":"100 Dodd St","PROVIDER ZIP 5 CD":27882,"PROVIDER ZIP 4 CD":9348,"PROVIDER PHONE NUM":2524785412,"PROVIDER PHONE EXT":"","PROGRAM YEAR":2011},"geometry":{"type":"Point","coordinates":[-78.108041,35.950902]}},{"type":"Feature","id":"5132dd76a288f42e6735a903","properties":{"_id":"5132dd76a288f42e6735a903","PROVIDER NPI":1174579395,"PROVIDER NAME":"BECKWITH, GEORGE","PROVIDER STATE":"North Carolina","PROVIDER CITY":"New Bern","PROVIDER  ADDRESS":"702 Newman Rd","PROVIDER ZIP 5 CD":28562,"PROVIDER ZIP 4 CD":5238,"PROVIDER PHONE NUM":2526335333,"PROVIDER PHONE EXT":"","PROGRAM YEAR":2011},"geometry":{"type":"Point","coordinates":[-77.098514,35.10931]}},{"type":"Feature","id":"5132dd76a288f42e6735a904","properties":{"_id":"5132dd76a288f42e6735a904","PROVIDER NPI":1497776876,"PROVIDER NAME":"Begovich, John","PROVIDER STATE":"North Carolina","PROVIDER CITY":"High Point","PROVIDER  ADDRESS":"611 N Lindsay Street, Suite 200","PROVIDER ZIP 5 CD":27262,"PROVIDER ZIP 4 CD":4318,"PROVIDER PHONE NUM":3368022250,"PROVIDER PHONE EXT":"","PROGRAM YEAR":2011},"geometry":{"type":"Point","coordinates":[-80.015222,35.961219]}},{"type":"Feature","id":"5132dd76a288f42e6735a905","properties":{"_id":"5132dd76a288f42e6735a905","PROVIDER NPI":1891759924,"PROVIDER NAME":"Bell, Lisa","PROVIDER STATE":"North Carolina","PROVIDER CITY":"Raleigh","PROVIDER  ADDRESS":"8231 Brier Creek Pkwy","PROVIDER ZIP 5 CD":27617,"PROVIDER ZIP 4 CD":7705,"PROVIDER PHONE NUM":"","PROVIDER PHONE EXT":"","PROGRAM YEAR":2011},"geometry":{"type":"Point","coordinates":[-78.778604,35.916939]}},{"type":"Feature","id":"5132dd76a288f42e6735a906","properties":{"_id":"5132dd76a288f42e6735a906","PROVIDER NPI":1689668535,"PROVIDER NAME":"Bello, Broderick","PROVIDER STATE":"North Carolina","PROVIDER CITY":"Nashville","PROVIDER  ADDRESS":"111 W Church St","PROVIDER ZIP 5 CD":27856,"PROVIDER ZIP 4 CD":1327,"PROVIDER PHONE NUM":2524594012,"PROVIDER PHONE EXT":"","PROGRAM YEAR":2011},"geometry":{"type":"Point","coordinates":[-77.96785,35.973721]}},{"type":"Feature","id":"5132dd76a288f42e6735a907","properties":{"_id":"5132dd76a288f42e6735a907","PROVIDER NPI":1659546976,"PROVIDER NAME":"Benjamin, Dinesh","PROVIDER STATE":"North Carolina","PROVIDER CITY":"Durham","PROVIDER  ADDRESS":"725 Broad St","PROVIDER ZIP 5 CD":27705,"PROVIDER ZIP 4 CD":4833,"PROVIDER PHONE NUM":9199727700,"PROVIDER PHONE EXT":"","PROGRAM YEAR":2011},"geometry":{"type":"Point","coordinates":[-78.919791,36.008075]}},{"type":"Feature","id":"5132dd76a288f42e6735a908","properties":{"_id":"5132dd76a288f42e6735a908","PROVIDER NPI":1467405381,"PROVIDER NAME":"Benkusky, Stephen","PROVIDER STATE":"North Carolina","PROVIDER CITY":"Edenton","PROVIDER  ADDRESS":"103 W Eden St","PROVIDER ZIP 5 CD":27932,"PROVIDER ZIP 4 CD":1843,"PROVIDER PHONE NUM":2524823218,"PROVIDER PHONE EXT":"","PROGRAM YEAR":2011},"geometry":{"type":"Point","coordinates":[-76.608923,36.058904]}},{"type":"Feature","id":"5132dd76a288f42e6735a909","properties":{"_id":"5132dd76a288f42e6735a909","PROVIDER NPI":1972506103,"PROVIDER NAME":"Benson, Richard","PROVIDER STATE":"North Carolina","PROVIDER CITY":"Boone","PROVIDER  ADDRESS":"400 Shadowline Dr, Suite 101","PROVIDER ZIP 5 CD":28607,"PROVIDER ZIP 4 CD":5089,"PROVIDER PHONE NUM":8282638707,"PROVIDER PHONE EXT":4,"PROGRAM YEAR":2011},"geometry":{"type":"Point","coordinates":[-81.658506,36.204003]}},{"type":"Feature","id":"5132dd76a288f42e6735a90a","properties":{"_id":"5132dd76a288f42e6735a90a","PROVIDER NPI":1760406375,"PROVIDER NAME":"Berglund, Laura","PROVIDER STATE":"North Carolina","PROVIDER CITY":"Mebane","PROVIDER  ADDRESS":"3940 Arrowhead Blvd, Suite 225","PROVIDER ZIP 5 CD":27302,"PROVIDER ZIP 4 CD":"","PROVIDER PHONE NUM":9195633007,"PROVIDER PHONE EXT":"","PROGRAM YEAR":2011},"geometry":{"type":"Point","coordinates":[-79.27295,36.077609]}},{"type":"Feature","id":"5132dd76a288f42e6735a90b","properties":{"_id":"5132dd76a288f42e6735a90b","PROVIDER NPI":1154399418,"PROVIDER NAME":"Berlin, Corey","PROVIDER STATE":"North Carolina","PROVIDER CITY":"Raleigh","PROVIDER  ADDRESS":"2709 Blue Ridge Rd, Ste 320","PROVIDER ZIP 5 CD":27607,"PROVIDER ZIP 4 CD":"","PROVIDER PHONE NUM":9198767692,"PROVIDER PHONE EXT":"","PROGRAM YEAR":2011},"geometry":{"type":"Point","coordinates":[-78.705113,35.817422]}},{"type":"Feature","id":"5132dd76a288f42e6735a90c","properties":{"_id":"5132dd76a288f42e6735a90c","PROVIDER NPI":1609882059,"PROVIDER NAME":"Bernstein, Joshua","PROVIDER STATE":"North Carolina","PROVIDER CITY":"Arden","PROVIDER  ADDRESS":"600 Julian Ln, Suite 630","PROVIDER ZIP 5 CD":28704,"PROVIDER ZIP 4 CD":7813,"PROVIDER PHONE NUM":8286510121,"PROVIDER PHONE EXT":"","PROGRAM YEAR":2011},"geometry":{"type":"Point","coordinates":[-82.743245,35.637135]}},{"type":"Feature","id":"5132dd76a288f42e6735a90d","properties":{"_id":"5132dd76a288f42e6735a90d","PROVIDER NPI":1740282219,"PROVIDER NAME":"Bernstorf, Steven","PROVIDER STATE":"North Carolina","PROVIDER CITY":"Greensboro","PROVIDER  ADDRESS":"2633 Randleman Rd","PROVIDER ZIP 5 CD":27406,"PROVIDER ZIP 4 CD":5107,"PROVIDER PHONE NUM":3362742222,"PROVIDER PHONE EXT":"","PROGRAM YEAR":2011},"geometry":{"type":"Point","coordinates":[-79.801622,36.029321]}},{"type":"Feature","id":"5132dd76a288f42e6735a90e","properties":{"_id":"5132dd76a288f42e6735a90e","PROVIDER NPI":1467435024,"PROVIDER NAME":"BERTRAM, ROBERT","PROVIDER STATE":"North Carolina","PROVIDER CITY":"Salisbury","PROVIDER  ADDRESS":"911 W Henderson St, STE 110","PROVIDER ZIP 5 CD":28144,"PROVIDER ZIP 4 CD":2736,"PROVIDER PHONE NUM":7046339441,"PROVIDER PHONE EXT":"","PROGRAM YEAR":2011},"geometry":{"type":"Point","coordinates":[-80.493706,35.701819]}},{"type":"Feature","id":"5132dd76a288f42e6735a90f","properties":{"_id":"5132dd76a288f42e6735a90f","PROVIDER NPI":1184620056,"PROVIDER NAME":"Bertsch, Mary","PROVIDER STATE":"North Carolina","PROVIDER CITY":"Greenville","PROVIDER  ADDRESS":"2090 W Arlington Blvd, Ste B","PROVIDER ZIP 5 CD":27834,"PROVIDER ZIP 4 CD":5727,"PROVIDER PHONE NUM":2527583000,"PROVIDER PHONE EXT":"","PROGRAM YEAR":2011},"geometry":{"type":"Point","coordinates":[-77.382027,35.660601]}},{"type":"Feature","id":"5132dd76a288f42e6735a910","properties":{"_id":"5132dd76a288f42e6735a910","PROVIDER NPI":1790730158,"PROVIDER NAME":"Beyer, Ryan","PROVIDER STATE":"North Carolina","PROVIDER CITY":"Cary","PROVIDER  ADDRESS":"1398 Kildaire Farm Road, Suite 100","PROVIDER ZIP 5 CD":27511,"PROVIDER ZIP 4 CD":"","PROVIDER PHONE NUM":9194673238,"PROVIDER PHONE EXT":"","PROGRAM YEAR":2011},"geometry":{"type":"Point","coordinates":[-78.783059,35.757919]}},{"type":"Feature","id":"5132dd76a288f42e6735a911","properties":{"_id":"5132dd76a288f42e6735a911","PROVIDER NPI":1699706788,"PROVIDER NAME":"Biesecker, Gary","PROVIDER STATE":"North Carolina","PROVIDER CITY":"High Point","PROVIDER  ADDRESS":"1814 Westchester Drive, Suite 101","PROVIDER ZIP 5 CD":27262,"PROVIDER ZIP 4 CD":"","PROVIDER PHONE NUM":3368022150,"PROVIDER PHONE EXT":"","PROGRAM YEAR":2011},"geometry":{"type":"Point","coordinates":[-80.033913,35.94344]}},{"type":"Feature","id":"5132dd76a288f42e6735a912","properties":{"_id":"5132dd76a288f42e6735a912","PROVIDER NPI":1033258157,"PROVIDER NAME":"Bilbro, Scott","PROVIDER STATE":"North Carolina","PROVIDER CITY":"Cary","PROVIDER  ADDRESS":"530 New Waverly Pl, Suite 200","PROVIDER ZIP 5 CD":27511,"PROVIDER ZIP 4 CD":7414,"PROVIDER PHONE NUM":9198595955,"PROVIDER PHONE EXT":"","PROGRAM YEAR":2011},"geometry":{"type":"Point","coordinates":[-78.53463,36.100482]}},{"type":"Feature","id":"5132dd76a288f42e6735a913","properties":{"_id":"5132dd76a288f42e6735a913","PROVIDER NPI":1609848555,"PROVIDER NAME":"BILHORN, DENISE","PROVIDER STATE":"North Carolina","PROVIDER CITY":"Hickory","PROVIDER  ADDRESS":"915 Tate Blvd SE, SUITE 170","PROVIDER ZIP 5 CD":28602,"PROVIDER ZIP 4 CD":4042,"PROVIDER PHONE NUM":8283450800,"PROVIDER PHONE EXT":"","PROGRAM YEAR":2011},"geometry":{"type":"Point","coordinates":[-81.298459,35.727653]}},{"type":"Feature","id":"5132dd76a288f42e6735a914","properties":{"_id":"5132dd76a288f42e6735a914","PROVIDER NPI":1508848631,"PROVIDER NAME":"Bilic-Jonas, Maya","PROVIDER STATE":"North Carolina","PROVIDER CITY":"Chapel Hill","PROVIDER  ADDRESS":"2238 Nelson Hwy, Ste 100","PROVIDER ZIP 5 CD":27517,"PROVIDER ZIP 4 CD":8914,"PROVIDER PHONE NUM":9194011994,"PROVIDER PHONE EXT":"","PROGRAM YEAR":2011},"geometry":{"type":"Point","coordinates":[-78.987099,35.910623]}},{"type":"Feature","id":"5132dd76a288f42e6735a915","properties":{"_id":"5132dd76a288f42e6735a915","PROVIDER NPI":1063423341,"PROVIDER NAME":"Bishop, Andrew","PROVIDER STATE":"North Carolina","PROVIDER CITY":"Wilmington","PROVIDER  ADDRESS":"1202 Medical Center Dr","PROVIDER ZIP 5 CD":28401,"PROVIDER ZIP 4 CD":7307,"PROVIDER PHONE NUM":9103413301,"PROVIDER PHONE EXT":"","PROGRAM YEAR":2011},"geometry":{"type":"Point","coordinates":[-77.928867,34.202801]}},{"type":"Feature","id":"5132dd76a288f42e6735a916","properties":{"_id":"5132dd76a288f42e6735a916","PROVIDER NPI":1578576674,"PROVIDER NAME":"Blackley, Shem","PROVIDER STATE":"North Carolina","PROVIDER CITY":"Shelby","PROVIDER  ADDRESS":"1001 N Washington St","PROVIDER ZIP 5 CD":28150,"PROVIDER ZIP 4 CD":1800,"PROVIDER PHONE NUM":7044822011,"PROVIDER PHONE EXT":"","PROGRAM YEAR":2011},"geometry":{"type":"Point","coordinates":[-81.53797,35.30378]}},{"type":"Feature","id":"5132dd76a288f42e6735a917","properties":{"_id":"5132dd76a288f42e6735a917","PROVIDER NPI":1568448223,"PROVIDER NAME":"Blackman, Cameron","PROVIDER STATE":"North Carolina","PROVIDER CITY":"Concord","PROVIDER  ADDRESS":"1084 Vinehaven Dr","PROVIDER ZIP 5 CD":28025,"PROVIDER ZIP 4 CD":2438,"PROVIDER PHONE NUM":7047865134,"PROVIDER PHONE EXT":"","PROGRAM YEAR":2011},"geometry":{"type":"Point","coordinates":[-80.523467,35.382677]}},{"type":"Feature","id":"5132dd76a288f42e6735a918","properties":{"_id":"5132dd76a288f42e6735a918","PROVIDER NPI":1972653269,"PROVIDER NAME":"BLACKMORE, JONATHAN","PROVIDER STATE":"North Carolina","PROVIDER CITY":"Wilmington","PROVIDER  ADDRESS":"5245 S College Rd","PROVIDER ZIP 5 CD":28412,"PROVIDER ZIP 4 CD":2209,"PROVIDER PHONE NUM":9103927806,"PROVIDER PHONE EXT":"","PROGRAM YEAR":2011},"geometry":{"type":"Point","coordinates":[-77.892716,34.143224]}},{"type":"Feature","id":"5132dd76a288f42e6735a919","properties":{"_id":"5132dd76a288f42e6735a919","PROVIDER NPI":1902885700,"PROVIDER NAME":"Blair, James","PROVIDER STATE":"North Carolina","PROVIDER CITY":"Surf City","PROVIDER  ADDRESS":"13567 A Highway 50","PROVIDER ZIP 5 CD":28445,"PROVIDER ZIP 4 CD":6555,"PROVIDER PHONE NUM":9103299916,"PROVIDER PHONE EXT":"","PROGRAM YEAR":2011},"geometry":{"type":"Point","coordinates":[-77.562216,34.448075]}},{"type":"Feature","id":"5132dd76a288f42e6735a91a","properties":{"_id":"5132dd76a288f42e6735a91a","PROVIDER NPI":1386646628,"PROVIDER NAME":"Blair, Richard","PROVIDER STATE":"North Carolina","PROVIDER CITY":"Greenville","PROVIDER  ADDRESS":"511 Paladin Dr","PROVIDER ZIP 5 CD":27834,"PROVIDER ZIP 4 CD":7826,"PROVIDER PHONE NUM":2526339262,"PROVIDER PHONE EXT":"","PROGRAM YEAR":2011},"geometry":{"type":"Point","coordinates":[-77.411615,35.619781]}},{"type":"Feature","id":"5132dd76a288f42e6735a91b","properties":{"_id":"5132dd76a288f42e6735a91b","PROVIDER NPI":1083675433,"PROVIDER NAME":"Bland, Veita","PROVIDER STATE":"North Carolina","PROVIDER CITY":"Greensboro","PROVIDER  ADDRESS":"1317 N Elm St, SUITE 7","PROVIDER ZIP 5 CD":27401,"PROVIDER ZIP 4 CD":1033,"PROVIDER PHONE NUM":3363731557,"PROVIDER PHONE EXT":"","PROGRAM YEAR":2011},"geometry":{"type":"Point","coordinates":[-79.79072,36.066963]}},{"type":"Feature","id":"5132dd76a288f42e6735a91c","properties":{"_id":"5132dd76a288f42e6735a91c","PROVIDER NPI":1912938010,"PROVIDER NAME":"Blazek, F","PROVIDER STATE":"North Carolina","PROVIDER CITY":"High Point","PROVIDER  ADDRESS":"1814 Westchester Drive, Suite 101","PROVIDER ZIP 5 CD":27262,"PROVIDER ZIP 4 CD":"","PROVIDER PHONE NUM":3368022150,"PROVIDER PHONE EXT":"","PROGRAM YEAR":2011},"geometry":{"type":"Point","coordinates":[-80.033913,35.94344]}},{"type":"Feature","id":"5132dd76a288f42e6735a91d","properties":{"_id":"5132dd76a288f42e6735a91d","PROVIDER NPI":1891862355,"PROVIDER NAME":"Bliss, Laura","PROVIDER STATE":"North Carolina","PROVIDER CITY":"Mebane","PROVIDER  ADDRESS":"132 Millstead Dr","PROVIDER ZIP 5 CD":27302,"PROVIDER ZIP 4 CD":7165,"PROVIDER PHONE NUM":9195634444,"PROVIDER PHONE EXT":"","PROGRAM YEAR":2011},"geometry":{"type":"Point","coordinates":[-79.306093,36.087114]}},{"type":"Feature","id":"5132dd76a288f42e6735a91e","properties":{"_id":"5132dd76a288f42e6735a91e","PROVIDER NPI":1174586747,"PROVIDER NAME":"Blocker, Michael","PROVIDER STATE":"North Carolina","PROVIDER CITY":"Burlington","PROVIDER  ADDRESS":"1248 Huffman Mill Rd, Suite 103","PROVIDER ZIP 5 CD":27215,"PROVIDER ZIP 4 CD":8700,"PROVIDER PHONE NUM":3365845200,"PROVIDER PHONE EXT":"","PROGRAM YEAR":2011},"geometry":{"type":"Point","coordinates":[-79.50201,36.064011]}},{"type":"Feature","id":"5132dd76a288f42e6735a91f","properties":{"_id":"5132dd76a288f42e6735a91f","PROVIDER NPI":1699776096,"PROVIDER NAME":"Boan, Thomas","PROVIDER STATE":"North Carolina","PROVIDER CITY":"Hickory","PROVIDER  ADDRESS":"1060 Lenoir Rhyne Blvd SE","PROVIDER ZIP 5 CD":28602,"PROVIDER ZIP 4 CD":4330,"PROVIDER PHONE NUM":8283283900,"PROVIDER PHONE EXT":"","PROGRAM YEAR":2011},"geometry":{"type":"Point","coordinates":[-81.316506,35.720475]}},{"type":"Feature","id":"5132dd76a288f42e6735a920","properties":{"_id":"5132dd76a288f42e6735a920","PROVIDER NPI":1063413771,"PROVIDER NAME":"Boccella, John","PROVIDER STATE":"North Carolina","PROVIDER CITY":"Raleigh","PROVIDER  ADDRESS":"10931 Strickland Rd, Suite 131","PROVIDER ZIP 5 CD":27615,"PROVIDER ZIP 4 CD":2085,"PROVIDER PHONE NUM":9195181234,"PROVIDER PHONE EXT":"","PROGRAM YEAR":2011},"geometry":{"type":"Point","coordinates":[-78.676989,35.901583]}},{"type":"Feature","id":"5132dd76a288f42e6735a921","properties":{"_id":"5132dd76a288f42e6735a921","PROVIDER NPI":1720019482,"PROVIDER NAME":"Bocko, Alan","PROVIDER STATE":"North Carolina","PROVIDER CITY":"Chapel Hill","PROVIDER  ADDRESS":"1506 E Franklin St, Suite 104","PROVIDER ZIP 5 CD":27514,"PROVIDER ZIP 4 CD":2825,"PROVIDER PHONE NUM":9199608858,"PROVIDER PHONE EXT":"","PROGRAM YEAR":2011},"geometry":{"type":"Point","coordinates":[-79.028109,35.936535]}},{"type":"Feature","id":"5132dd76a288f42e6735a922","properties":{"_id":"5132dd76a288f42e6735a922","PROVIDER NPI":1861406423,"PROVIDER NAME":"Bocook, Jessica","PROVIDER STATE":"North Carolina","PROVIDER CITY":"Southport","PROVIDER  ADDRESS":"3960 Executive Park Blvd, Suite 600","PROVIDER ZIP 5 CD":28461,"PROVIDER ZIP 4 CD":8184,"PROVIDER PHONE NUM":9104544343,"PROVIDER PHONE EXT":"","PROGRAM YEAR":2011},"geometry":{"type":"Point","coordinates":[-78.081193,33.961711]}},{"type":"Feature","id":"5132dd76a288f42e6735a923","properties":{"_id":"5132dd76a288f42e6735a923","PROVIDER NPI":1164699500,"PROVIDER NAME":"Bolden, Taineisha","PROVIDER STATE":"North Carolina","PROVIDER CITY":"Roxboro","PROVIDER  ADDRESS":"228 S Madison Blvd","PROVIDER ZIP 5 CD":27573,"PROVIDER ZIP 4 CD":5428,"PROVIDER PHONE NUM":3365985480,"PROVIDER PHONE EXT":"","PROGRAM YEAR":2011},"geometry":{"type":"Point","coordinates":[-78.987363,36.384878]}},{"type":"Feature","id":"5132dd76a288f42e6735a924","properties":{"_id":"5132dd76a288f42e6735a924","PROVIDER NPI":1841344579,"PROVIDER NAME":"Bond, James","PROVIDER STATE":"North Carolina","PROVIDER CITY":"Tryon","PROVIDER  ADDRESS":"486 S Trade St","PROVIDER ZIP 5 CD":28782,"PROVIDER ZIP 4 CD":2787,"PROVIDER PHONE NUM":8288599165,"PROVIDER PHONE EXT":"","PROGRAM YEAR":2011},"geometry":{"type":"Point","coordinates":[-82.230417,35.197708]}},{"type":"Feature","id":"5132dd76a288f42e6735a925","properties":{"_id":"5132dd76a288f42e6735a925","PROVIDER NPI":1912991886,"PROVIDER NAME":"Bondy, Paul","PROVIDER STATE":"North Carolina","PROVIDER CITY":"Nashville","PROVIDER  ADDRESS":"111 W Church St","PROVIDER ZIP 5 CD":27856,"PROVIDER ZIP 4 CD":1327,"PROVIDER PHONE NUM":2524594012,"PROVIDER PHONE EXT":"","PROGRAM YEAR":2011},"geometry":{"type":"Point","coordinates":[-77.96785,35.973721]}},{"type":"Feature","id":"5132dd76a288f42e6735a926","properties":{"_id":"5132dd76a288f42e6735a926","PROVIDER NPI":1962446914,"PROVIDER NAME":"Bouska, David","PROVIDER STATE":"North Carolina","PROVIDER CITY":"Greensboro","PROVIDER  ADDRESS":"5710 High Point Rd Ste I","PROVIDER ZIP 5 CD":27407,"PROVIDER ZIP 4 CD":7047,"PROVIDER PHONE NUM":3362997000,"PROVIDER PHONE EXT":"","PROGRAM YEAR":2011},"geometry":{"type":"Point","coordinates":[-79.896655,36.014982]}},{"type":"Feature","id":"5132dd76a288f42e6735a927","properties":{"_id":"5132dd76a288f42e6735a927","PROVIDER NPI":1568590214,"PROVIDER NAME":"Bowling, Jonathan","PROVIDER STATE":"North Carolina","PROVIDER CITY":"Laurinburg","PROVIDER  ADDRESS":"215A  Lauchwood Dr","PROVIDER ZIP 5 CD":28352,"PROVIDER ZIP 4 CD":4647,"PROVIDER PHONE NUM":9102761993,"PROVIDER PHONE EXT":"","PROGRAM YEAR":2011},"geometry":{"type":"Point","coordinates":[-79.47849,34.751604]}},{"type":"Feature","id":"5132dd76a288f42e6735a928","properties":{"_id":"5132dd76a288f42e6735a928","PROVIDER NPI":1467436220,"PROVIDER NAME":"BOX, Jane","PROVIDER STATE":"North Carolina","PROVIDER CITY":"Charlotte","PROVIDER  ADDRESS":"10502 Park Rd, Suite 100","PROVIDER ZIP 5 CD":28210,"PROVIDER ZIP 4 CD":8479,"PROVIDER PHONE NUM":7045419092,"PROVIDER PHONE EXT":"","PROGRAM YEAR":2011},"geometry":{"type":"Point","coordinates":[-80.868231,35.093631]}},{"type":"Feature","id":"5132dd76a288f42e6735a929","properties":{"_id":"5132dd76a288f42e6735a929","PROVIDER NPI":1720062508,"PROVIDER NAME":"BOX, PATRICK","PROVIDER STATE":"North Carolina","PROVIDER CITY":"Charlotte","PROVIDER  ADDRESS":"10502 Park Rd, Suite 100","PROVIDER ZIP 5 CD":28210,"PROVIDER ZIP 4 CD":8479,"PROVIDER PHONE NUM":7045419092,"PROVIDER PHONE EXT":"","PROGRAM YEAR":2011},"geometry":{"type":"Point","coordinates":[-80.868231,35.093631]}},{"type":"Feature","id":"5132dd76a288f42e6735a92a","properties":{"_id":"5132dd76a288f42e6735a92a","PROVIDER NPI":1831184365,"PROVIDER NAME":"Boyette, Deanna","PROVIDER STATE":"North Carolina","PROVIDER CITY":"Greenville","PROVIDER  ADDRESS":"2573 Stantonsburg Rd Ste B","PROVIDER ZIP 5 CD":27834,"PROVIDER ZIP 4 CD":7213,"PROVIDER PHONE NUM":2522155200,"PROVIDER PHONE EXT":"","PROGRAM YEAR":2011},"geometry":{"type":"Point","coordinates":[-77.416124,35.606037]}},{"type":"Feature","id":"5132dd76a288f42e6735a92b","properties":{"_id":"5132dd76a288f42e6735a92b","PROVIDER NPI":1487667424,"PROVIDER NAME":"Brame, Michael","PROVIDER STATE":"North Carolina","PROVIDER CITY":"Shelby","PROVIDER  ADDRESS":"1001 N Washington St","PROVIDER ZIP 5 CD":28150,"PROVIDER ZIP 4 CD":1800,"PROVIDER PHONE NUM":7044822011,"PROVIDER PHONE EXT":"","PROGRAM YEAR":2011},"geometry":{"type":"Point","coordinates":[-81.53797,35.30378]}},{"type":"Feature","id":"5132dd76a288f42e6735a92c","properties":{"_id":"5132dd76a288f42e6735a92c","PROVIDER NPI":1558465542,"PROVIDER NAME":"Bramlett, Sherry","PROVIDER STATE":"North Carolina","PROVIDER CITY":"Murphy","PROVIDER  ADDRESS":"3000 Hwy 64W, Ste 120","PROVIDER ZIP 5 CD":28906,"PROVIDER ZIP 4 CD":"","PROVIDER PHONE NUM":8288357997,"PROVIDER PHONE EXT":"","PROGRAM YEAR":2011},"geometry":{"type":"Point","coordinates":[-84.065646,35.057086]}},{"type":"Feature","id":"5132dd76a288f42e6735a92d","properties":{"_id":"5132dd76a288f42e6735a92d","PROVIDER NPI":1104810498,"PROVIDER NAME":"Brandspigel, Karl","PROVIDER STATE":"North Carolina","PROVIDER CITY":"Elizabeth City","PROVIDER  ADDRESS":"206 Hastings Ln","PROVIDER ZIP 5 CD":27909,"PROVIDER ZIP 4 CD":3324,"PROVIDER PHONE NUM":2523351083,"PROVIDER PHONE EXT":12,"PROGRAM YEAR":2011},"geometry":{"type":"Point","coordinates":[-76.227709,36.329949]}},{"type":"Feature","id":"5132dd76a288f42e6735a92e","properties":{"_id":"5132dd76a288f42e6735a92e","PROVIDER NPI":1225136104,"PROVIDER NAME":"Brantley, Julian","PROVIDER STATE":"North Carolina","PROVIDER CITY":"Rocky Mount","PROVIDER  ADDRESS":"132 Foy Drive","PROVIDER ZIP 5 CD":27804,"PROVIDER ZIP 4 CD":"","PROVIDER PHONE NUM":2524436622,"PROVIDER PHONE EXT":239,"PROGRAM YEAR":2011},"geometry":{"type":"Point","coordinates":[-77.839366,35.964972]}},{"type":"Feature","id":"5132dd76a288f42e6735a92f","properties":{"_id":"5132dd76a288f42e6735a92f","PROVIDER NPI":1427230291,"PROVIDER NAME":"Braquet, Ray","PROVIDER STATE":"North Carolina","PROVIDER CITY":"Winston Salem","PROVIDER  ADDRESS":"1806 South Hawthorne Road","PROVIDER ZIP 5 CD":27103,"PROVIDER ZIP 4 CD":"","PROVIDER PHONE NUM":3367683632,"PROVIDER PHONE EXT":"","PROGRAM YEAR":2011},"geometry":{"type":"Point","coordinates":[-80.277878,36.09066]}},{"type":"Feature","id":"5132dd76a288f42e6735a930","properties":{"_id":"5132dd76a288f42e6735a930","PROVIDER NPI":1740223866,"PROVIDER NAME":"Braswell, David","PROVIDER STATE":"North Carolina","PROVIDER CITY":"Rocky Mount","PROVIDER  ADDRESS":"819 Tiffany Blvd","PROVIDER ZIP 5 CD":27804,"PROVIDER ZIP 4 CD":1812,"PROVIDER PHONE NUM":2529722020,"PROVIDER PHONE EXT":"","PROGRAM YEAR":2011},"geometry":{"type":"Point","coordinates":[-77.801348,35.976935]}},{"type":"Feature","id":"5132dd76a288f42e6735a931","properties":{"_id":"5132dd76a288f42e6735a931","PROVIDER NPI":1437264736,"PROVIDER NAME":"Brennan, Kevin","PROVIDER STATE":"North Carolina","PROVIDER CITY":"Wilmington","PROVIDER  ADDRESS":"1202 Medical Center Dr","PROVIDER ZIP 5 CD":28401,"PROVIDER ZIP 4 CD":7307,"PROVIDER PHONE NUM":9103413336,"PROVIDER PHONE EXT":"","PROGRAM YEAR":2011},"geometry":{"type":"Point","coordinates":[-77.928867,34.202801]}},{"type":"Feature","id":"5132dd76a288f42e6735a932","properties":{"_id":"5132dd76a288f42e6735a932","PROVIDER NPI":1740395029,"PROVIDER NAME":"Brezinski, Damian","PROVIDER STATE":"North Carolina","PROVIDER CITY":"Wilmington","PROVIDER  ADDRESS":"1202 Medical Center Dr","PROVIDER ZIP 5 CD":28401,"PROVIDER ZIP 4 CD":7307,"PROVIDER PHONE NUM":9103413301,"PROVIDER PHONE EXT":"","PROGRAM YEAR":2011},"geometry":{"type":"Point","coordinates":[-77.928867,34.202801]}},{"type":"Feature","id":"5132dd76a288f42e6735a933","properties":{"_id":"5132dd76a288f42e6735a933","PROVIDER NPI":1710970165,"PROVIDER NAME":"Brigman, Sara","PROVIDER STATE":"North Carolina","PROVIDER CITY":"Wilmington","PROVIDER  ADDRESS":"3901 Oleander Dr","PROVIDER ZIP 5 CD":28403,"PROVIDER ZIP 4 CD":6733,"PROVIDER PHONE NUM":9103952772,"PROVIDER PHONE EXT":3001,"PROGRAM YEAR":2011},"geometry":{"type":"Point","coordinates":[-77.899452,34.213885]}},{"type":"Feature","id":"5132dd76a288f42e6735a934","properties":{"_id":"5132dd76a288f42e6735a934","PROVIDER NPI":1871573121,"PROVIDER NAME":"BRITT, JOHN","PROVIDER STATE":"North Carolina","PROVIDER CITY":"Winston Salem","PROVIDER  ADDRESS":"110 Charlois Blvd","PROVIDER ZIP 5 CD":27103,"PROVIDER ZIP 4 CD":1522,"PROVIDER PHONE NUM":3367683361,"PROVIDER PHONE EXT":"","PROGRAM YEAR":2011},"geometry":{"type":"Point","coordinates":[-80.301325,36.08579]}},{"type":"Feature","id":"5132dd76a288f42e6735a935","properties":{"_id":"5132dd76a288f42e6735a935","PROVIDER NPI":1407948110,"PROVIDER NAME":"Brody, Michael","PROVIDER STATE":"North Carolina","PROVIDER CITY":"Cary","PROVIDER  ADDRESS":"1000 Crescent Green Dr, Suite 102","PROVIDER ZIP 5 CD":27518,"PROVIDER ZIP 4 CD":8117,"PROVIDER PHONE NUM":9198164948,"PROVIDER PHONE EXT":"","PROGRAM YEAR":2011},"geometry":{"type":"Point","coordinates":[-78.777737,35.732929]}},{"type":"Feature","id":"5132dd76a288f42e6735a936","properties":{"_id":"5132dd76a288f42e6735a936","PROVIDER NPI":1104098045,"PROVIDER NAME":"BROOKS, LESLEY","PROVIDER STATE":"North Carolina","PROVIDER CITY":"BURNSVILLE","PROVIDER  ADDRESS":"419 E MAIN ST","PROVIDER ZIP 5 CD":28714,"PROVIDER ZIP 4 CD":3050,"PROVIDER PHONE NUM":8286822104,"PROVIDER PHONE EXT":"","PROGRAM YEAR":2011},"geometry":{"type":"Point","coordinates":[-82.288737,35.916417]}},{"type":"Feature","id":"5132dd76a288f42e6735a937","properties":{"_id":"5132dd76a288f42e6735a937","PROVIDER NPI":1295737203,"PROVIDER NAME":"Brosnan, Rhoda","PROVIDER STATE":"North Carolina","PROVIDER CITY":"Asheville","PROVIDER  ADDRESS":"5 Vanderbilt Park Dr","PROVIDER ZIP 5 CD":28803,"PROVIDER ZIP 4 CD":1700,"PROVIDER PHONE NUM":8282746000,"PROVIDER PHONE EXT":232,"PROGRAM YEAR":2011},"geometry":{"type":"Point","coordinates":[-82.543307,35.564163]}},{"type":"Feature","id":"5132dd76a288f42e6735a938","properties":{"_id":"5132dd76a288f42e6735a938","PROVIDER NPI":1194719104,"PROVIDER NAME":"Browder, David","PROVIDER STATE":"North Carolina","PROVIDER CITY":"Rocky Mount","PROVIDER  ADDRESS":"600 Nash Medical Arts Mall","PROVIDER ZIP 5 CD":27804,"PROVIDER ZIP 4 CD":1410,"PROVIDER PHONE NUM":2524513200,"PROVIDER PHONE EXT":"","PROGRAM YEAR":2011},"geometry":{"type":"Point","coordinates":[-77.804155,35.94189]}},{"type":"Feature","id":"5132dd76a288f42e6735a939","properties":{"_id":"5132dd76a288f42e6735a939","PROVIDER NPI":1932143930,"PROVIDER NAME":"Browder, Lesley","PROVIDER STATE":"North Carolina","PROVIDER CITY":"Rocky Mount","PROVIDER  ADDRESS":"921 N Winstead Ave","PROVIDER ZIP 5 CD":27804,"PROVIDER ZIP 4 CD":8749,"PROVIDER PHONE NUM":2529370300,"PROVIDER PHONE EXT":"","PROGRAM YEAR":2011},"geometry":{"type":"Point","coordinates":[-77.844009,35.97912]}},{"type":"Feature","id":"5132dd76a288f42e6735a93a","properties":{"_id":"5132dd76a288f42e6735a93a","PROVIDER NPI":1760445605,"PROVIDER NAME":"Brown, Erika","PROVIDER STATE":"North Carolina","PROVIDER CITY":"Wallace","PROVIDER  ADDRESS":"104 W Main St","PROVIDER ZIP 5 CD":28466,"PROVIDER ZIP 4 CD":2902,"PROVIDER PHONE NUM":9102855050,"PROVIDER PHONE EXT":"","PROGRAM YEAR":2011},"geometry":{"type":"Point","coordinates":[-77.996299,34.734795]}},{"type":"Feature","id":"5132dd76a288f42e6735a93b","properties":{"_id":"5132dd76a288f42e6735a93b","PROVIDER NPI":1821094350,"PROVIDER NAME":"BROWN, FORREST","PROVIDER STATE":"North Carolina","PROVIDER CITY":"Boone","PROVIDER  ADDRESS":"108 Doctors Dr","PROVIDER ZIP 5 CD":28607,"PROVIDER ZIP 4 CD":5000,"PROVIDER PHONE NUM":8282646362,"PROVIDER PHONE EXT":"","PROGRAM YEAR":2011},"geometry":{"type":"Point","coordinates":[-81.11599,36.508824]}},{"type":"Feature","id":"5132dd76a288f42e6735a93c","properties":{"_id":"5132dd76a288f42e6735a93c","PROVIDER NPI":1306874276,"PROVIDER NAME":"Brown, Michael","PROVIDER STATE":"North Carolina","PROVIDER CITY":"Waynesville","PROVIDER  ADDRESS":"1088 Brown Ave","PROVIDER ZIP 5 CD":28786,"PROVIDER ZIP 4 CD":1918,"PROVIDER PHONE NUM":8284562828,"PROVIDER PHONE EXT":"","PROGRAM YEAR":2011},"geometry":{"type":"Point","coordinates":[-83.002598,35.478435]}},{"type":"Feature","id":"5132dd76a288f42e6735a93d","properties":{"_id":"5132dd76a288f42e6735a93d","PROVIDER NPI":1376658583,"PROVIDER NAME":"Brown, Noel","PROVIDER STATE":"North Carolina","PROVIDER CITY":"Wilmington","PROVIDER  ADDRESS":"2421 Silver Stream Lane","PROVIDER ZIP 5 CD":28401,"PROVIDER ZIP 4 CD":0,"PROVIDER PHONE NUM":9103953477,"PROVIDER PHONE EXT":"","PROGRAM YEAR":2011},"geometry":{"type":"Point","coordinates":[-77.932334,34.196613]}},{"type":"Feature","id":"5132dd76a288f42e6735a93e","properties":{"_id":"5132dd76a288f42e6735a93e","PROVIDER NPI":1205941432,"PROVIDER NAME":"Brown, Philip","PROVIDER STATE":"North Carolina","PROVIDER CITY":"Wilmington","PROVIDER  ADDRESS":"1202 Medical Center Dr","PROVIDER ZIP 5 CD":28401,"PROVIDER ZIP 4 CD":7307,"PROVIDER PHONE NUM":9107636289,"PROVIDER PHONE EXT":"","PROGRAM YEAR":2011},"geometry":{"type":"Point","coordinates":[-77.928867,34.202801]}},{"type":"Feature","id":"5132dd76a288f42e6735a93f","properties":{"_id":"5132dd76a288f42e6735a93f","PROVIDER NPI":1346244977,"PROVIDER NAME":"Bryan, Elizabeth","PROVIDER STATE":"North Carolina","PROVIDER CITY":"Clinton","PROVIDER  ADDRESS":"227 Beaman St","PROVIDER ZIP 5 CD":28328,"PROVIDER ZIP 4 CD":2905,"PROVIDER PHONE NUM":9105928243,"PROVIDER PHONE EXT":"","PROGRAM YEAR":2011},"geometry":{"type":"Point","coordinates":[-78.321086,35.001221]}},{"type":"Feature","id":"5132dd76a288f42e6735a940","properties":{"_id":"5132dd76a288f42e6735a940","PROVIDER NPI":1427039726,"PROVIDER NAME":"Bryan, Herbie","PROVIDER STATE":"North Carolina","PROVIDER CITY":"Albemarle","PROVIDER  ADDRESS":"929 North Second Street, Suite 205","PROVIDER ZIP 5 CD":28001,"PROVIDER ZIP 4 CD":"","PROVIDER PHONE NUM":7049831800,"PROVIDER PHONE EXT":"","PROGRAM YEAR":2011},"geometry":{"type":"Point","coordinates":[-80.196883,35.363246]}},{"type":"Feature","id":"5132dd76a288f42e6735a941","properties":{"_id":"5132dd76a288f42e6735a941","PROVIDER NPI":1396798666,"PROVIDER NAME":"Bryan, James","PROVIDER STATE":"North Carolina","PROVIDER CITY":"Chapel Hill","PROVIDER  ADDRESS":"55 Vilcom Center Dr, Suite 140","PROVIDER ZIP 5 CD":27514,"PROVIDER ZIP 4 CD":1689,"PROVIDER PHONE NUM":9199674836,"PROVIDER PHONE EXT":"","PROGRAM YEAR":2011},"geometry":{"type":"Point","coordinates":[-78.358939,36.123211]}},{"type":"Feature","id":"5132dd76a288f42e6735a942","properties":{"_id":"5132dd76a288f42e6735a942","PROVIDER NPI":1629036835,"PROVIDER NAME":"Bryant, Eric","PROVIDER STATE":"North Carolina","PROVIDER CITY":"Leland","PROVIDER  ADDRESS":"1031 Grandiflora Dr","PROVIDER ZIP 5 CD":28451,"PROVIDER ZIP 4 CD":7453,"PROVIDER PHONE NUM":9103710540,"PROVIDER PHONE EXT":"","PROGRAM YEAR":2011},"geometry":{"type":"Point","coordinates":[-78.031981,34.211987]}},{"type":"Feature","id":"5132dd76a288f42e6735a943","properties":{"_id":"5132dd76a288f42e6735a943","PROVIDER NPI":1386864288,"PROVIDER NAME":"BRYSON, PAUL","PROVIDER STATE":"North Carolina","PROVIDER CITY":"Chapel Hill","PROVIDER  ADDRESS":"101 Manning Dr, RM 1107G W WING","PROVIDER ZIP 5 CD":27514,"PROVIDER ZIP 4 CD":4220,"PROVIDER PHONE NUM":2166367376,"PROVIDER PHONE EXT":"","PROGRAM YEAR":2011},"geometry":{"type":"Point","coordinates":[-79.044342,35.903692]}},{"type":"Feature","id":"5132dd76a288f42e6735a944","properties":{"_id":"5132dd76a288f42e6735a944","PROVIDER NPI":1861573107,"PROVIDER NAME":"Buccini, Robert","PROVIDER STATE":"North Carolina","PROVIDER CITY":"Greensboro","PROVIDER  ADDRESS":"1002 N Church St, Suite 201","PROVIDER ZIP 5 CD":27401,"PROVIDER ZIP 4 CD":1440,"PROVIDER PHONE NUM":3363780713,"PROVIDER PHONE EXT":"","PROGRAM YEAR":2011},"geometry":{"type":"Point","coordinates":[-79.786979,36.070034]}},{"type":"Feature","id":"5132dd76a288f42e6735a945","properties":{"_id":"5132dd76a288f42e6735a945","PROVIDER NPI":1639135692,"PROVIDER NAME":"Buchanan, Robert","PROVIDER STATE":"North Carolina","PROVIDER CITY":"Highlands","PROVIDER  ADDRESS":"209 Hospital Dr, Suite 202","PROVIDER ZIP 5 CD":28741,"PROVIDER ZIP 4 CD":7623,"PROVIDER PHONE NUM":8285263783,"PROVIDER PHONE EXT":"","PROGRAM YEAR":2011},"geometry":{"type":"Point","coordinates":[-83.185501,35.08641]}},{"type":"Feature","id":"5132dd76a288f42e6735a946","properties":{"_id":"5132dd76a288f42e6735a946","PROVIDER NPI":1811957822,"PROVIDER NAME":"Buchanan, Robert","PROVIDER STATE":"North Carolina","PROVIDER CITY":"Durham","PROVIDER  ADDRESS":"5213 S. Alston Ave, 3E-344","PROVIDER ZIP 5 CD":27713,"PROVIDER ZIP 4 CD":4430,"PROVIDER PHONE NUM":9196205297,"PROVIDER PHONE EXT":"","PROGRAM YEAR":2011},"geometry":{"type":"Point","coordinates":[-78.884917,35.888056]}},{"type":"Feature","id":"5132dd76a288f42e6735a947","properties":{"_id":"5132dd76a288f42e6735a947","PROVIDER NPI":1396706115,"PROVIDER NAME":"Buchele, Barry","PROVIDER STATE":"North Carolina","PROVIDER CITY":"Southern Pines","PROVIDER  ADDRESS":"145 Applecross Rd, Southern Pines Womens Health Center PC","PROVIDER ZIP 5 CD":28387,"PROVIDER ZIP 4 CD":"","PROVIDER PHONE NUM":9106927928,"PROVIDER PHONE EXT":173,"PROGRAM YEAR":2011},"geometry":{"type":"Point","coordinates":[-79.422693,35.169805]}},{"type":"Feature","id":"5132dd76a288f42e6735a948","properties":{"_id":"5132dd76a288f42e6735a948","PROVIDER NPI":1619126307,"PROVIDER NAME":"BUDAHN, MICHAEL","PROVIDER STATE":"North Carolina","PROVIDER CITY":"Greensboro","PROVIDER  ADDRESS":"3702 High Point Rd","PROVIDER ZIP 5 CD":27407,"PROVIDER ZIP 4 CD":4628,"PROVIDER PHONE NUM":3368542020,"PROVIDER PHONE EXT":"","PROGRAM YEAR":2011},"geometry":{"type":"Point","coordinates":[-79.850013,36.039801]}},{"type":"Feature","id":"5132dd76a288f42e6735a949","properties":{"_id":"5132dd76a288f42e6735a949","PROVIDER NPI":1285680066,"PROVIDER NAME":"BUENTING, JOHN","PROVIDER STATE":"North Carolina","PROVIDER CITY":"Sylva","PROVIDER  ADDRESS":"40 Mitchell Rd","PROVIDER ZIP 5 CD":28779,"PROVIDER ZIP 4 CD":2616,"PROVIDER PHONE NUM":8285867474,"PROVIDER PHONE EXT":"","PROGRAM YEAR":2011},"geometry":{"type":"Point","coordinates":[-83.206973,35.389803]}},{"type":"Feature","id":"5132dd76a288f42e6735a94a","properties":{"_id":"5132dd76a288f42e6735a94a","PROVIDER NPI":1578668711,"PROVIDER NAME":"Bujold, Edward","PROVIDER STATE":"North Carolina","PROVIDER CITY":"Granite Falls","PROVIDER  ADDRESS":"4132 Hickory Blvd","PROVIDER ZIP 5 CD":28630,"PROVIDER ZIP 4 CD":965,"PROVIDER PHONE NUM":8283964028,"PROVIDER PHONE EXT":"","PROGRAM YEAR":2011},"geometry":{"type":"Point","coordinates":[-81.429155,35.807525]}},{"type":"Feature","id":"5132dd76a288f42e6735a94b","properties":{"_id":"5132dd76a288f42e6735a94b","PROVIDER NPI":1477651925,"PROVIDER NAME":"Bukhari, Mushtaq","PROVIDER STATE":"North Carolina","PROVIDER CITY":"Morganton","PROVIDER  ADDRESS":"107B Mica Ave","PROVIDER ZIP 5 CD":28655,"PROVIDER ZIP 4 CD":8135,"PROVIDER PHONE NUM":8284377702,"PROVIDER PHONE EXT":"","PROGRAM YEAR":2011},"geometry":{"type":"Point","coordinates":[-81.663236,35.719177]}},{"type":"Feature","id":"5132dd76a288f42e6735a94c","properties":{"_id":"5132dd76a288f42e6735a94c","PROVIDER NPI":1578590360,"PROVIDER NAME":"Bumgarner, Lorance","PROVIDER STATE":"North Carolina","PROVIDER CITY":"Pinehurst","PROVIDER  ADDRESS":"160 Fox Hollow, Spectrum Family Eye Center Suite 100","PROVIDER ZIP 5 CD":28374,"PROVIDER ZIP 4 CD":"","PROVIDER PHONE NUM":9106923937,"PROVIDER PHONE EXT":"","PROGRAM YEAR":2011},"geometry":{"type":"Point","coordinates":[-79.436969,35.178479]}},{"type":"Feature","id":"5132dd76a288f42e6735a94d","properties":{"_id":"5132dd76a288f42e6735a94d","PROVIDER NPI":1407840440,"PROVIDER NAME":"Bunting, Douglas","PROVIDER STATE":"North Carolina","PROVIDER CITY":"Rocky Mount","PROVIDER  ADDRESS":"901 N Winstead Ave","PROVIDER ZIP 5 CD":27804,"PROVIDER ZIP 4 CD":8467,"PROVIDER PHONE NUM":2529370200,"PROVIDER PHONE EXT":"","PROGRAM YEAR":2011},"geometry":{"type":"Point","coordinates":[-77.844505,35.978758]}},{"type":"Feature","id":"5132dd76a288f42e6735a94e","properties":{"_id":"5132dd76a288f42e6735a94e","PROVIDER NPI":1457533473,"PROVIDER NAME":"Burgess, Roxanne","PROVIDER STATE":"North Carolina","PROVIDER CITY":"CHARLOTTE","PROVIDER  ADDRESS":"11030 S TRYON ST, STE 308","PROVIDER ZIP 5 CD":28273,"PROVIDER ZIP 4 CD":6545,"PROVIDER PHONE NUM":7045041004,"PROVIDER PHONE EXT":"","PROGRAM YEAR":2011},"geometry":{"type":"Point","coordinates":[-80.959215,35.116584]}},{"type":"Feature","id":"5132dd76a288f42e6735a94f","properties":{"_id":"5132dd76a288f42e6735a94f","PROVIDER NPI":1679575880,"PROVIDER NAME":"Burkart, Thomas","PROVIDER STATE":"North Carolina","PROVIDER CITY":"New Bern","PROVIDER  ADDRESS":"970 Newman Rd","PROVIDER ZIP 5 CD":28562,"PROVIDER ZIP 4 CD":5200,"PROVIDER PHONE NUM":2526339262,"PROVIDER PHONE EXT":"","PROGRAM YEAR":2011},"geometry":{"type":"Point","coordinates":[-77.093518,35.108215]}},{"type":"Feature","id":"5132dd76a288f42e6735a950","properties":{"_id":"5132dd76a288f42e6735a950","PROVIDER NPI":1881709061,"PROVIDER NAME":"Burkett, Jessica","PROVIDER STATE":"North Carolina","PROVIDER CITY":"Wilmington","PROVIDER  ADDRESS":"1202 Medical Center Dr","PROVIDER ZIP 5 CD":28401,"PROVIDER ZIP 4 CD":7307,"PROVIDER PHONE NUM":9107726290,"PROVIDER PHONE EXT":"","PROGRAM YEAR":2011},"geometry":{"type":"Point","coordinates":[-77.928867,34.202801]}},{"type":"Feature","id":"5132dd76a288f42e6735a951","properties":{"_id":"5132dd76a288f42e6735a951","PROVIDER NPI":1083798904,"PROVIDER NAME":"Burnett, Brent","PROVIDER STATE":"North Carolina","PROVIDER CITY":"Summerfield","PROVIDER  ADDRESS":"4431 Hwy 220 N","PROVIDER ZIP 5 CD":27358,"PROVIDER ZIP 4 CD":"","PROVIDER PHONE NUM":3366437711,"PROVIDER PHONE EXT":"","PROGRAM YEAR":2011},"geometry":{"type":"Point","coordinates":[-79.888014,36.183163]}},{"type":"Feature","id":"5132dd76a288f42e6735a952","properties":{"_id":"5132dd76a288f42e6735a952","PROVIDER NPI":1760438972,"PROVIDER NAME":"BURNETT, JOHN","PROVIDER STATE":"North Carolina","PROVIDER CITY":"New Bern","PROVIDER  ADDRESS":"1040 Medical Park Ave","PROVIDER ZIP 5 CD":28562,"PROVIDER ZIP 4 CD":5248,"PROVIDER PHONE NUM":2526331678,"PROVIDER PHONE EXT":"","PROGRAM YEAR":2011},"geometry":{"type":"Point","coordinates":[-77.081097,35.092632]}},{"type":"Feature","id":"5132dd76a288f42e6735a953","properties":{"_id":"5132dd76a288f42e6735a953","PROVIDER NPI":1710908546,"PROVIDER NAME":"Burns, Kevin","PROVIDER STATE":"North Carolina","PROVIDER CITY":"High Point","PROVIDER  ADDRESS":"810 Lindsay St","PROVIDER ZIP 5 CD":27262,"PROVIDER ZIP 4 CD":"","PROVIDER PHONE NUM":3368022060,"PROVIDER PHONE EXT":"","PROGRAM YEAR":2011},"geometry":{"type":"Point","coordinates":[-80.015293,35.963693]}},{"type":"Feature","id":"5132dd76a288f42e6735a954","properties":{"_id":"5132dd76a288f42e6735a954","PROVIDER NPI":1699736967,"PROVIDER NAME":"Burris, Richard","PROVIDER STATE":"North Carolina","PROVIDER CITY":"Asheville","PROVIDER  ADDRESS":"206 Asheland Ave","PROVIDER ZIP 5 CD":28801,"PROVIDER ZIP 4 CD":4016,"PROVIDER PHONE NUM":8282103709,"PROVIDER PHONE EXT":"","PROGRAM YEAR":2011},"geometry":{"type":"Point","coordinates":[-82.556386,35.589129]}},{"type":"Feature","id":"5132dd76a288f42e6735a955","properties":{"_id":"5132dd76a288f42e6735a955","PROVIDER NPI":1083693980,"PROVIDER NAME":"burton, michael","PROVIDER STATE":"North Carolina","PROVIDER CITY":"Hickory","PROVIDER  ADDRESS":"24 2nd Ave NE","PROVIDER ZIP 5 CD":28601,"PROVIDER ZIP 4 CD":5045,"PROVIDER PHONE NUM":8283282231,"PROVIDER PHONE EXT":331,"PROGRAM YEAR":2011},"geometry":{"type":"Point","coordinates":[-81.337646,35.734252]}},{"type":"Feature","id":"5132dd76a288f42e6735a956","properties":{"_id":"5132dd76a288f42e6735a956","PROVIDER NPI":1922016773,"PROVIDER NAME":"Buser, Steven","PROVIDER STATE":"North Carolina","PROVIDER CITY":"Asheville","PROVIDER  ADDRESS":"932 Hendersonville Rd, Suite 101","PROVIDER ZIP 5 CD":28803,"PROVIDER ZIP 4 CD":"","PROVIDER PHONE NUM":8282741415,"PROVIDER PHONE EXT":116,"PROGRAM YEAR":2011},"geometry":{"type":"Point","coordinates":[-82.486126,35.550435]}},{"type":"Feature","id":"5132dd76a288f42e6735a957","properties":{"_id":"5132dd76a288f42e6735a957","PROVIDER NPI":1891853594,"PROVIDER NAME":"Bush, Andrew","PROVIDER STATE":"North Carolina","PROVIDER CITY":"Sanford","PROVIDER  ADDRESS":"1139 Carthage Street, Suite 101","PROVIDER ZIP 5 CD":27330,"PROVIDER ZIP 4 CD":"","PROVIDER PHONE NUM":9197741355,"PROVIDER PHONE EXT":"","PROGRAM YEAR":2011},"geometry":{"type":"Point","coordinates":[-79.188649,35.469234]}},{"type":"Feature","id":"5132dd76a288f42e6735a958","properties":{"_id":"5132dd76a288f42e6735a958","PROVIDER NPI":1215982475,"PROVIDER NAME":"Butler, Brad","PROVIDER STATE":"North Carolina","PROVIDER CITY":"Angier","PROVIDER  ADDRESS":"185 Rawls Rd","PROVIDER ZIP 5 CD":27501,"PROVIDER ZIP 4 CD":"","PROVIDER PHONE NUM":9193312477,"PROVIDER PHONE EXT":"","PROGRAM YEAR":2011},"geometry":{"type":"Point","coordinates":[-78.729411,35.478164]}},{"type":"Feature","id":"5132dd76a288f42e6735a959","properties":{"_id":"5132dd76a288f42e6735a959","PROVIDER NPI":1841364551,"PROVIDER NAME":"Buzzanell, Charles","PROVIDER STATE":"North Carolina","PROVIDER CITY":"Asheville","PROVIDER  ADDRESS":"172 Asheland Ave, Suite C","PROVIDER ZIP 5 CD":28801,"PROVIDER ZIP 4 CD":4005,"PROVIDER PHONE NUM":8283509310,"PROVIDER PHONE EXT":"","PROGRAM YEAR":2011},"geometry":{"type":"Point","coordinates":[-82.556404,35.589691]}},{"type":"Feature","id":"5132dd76a288f42e6735a95a","properties":{"_id":"5132dd76a288f42e6735a95a","PROVIDER NPI":1407805823,"PROVIDER NAME":"Buzzeo, Brian","PROVIDER STATE":"North Carolina","PROVIDER CITY":"Gastonia","PROVIDER  ADDRESS":"631 Cox Rd","PROVIDER ZIP 5 CD":28054,"PROVIDER ZIP 4 CD":3438,"PROVIDER PHONE NUM":7048647764,"PROVIDER PHONE EXT":"","PROGRAM YEAR":2011},"geometry":{"type":"Point","coordinates":[-81.134125,35.268712]}},{"type":"Feature","id":"5132dd76a288f42e6735a95b","properties":{"_id":"5132dd76a288f42e6735a95b","PROVIDER NPI":1336124833,"PROVIDER NAME":"BYRD, ALAN","PROVIDER STATE":"North Carolina","PROVIDER CITY":"Lillington","PROVIDER  ADDRESS":"104 South Main Street","PROVIDER ZIP 5 CD":27546,"PROVIDER ZIP 4 CD":8968,"PROVIDER PHONE NUM":9196392020,"PROVIDER PHONE EXT":"","PROGRAM YEAR":2011},"geometry":{"type":"Point","coordinates":[-78.813614,35.406441]}},{"type":"Feature","id":"5132dd76a288f42e6735a95c","properties":{"_id":"5132dd76a288f42e6735a95c","PROVIDER NPI":1467455295,"PROVIDER NAME":"BYRNETT, JEFFREY","PROVIDER STATE":"North Carolina","PROVIDER CITY":"Burlington","PROVIDER  ADDRESS":"1041 Kirkpatrick Rd, Ste 150","PROVIDER ZIP 5 CD":27215,"PROVIDER ZIP 4 CD":8068,"PROVIDER PHONE NUM":3365381888,"PROVIDER PHONE EXT":"","PROGRAM YEAR":2011},"geometry":{"type":"Point","coordinates":[-79.497183,36.062052]}},{"type":"Feature","id":"5132dd76a288f42e6735a95d","properties":{"_id":"5132dd76a288f42e6735a95d","PROVIDER NPI":1992769806,"PROVIDER NAME":"Byron, John","PROVIDER STATE":"North Carolina","PROVIDER CITY":"Southern Pines","PROVIDER  ADDRESS":"145 Applecross Rd, Southern Pines Womens Health Center PC","PROVIDER ZIP 5 CD":28387,"PROVIDER ZIP 4 CD":"","PROVIDER PHONE NUM":9106927928,"PROVIDER PHONE EXT":"","PROGRAM YEAR":2011},"geometry":{"type":"Point","coordinates":[-79.422693,35.169805]}},{"type":"Feature","id":"5132dd76a288f42e6735a95e","properties":{"_id":"5132dd76a288f42e6735a95e","PROVIDER NPI":1174525315,"PROVIDER NAME":"Byrum, Graham","PROVIDER STATE":"North Carolina","PROVIDER CITY":"Greenville","PROVIDER  ADDRESS":"511 Paladin Dr","PROVIDER ZIP 5 CD":27834,"PROVIDER ZIP 4 CD":7826,"PROVIDER PHONE NUM":2527528880,"PROVIDER PHONE EXT":"","PROGRAM YEAR":2011},"geometry":{"type":"Point","coordinates":[-77.411615,35.619781]}},{"type":"Feature","id":"5132dd76a288f42e6735a95f","properties":{"_id":"5132dd76a288f42e6735a95f","PROVIDER NPI":1861447252,"PROVIDER NAME":"Caberwal, Daljit","PROVIDER STATE":"North Carolina","PROVIDER CITY":"Asheboro","PROVIDER  ADDRESS":"283 White Oak St","PROVIDER ZIP 5 CD":27203,"PROVIDER ZIP 4 CD":5431,"PROVIDER PHONE NUM":3366253997,"PROVIDER PHONE EXT":"","PROGRAM YEAR":2011},"geometry":{"type":"Point","coordinates":[-79.815626,35.710075]}},{"type":"Feature","id":"5132dd76a288f42e6735a960","properties":{"_id":"5132dd76a288f42e6735a960","PROVIDER NPI":1558484931,"PROVIDER NAME":"CABEZA, YURI","PROVIDER STATE":"North Carolina","PROVIDER CITY":"High Point","PROVIDER  ADDRESS":"4515 Premier Drive, Suite 204","PROVIDER ZIP 5 CD":27265,"PROVIDER ZIP 4 CD":"","PROVIDER PHONE NUM":3368022075,"PROVIDER PHONE EXT":"","PROGRAM YEAR":2011},"geometry":{"type":"Point","coordinates":[-79.95667,36.039459]}},{"type":"Feature","id":"5132dd76a288f42e6735a961","properties":{"_id":"5132dd76a288f42e6735a961","PROVIDER NPI":1407031420,"PROVIDER NAME":"Cabral, David","PROVIDER STATE":"North Carolina","PROVIDER CITY":"Conover","PROVIDER  ADDRESS":"3251 Graystone Pl. SE, Suite 109","PROVIDER ZIP 5 CD":28613,"PROVIDER ZIP 4 CD":8201,"PROVIDER PHONE NUM":8283240100,"PROVIDER PHONE EXT":"","PROGRAM YEAR":2011},"geometry":{"type":"Point","coordinates":[-81.180994,35.766508]}},{"type":"Feature","id":"5132dd76a288f42e6735a962","properties":{"_id":"5132dd76a288f42e6735a962","PROVIDER NPI":1841234523,"PROVIDER NAME":"Cabungcal, Catherine","PROVIDER STATE":"North Carolina","PROVIDER CITY":"Kinston","PROVIDER  ADDRESS":"744 Airport Rd","PROVIDER ZIP 5 CD":28504,"PROVIDER ZIP 4 CD":8800,"PROVIDER PHONE NUM":2525230026,"PROVIDER PHONE EXT":"","PROGRAM YEAR":2011},"geometry":{"type":"Point","coordinates":[-77.589241,35.301966]}},{"type":"Feature","id":"5132dd76a288f42e6735a963","properties":{"_id":"5132dd76a288f42e6735a963","PROVIDER NPI":1790777902,"PROVIDER NAME":"Caffrey, Brian","PROVIDER STATE":"North Carolina","PROVIDER CITY":"Clyde","PROVIDER  ADDRESS":"6750 Carolina Blvd","PROVIDER ZIP 5 CD":28721,"PROVIDER ZIP 4 CD":7052,"PROVIDER PHONE NUM":8286272211,"PROVIDER PHONE EXT":"","PROGRAM YEAR":2011},"geometry":{"type":"Point","coordinates":[-82.882596,35.530934]}},{"type":"Feature","id":"5132dd76a288f42e6735a964","properties":{"_id":"5132dd76a288f42e6735a964","PROVIDER NPI":1770672560,"PROVIDER NAME":"Cailing, Milagros","PROVIDER STATE":"North Carolina","PROVIDER CITY":"Jacksonville","PROVIDER  ADDRESS":"3652 Henderson Dr","PROVIDER ZIP 5 CD":28546,"PROVIDER ZIP 4 CD":5217,"PROVIDER PHONE NUM":9104559398,"PROVIDER PHONE EXT":"","PROGRAM YEAR":2011},"geometry":{"type":"Point","coordinates":[-77.416097,34.792729]}},{"type":"Feature","id":"5132dd76a288f42e6735a965","properties":{"_id":"5132dd76a288f42e6735a965","PROVIDER NPI":1023076148,"PROVIDER NAME":"Calfee, Jennifer","PROVIDER STATE":"North Carolina","PROVIDER CITY":"Washington","PROVIDER  ADDRESS":"1204 Brown St","PROVIDER ZIP 5 CD":27889,"PROVIDER ZIP 4 CD":4671,"PROVIDER PHONE NUM":2529466544,"PROVIDER PHONE EXT":224,"PROGRAM YEAR":2011},"geometry":{"type":"Point","coordinates":[-77.040416,35.549351]}},{"type":"Feature","id":"5132dd76a288f42e6735a966","properties":{"_id":"5132dd76a288f42e6735a966","PROVIDER NPI":1932417318,"PROVIDER NAME":"Call, Becky","PROVIDER STATE":"North Carolina","PROVIDER CITY":"Lexington","PROVIDER  ADDRESS":"801 E Center St","PROVIDER ZIP 5 CD":27292,"PROVIDER ZIP 4 CD":4401,"PROVIDER PHONE NUM":3362498901,"PROVIDER PHONE EXT":"","PROGRAM YEAR":2011},"geometry":{"type":"Point","coordinates":[-80.246521,35.814439]}},{"type":"Feature","id":"5132dd76a288f42e6735a967","properties":{"_id":"5132dd76a288f42e6735a967","PROVIDER NPI":1093790107,"PROVIDER NAME":"CAMERON, JOHN","PROVIDER STATE":"North Carolina","PROVIDER CITY":"Asheboro","PROVIDER  ADDRESS":"550 White Oak St","PROVIDER ZIP 5 CD":27203,"PROVIDER ZIP 4 CD":4710,"PROVIDER PHONE NUM":3366251360,"PROVIDER PHONE EXT":"","PROGRAM YEAR":2011},"geometry":{"type":"Point","coordinates":[-79.814563,35.713753]}},{"type":"Feature","id":"5132dd76a288f42e6735a968","properties":{"_id":"5132dd76a288f42e6735a968","PROVIDER NPI":1528048949,"PROVIDER NAME":"Campbell, Gregory","PROVIDER STATE":"North Carolina","PROVIDER CITY":"Asheville","PROVIDER  ADDRESS":"30 Choctaw St","PROVIDER ZIP 5 CD":28801,"PROVIDER ZIP 4 CD":4513,"PROVIDER PHONE NUM":8282557733,"PROVIDER PHONE EXT":"","PROGRAM YEAR":2011},"geometry":{"type":"Point","coordinates":[-82.553454,35.581884]}},{"type":"Feature","id":"5132dd76a288f42e6735a969","properties":{"_id":"5132dd76a288f42e6735a969","PROVIDER NPI":1609870500,"PROVIDER NAME":"Canner, Stephen","PROVIDER STATE":"North Carolina","PROVIDER CITY":"Mars Hill","PROVIDER  ADDRESS":"342 Carl Eller Rd","PROVIDER ZIP 5 CD":28754,"PROVIDER ZIP 4 CD":6000,"PROVIDER PHONE NUM":8286893777,"PROVIDER PHONE EXT":"","PROGRAM YEAR":2011},"geometry":{"type":"Point","coordinates":[-82.546193,35.825179]}},{"type":"Feature","id":"5132dd76a288f42e6735a96a","properties":{"_id":"5132dd76a288f42e6735a96a","PROVIDER NPI":1831121029,"PROVIDER NAME":"Cannon, Shelli","PROVIDER STATE":"North Carolina","PROVIDER CITY":"Asheville","PROVIDER  ADDRESS":"333 Gashes Creek Rd","PROVIDER ZIP 5 CD":28803,"PROVIDER ZIP 4 CD":9405,"PROVIDER PHONE NUM":8282980333,"PROVIDER PHONE EXT":"","PROGRAM YEAR":2011},"geometry":{"type":"Point","coordinates":[-82.495663,35.564835]}},{"type":"Feature","id":"5132dd76a288f42e6735a96b","properties":{"_id":"5132dd76a288f42e6735a96b","PROVIDER NPI":1407969694,"PROVIDER NAME":"CAPOROSSI, LISA","PROVIDER STATE":"North Carolina","PROVIDER CITY":"Hickory","PROVIDER  ADDRESS":"212 29th Ave NE","PROVIDER ZIP 5 CD":28601,"PROVIDER ZIP 4 CD":1130,"PROVIDER PHONE NUM":8284852762,"PROVIDER PHONE EXT":"","PROGRAM YEAR":2011},"geometry":{"type":"Point","coordinates":[-81.32647,35.770694]}},{"type":"Feature","id":"5132dd76a288f42e6735a96c","properties":{"_id":"5132dd76a288f42e6735a96c","PROVIDER NPI":1851314652,"PROVIDER NAME":"CAPPS, MICHAEL","PROVIDER STATE":"North Carolina","PROVIDER CITY":"Cary","PROVIDER  ADDRESS":"224 High House Rd, Suite 100","PROVIDER ZIP 5 CD":27513,"PROVIDER ZIP 4 CD":4278,"PROVIDER PHONE NUM":9193807531,"PROVIDER PHONE EXT":"","PROGRAM YEAR":2011},"geometry":{"type":"Point","coordinates":[-78.83292,35.766556]}},{"type":"Feature","id":"5132dd76a288f42e6735a96d","properties":{"_id":"5132dd76a288f42e6735a96d","PROVIDER NPI":1790767382,"PROVIDER NAME":"Carbone, Dominick","PROVIDER STATE":"North Carolina","PROVIDER CITY":"Elkin","PROVIDER  ADDRESS":"200 Johnson Ridge Medical Park","PROVIDER ZIP 5 CD":28621,"PROVIDER ZIP 4 CD":2445,"PROVIDER PHONE NUM":3365260040,"PROVIDER PHONE EXT":"","PROGRAM YEAR":2011},"geometry":{"type":"Point","coordinates":[-80.836919,36.26665]}},{"type":"Feature","id":"5132dd76a288f42e6735a96e","properties":{"_id":"5132dd76a288f42e6735a96e","PROVIDER NPI":1316941206,"PROVIDER NAME":"CARLSON, ERIC","PROVIDER STATE":"North Carolina","PROVIDER CITY":"Greenville","PROVIDER  ADDRESS":"2090 W Arlington Blvd, Ste B","PROVIDER ZIP 5 CD":27834,"PROVIDER ZIP 4 CD":5727,"PROVIDER PHONE NUM":2527573333,"PROVIDER PHONE EXT":"","PROGRAM YEAR":2011},"geometry":{"type":"Point","coordinates":[-77.382027,35.660601]}},{"type":"Feature","id":"5132dd76a288f42e6735a96f","properties":{"_id":"5132dd76a288f42e6735a96f","PROVIDER NPI":1669455382,"PROVIDER NAME":"CARLSON, SARAH","PROVIDER STATE":"North Carolina","PROVIDER CITY":"DAVIDSON","PROVIDER  ADDRESS":"104 KNOX COURT, SUITE 100","PROVIDER ZIP 5 CD":28036,"PROVIDER ZIP 4 CD":"","PROVIDER PHONE NUM":7048925454,"PROVIDER PHONE EXT":"","PROGRAM YEAR":2011},"geometry":{"type":"Point","coordinates":[-80.883934,35.481808]}},{"type":"Feature","id":"5132dd76a288f42e6735a970","properties":{"_id":"5132dd76a288f42e6735a970","PROVIDER NPI":1528035722,"PROVIDER NAME":"Carruth, Marc","PROVIDER STATE":"North Carolina","PROVIDER CITY":"Charlotte","PROVIDER  ADDRESS":"2615 E 7th St","PROVIDER ZIP 5 CD":28204,"PROVIDER ZIP 4 CD":4376,"PROVIDER PHONE NUM":7042950000,"PROVIDER PHONE EXT":"","PROGRAM YEAR":2011},"geometry":{"type":"Point","coordinates":[-80.811255,35.206647]}},{"type":"Feature","id":"5132dd76a288f42e6735a971","properties":{"_id":"5132dd76a288f42e6735a971","PROVIDER NPI":1003811480,"PROVIDER NAME":"Carter, Lawrence","PROVIDER STATE":"North Carolina","PROVIDER CITY":"Hickory","PROVIDER  ADDRESS":"21 18th Ave NW","PROVIDER ZIP 5 CD":28601,"PROVIDER ZIP 4 CD":1822,"PROVIDER PHONE NUM":8282672246,"PROVIDER PHONE EXT":"","PROGRAM YEAR":2011},"geometry":{"type":"Point","coordinates":[-81.336682,35.75585]}},{"type":"Feature","id":"5132dd76a288f42e6735a972","properties":{"_id":"5132dd76a288f42e6735a972","PROVIDER NPI":1245448125,"PROVIDER NAME":"Case, Ashley","PROVIDER STATE":"North Carolina","PROVIDER CITY":"Asheville","PROVIDER  ADDRESS":"100 Ridgefield Ct","PROVIDER ZIP 5 CD":28806,"PROVIDER ZIP 4 CD":2270,"PROVIDER PHONE NUM":8286708403,"PROVIDER PHONE EXT":"","PROGRAM YEAR":2011},"geometry":{"type":"Point","coordinates":[-82.600252,35.524805]}},{"type":"Feature","id":"5132dd76a288f42e6735a973","properties":{"_id":"5132dd76a288f42e6735a973","PROVIDER NPI":1700808870,"PROVIDER NAME":"Case, Cari","PROVIDER STATE":"North Carolina","PROVIDER CITY":"Apex","PROVIDER  ADDRESS":"207 W Chatham St","PROVIDER ZIP 5 CD":27502,"PROVIDER ZIP 4 CD":1895,"PROVIDER PHONE NUM":9193630041,"PROVIDER PHONE EXT":"","PROGRAM YEAR":2011},"geometry":{"type":"Point","coordinates":[-78.85206,35.730848]}},{"type":"Feature","id":"5132dd76a288f42e6735a974","properties":{"_id":"5132dd76a288f42e6735a974","PROVIDER NPI":1932103439,"PROVIDER NAME":"Casper, Jamie","PROVIDER STATE":"North Carolina","PROVIDER CITY":"Wilmington","PROVIDER  ADDRESS":"5526 Carolina Beach Rd, Suite B","PROVIDER ZIP 5 CD":28412,"PROVIDER ZIP 4 CD":2606,"PROVIDER PHONE NUM":9104527225,"PROVIDER PHONE EXT":"","PROGRAM YEAR":2011},"geometry":{"type":"Point","coordinates":[-77.89509,34.134484]}},{"type":"Feature","id":"5132dd76a288f42e6735a975","properties":{"_id":"5132dd76a288f42e6735a975","PROVIDER NPI":1376543579,"PROVIDER NAME":"Catino, Gilbert","PROVIDER STATE":"North Carolina","PROVIDER CITY":"Wilmington","PROVIDER  ADDRESS":"1994 S 17th St","PROVIDER ZIP 5 CD":28401,"PROVIDER ZIP 4 CD":6627,"PROVIDER PHONE NUM":9102549292,"PROVIDER PHONE EXT":"","PROGRAM YEAR":2011},"geometry":{"type":"Point","coordinates":[-77.924842,34.208597]}},{"type":"Feature","id":"5132dd76a288f42e6735a976","properties":{"_id":"5132dd76a288f42e6735a976","PROVIDER NPI":1902054042,"PROVIDER NAME":"Cayton, Alvah","PROVIDER STATE":"North Carolina","PROVIDER CITY":"Burlington","PROVIDER  ADDRESS":"2835 S Church St","PROVIDER ZIP 5 CD":27215,"PROVIDER ZIP 4 CD":5105,"PROVIDER PHONE NUM":3365840505,"PROVIDER PHONE EXT":"","PROGRAM YEAR":2011},"geometry":{"type":"Point","coordinates":[-79.491714,36.080633]}},{"type":"Feature","id":"5132dd76a288f42e6735a977","properties":{"_id":"5132dd76a288f42e6735a977","PROVIDER NPI":1992819676,"PROVIDER NAME":"Chaksupa, Dan","PROVIDER STATE":"North Carolina","PROVIDER CITY":"Raleigh","PROVIDER  ADDRESS":"3521 Haworth Dr","PROVIDER ZIP 5 CD":27609,"PROVIDER ZIP 4 CD":7244,"PROVIDER PHONE NUM":9197821669,"PROVIDER PHONE EXT":"","PROGRAM YEAR":2011},"geometry":{"type":"Point","coordinates":[-78.633884,35.829503]}},{"type":"Feature","id":"5132dd76a288f42e6735a978","properties":{"_id":"5132dd76a288f42e6735a978","PROVIDER NPI":1053305722,"PROVIDER NAME":"Chamberlain, Matthew","PROVIDER STATE":"North Carolina","PROVIDER CITY":"Rocky Mount","PROVIDER  ADDRESS":"600 Nash Medical Arts Mall","PROVIDER ZIP 5 CD":27804,"PROVIDER ZIP 4 CD":1410,"PROVIDER PHONE NUM":2524513200,"PROVIDER PHONE EXT":"","PROGRAM YEAR":2011},"geometry":{"type":"Point","coordinates":[-77.804155,35.94189]}},{"type":"Feature","id":"5132dd76a288f42e6735a979","properties":{"_id":"5132dd76a288f42e6735a979","PROVIDER NPI":1790706224,"PROVIDER NAME":"CHAMBERS, DANA","PROVIDER STATE":"North Carolina","PROVIDER CITY":"Hickory","PROVIDER  ADDRESS":"212 29th Ave NE","PROVIDER ZIP 5 CD":28601,"PROVIDER ZIP 4 CD":1130,"PROVIDER PHONE NUM":8284852762,"PROVIDER PHONE EXT":"","PROGRAM YEAR":2011},"geometry":{"type":"Point","coordinates":[-81.32647,35.770694]}},