[{"type":"Feature","id":"5132dd62a288f42e6734dc27","properties":{"_id":"5132dd62a288f42e6734dc27","PROVIDER NPI":1821077462,"PROVIDER NAME":"Abbrescia, Vincent","PROVIDER STATE":"Delaware","PROVIDER CITY":"Dover","PROVIDER  ADDRESS":"200 Banning Street, Suite 340","PROVIDER ZIP 5 CD":19904,"PROVIDER ZIP 4 CD":"","PROVIDER PHONE NUM":3027341414,"PROVIDER PHONE EXT":"","PROGRAM YEAR":2011},"geometry":{"type":"Point","coordinates":[-75.561837,39.168393]}},{"type":"Feature","id":"5132dd62a288f42e6734dc28","properties":{"_id":"5132dd62a288f42e6734dc28","PROVIDER NPI":1225063829,"PROVIDER NAME":"Abrams, Jerome","PROVIDER STATE":"Delaware","PROVIDER CITY":"Dover","PROVIDER  ADDRESS":"1342 S Governors Ave","PROVIDER ZIP 5 CD":19904,"PROVIDER ZIP 4 CD":4804,"PROVIDER PHONE NUM":3027347796,"PROVIDER PHONE EXT":"","PROGRAM YEAR":2011},"geometry":{"type":"Point","coordinates":[-75.52997,39.134076]}},{"type":"Feature","id":"5132dd62a288f42e6734dc29","properties":{"_id":"5132dd62a288f42e6734dc29","PROVIDER NPI":1821009770,"PROVIDER NAME":"ADAMS, GREGORY","PROVIDER STATE":"Delaware","PROVIDER CITY":"Newark","PROVIDER  ADDRESS":"2600 Glasgow Ave, SUITE 120","PROVIDER ZIP 5 CD":19702,"PROVIDER ZIP 4 CD":4773,"PROVIDER PHONE NUM":3028368200,"PROVIDER PHONE EXT":368,"PROGRAM YEAR":2011},"geometry":{"type":"Point","coordinates":[-75.742192,39.596316]}},{"type":"Feature","id":"5132dd62a288f42e6734dc2a","properties":{"_id":"5132dd62a288f42e6734dc2a","PROVIDER NPI":1619032752,"PROVIDER NAME":"Alderson, Gina","PROVIDER STATE":"Delaware","PROVIDER CITY":"Seaford","PROVIDER  ADDRESS":"24488 Sussex Highway, Unit 6","PROVIDER ZIP 5 CD":19973,"PROVIDER ZIP 4 CD":8470,"PROVIDER PHONE NUM":3026287730,"PROVIDER PHONE EXT":"","PROGRAM YEAR":2011},"geometry":{"type":"Point","coordinates":[-75.600105,38.634307]}},{"type":"Feature","id":"5132dd62a288f42e6734dc2b","properties":{"_id":"5132dd62a288f42e6734dc2b","PROVIDER NPI":1184604274,"PROVIDER NAME":"Alfieri, Anthony","PROVIDER STATE":"Delaware","PROVIDER CITY":"Newark","PROVIDER  ADDRESS":"G-39 Omega Drive","PROVIDER ZIP 5 CD":19713,"PROVIDER ZIP 4 CD":2059,"PROVIDER PHONE NUM":3027310001,"PROVIDER PHONE EXT":"","PROGRAM YEAR":2011},"geometry":{"type":"Point","coordinates":[-75.675657,39.690939]}},{"type":"Feature","id":"5132dd62a288f42e6734dc2c","properties":{"_id":"5132dd62a288f42e6734dc2c","PROVIDER NPI":1821032327,"PROVIDER NAME":"Alfieri, Paul","PROVIDER STATE":"Delaware","PROVIDER CITY":"Newark","PROVIDER  ADDRESS":"39 Omega Dr, Bldg G","PROVIDER ZIP 5 CD":19713,"PROVIDER ZIP 4 CD":2059,"PROVIDER PHONE NUM":3027310001,"PROVIDER PHONE EXT":"","PROGRAM YEAR":2011},"geometry":{"type":"Point","coordinates":[-75.675572,39.690927]}},{"type":"Feature","id":"5132dd62a288f42e6734dc2d","properties":{"_id":"5132dd62a288f42e6734dc2d","PROVIDER NPI":1942412416,"PROVIDER NAME":"Ali, Hakim","PROVIDER STATE":"Delaware","PROVIDER CITY":"Dover","PROVIDER  ADDRESS":"807 S Bradford St","PROVIDER ZIP 5 CD":19904,"PROVIDER ZIP 4 CD":"","PROVIDER PHONE NUM":3026747152,"PROVIDER PHONE EXT":"","PROGRAM YEAR":2011},"geometry":{"type":"Point","coordinates":[-75.523705,39.149964]}},{"type":"Feature","id":"5132dd62a288f42e6734dc2e","properties":{"_id":"5132dd62a288f42e6734dc2e","PROVIDER NPI":1598727018,"PROVIDER NAME":"Alicea, Angel","PROVIDER STATE":"Delaware","PROVIDER CITY":"Seaford","PROVIDER  ADDRESS":"200 Federal St","PROVIDER ZIP 5 CD":19973,"PROVIDER ZIP 4 CD":5764,"PROVIDER PHONE NUM":3026299099,"PROVIDER PHONE EXT":"","PROGRAM YEAR":2011},"geometry":{"type":"Point","coordinates":[-75.310872,38.776356]}},{"type":"Feature","id":"5132dd62a288f42e6734dc2f","properties":{"_id":"5132dd62a288f42e6734dc2f","PROVIDER NPI":1235243486,"PROVIDER NAME":"Altschuler, Robert","PROVIDER STATE":"Delaware","PROVIDER CITY":"Wilmington","PROVIDER  ADDRESS":"1806 N Van Buren Street, Suite 200","PROVIDER ZIP 5 CD":19802,"PROVIDER ZIP 4 CD":3851,"PROVIDER PHONE NUM":3026523771,"PROVIDER PHONE EXT":106,"PROGRAM YEAR":2011},"geometry":{"type":"Point","coordinates":[-75.529912,39.768363]}},{"type":"Feature","id":"5132dd62a288f42e6734dc30","properties":{"_id":"5132dd62a288f42e6734dc30","PROVIDER NPI":1942209143,"PROVIDER NAME":"Amick, Mart","PROVIDER STATE":"Delaware","PROVIDER CITY":"Wilmington","PROVIDER  ADDRESS":"3105 Limestone Rd, Suite 301","PROVIDER ZIP 5 CD":19808,"PROVIDER ZIP 4 CD":2147,"PROVIDER PHONE NUM":3026331700,"PROVIDER PHONE EXT":"","PROGRAM YEAR":2011},"geometry":{"type":"Point","coordinates":[-75.671266,39.73248]}},{"type":"Feature","id":"5132dd62a288f42e6734dc31","properties":{"_id":"5132dd62a288f42e6734dc31","PROVIDER NPI":1144299959,"PROVIDER NAME":"aponte, lourdes","PROVIDER STATE":"Delaware","PROVIDER CITY":"Lewes","PROVIDER  ADDRESS":"1302 Savannah Rd","PROVIDER ZIP 5 CD":19958,"PROVIDER ZIP 4 CD":1526,"PROVIDER PHONE NUM":3026456644,"PROVIDER PHONE EXT":"","PROGRAM YEAR":2011},"geometry":{"type":"Point","coordinates":[-75.15435,38.759956]}},{"type":"Feature","id":"5132dd62a288f42e6734dc32","properties":{"_id":"5132dd62a288f42e6734dc32","PROVIDER NPI":1144271354,"PROVIDER NAME":"Arnaudo, Enrica","PROVIDER STATE":"Delaware","PROVIDER CITY":"Newark","PROVIDER  ADDRESS":"774 Christiana Rd, Suite 106","PROVIDER ZIP 5 CD":19713,"PROVIDER ZIP 4 CD":4236,"PROVIDER PHONE NUM":3027314663,"PROVIDER PHONE EXT":"","PROGRAM YEAR":2011},"geometry":{"type":"Point","coordinates":[-75.654268,39.654564]}},{"type":"Feature","id":"5132dd62a288f42e6734dc33","properties":{"_id":"5132dd62a288f42e6734dc33","PROVIDER NPI":1487622015,"PROVIDER NAME":"aronoff, burton","PROVIDER STATE":"Delaware","PROVIDER CITY":"Seaford","PROVIDER  ADDRESS":"904 Middleford Rd","PROVIDER ZIP 5 CD":19973,"PROVIDER ZIP 4 CD":3604,"PROVIDER PHONE NUM":3026295553,"PROVIDER PHONE EXT":"","PROGRAM YEAR":2011},"geometry":{"type":"Point","coordinates":[-75.603407,38.64287]}},{"type":"Feature","id":"5132dd62a288f42e6734dc34","properties":{"_id":"5132dd62a288f42e6734dc34","PROVIDER NPI":1063673606,"PROVIDER NAME":"ATHAR, MUHAMMAD","PROVIDER STATE":"Delaware","PROVIDER CITY":"Seaford","PROVIDER  ADDRESS":"801 Middleford Rd","PROVIDER ZIP 5 CD":19973,"PROVIDER ZIP 4 CD":3636,"PROVIDER PHONE NUM":3026296611,"PROVIDER PHONE EXT":"","PROGRAM YEAR":2011},"geometry":{"type":"Point","coordinates":[-75.605333,38.642333]}},{"type":"Feature","id":"5132dd62a288f42e6734dc35","properties":{"_id":"5132dd62a288f42e6734dc35","PROVIDER NPI":1891718185,"PROVIDER NAME":"Aviado, Domingo","PROVIDER STATE":"Delaware","PROVIDER CITY":"Milford","PROVIDER  ADDRESS":"18 South Dupont Hwy","PROVIDER ZIP 5 CD":19963,"PROVIDER ZIP 4 CD":"","PROVIDER PHONE NUM":3024307600,"PROVIDER PHONE EXT":"","PROGRAM YEAR":2011},"geometry":{"type":"Point","coordinates":[-75.400571,38.698493]}},{"type":"Feature","id":"5132dd62a288f42e6734dc36","properties":{"_id":"5132dd62a288f42e6734dc36","PROVIDER NPI":1902967508,"PROVIDER NAME":"BACON, ALFRED","PROVIDER STATE":"Delaware","PROVIDER CITY":"NEWARK","PROVIDER  ADDRESS":"C78 80 OMEGA DRIVE","PROVIDER ZIP 5 CD":19713,"PROVIDER ZIP 4 CD":"","PROVIDER PHONE NUM":3023682883,"PROVIDER PHONE EXT":"","PROGRAM YEAR":2011},"geometry":{"type":"Point","coordinates":[-75.675786,39.691121]}},{"type":"Feature","id":"5132dd62a288f42e6734dc37","properties":{"_id":"5132dd62a288f42e6734dc37","PROVIDER NPI":1487651741,"PROVIDER NAME":"Badillo, Rene","PROVIDER STATE":"Delaware","PROVIDER CITY":"Newark","PROVIDER  ADDRESS":"1450 Pulaski Hwy","PROVIDER ZIP 5 CD":19702,"PROVIDER ZIP 4 CD":5108,"PROVIDER PHONE NUM":3028326768,"PROVIDER PHONE EXT":"","PROGRAM YEAR":2011},"geometry":{"type":"Point","coordinates":[-75.684352,39.622284]}},{"type":"Feature","id":"5132dd62a288f42e6734dc38","properties":{"_id":"5132dd62a288f42e6734dc38","PROVIDER NPI":1295738250,"PROVIDER NAME":"Bahtiarian, Gregory","PROVIDER STATE":"Delaware","PROVIDER CITY":"Lewes","PROVIDER  ADDRESS":"20251 John J Williams Hwy","PROVIDER ZIP 5 CD":19958,"PROVIDER ZIP 4 CD":4314,"PROVIDER PHONE NUM":3026446860,"PROVIDER PHONE EXT":"","PROGRAM YEAR":2011},"geometry":{"type":"Point","coordinates":[-75.160495,38.70423]}},{"type":"Feature","id":"5132dd62a288f42e6734dc39","properties":{"_id":"5132dd62a288f42e6734dc39","PROVIDER NPI":1053314773,"PROVIDER NAME":"BALDI, CHRISTOPHER","PROVIDER STATE":"Delaware","PROVIDER CITY":"Newark","PROVIDER  ADDRESS":"2600 Glasgow Avenue, Suite 108","PROVIDER ZIP 5 CD":19702,"PROVIDER ZIP 4 CD":"","PROVIDER PHONE NUM":3028343700,"PROVIDER PHONE EXT":"","PROGRAM YEAR":2011},"geometry":{"type":"Point","coordinates":[-75.742192,39.596316]}},{"type":"Feature","id":"5132dd62a288f42e6734dc3a","properties":{"_id":"5132dd62a288f42e6734dc3a","PROVIDER NPI":1699786442,"PROVIDER NAME":"Barlow, Jennifer","PROVIDER STATE":"Delaware","PROVIDER CITY":"Newark","PROVIDER  ADDRESS":"4735 Ogletown-Stanton Rd, Suite 2300","PROVIDER ZIP 5 CD":19713,"PROVIDER ZIP 4 CD":"","PROVIDER PHONE NUM":3022248400,"PROVIDER PHONE EXT":110,"PROGRAM YEAR":2011},"geometry":{"type":"Point","coordinates":[-75.650691,39.701121]}},{"type":"Feature","id":"5132dd62a288f42e6734dc3b","properties":{"_id":"5132dd62a288f42e6734dc3b","PROVIDER NPI":1851338040,"PROVIDER NAME":"Barnes, Cedric","PROVIDER STATE":"Delaware","PROVIDER CITY":"Milford","PROVIDER  ADDRESS":"119 Neurology Way","PROVIDER ZIP 5 CD":19963,"PROVIDER ZIP 4 CD":5368,"PROVIDER PHONE NUM":3024243900,"PROVIDER PHONE EXT":"","PROGRAM YEAR":2011},"geometry":{"type":"Point","coordinates":[-75.42797,38.91261]}},{"type":"Feature","id":"5132dd62a288f42e6734dc3c","properties":{"_id":"5132dd62a288f42e6734dc3c","PROVIDER NPI":1871573469,"PROVIDER NAME":"Barnett-Smith, Rhoneise","PROVIDER STATE":"Delaware","PROVIDER CITY":"Newark","PROVIDER  ADDRESS":"2600 Glasgow Ave, Suite 120","PROVIDER ZIP 5 CD":19702,"PROVIDER ZIP 4 CD":4773,"PROVIDER PHONE NUM":3028368200,"PROVIDER PHONE EXT":"","PROGRAM YEAR":2011},"geometry":{"type":"Point","coordinates":[-75.742192,39.596316]}},{"type":"Feature","id":"5132dd62a288f42e6734dc3d","properties":{"_id":"5132dd62a288f42e6734dc3d","PROVIDER NPI":1508804907,"PROVIDER NAME":"BATRA, VIKAS","PROVIDER STATE":"Delaware","PROVIDER CITY":"Lewes","PROVIDER  ADDRESS":"34381 Carpenter's Way","PROVIDER ZIP 5 CD":19958,"PROVIDER ZIP 4 CD":"","PROVIDER PHONE NUM":3026447201,"PROVIDER PHONE EXT":"","PROGRAM YEAR":2011},"geometry":{"type":"Point","coordinates":[-75.149061,38.666904]}},{"type":"Feature","id":"5132dd62a288f42e6734dc3e","properties":{"_id":"5132dd62a288f42e6734dc3e","PROVIDER NPI":1881691442,"PROVIDER NAME":"Beebe, James","PROVIDER STATE":"Delaware","PROVIDER CITY":"Lewes","PROVIDER  ADDRESS":"1305 Savannah Rd, Suite 1","PROVIDER ZIP 5 CD":19958,"PROVIDER ZIP 4 CD":1514,"PROVIDER PHONE NUM":3026452281,"PROVIDER PHONE EXT":"","PROGRAM YEAR":2011},"geometry":{"type":"Point","coordinates":[-75.156191,38.746363]}},{"type":"Feature","id":"5132dd62a288f42e6734dc3f","properties":{"_id":"5132dd62a288f42e6734dc3f","PROVIDER NPI":1750388872,"PROVIDER NAME":"Belicena-Badillo, Maricar","PROVIDER STATE":"Delaware","PROVIDER CITY":"Newark","PROVIDER  ADDRESS":"1450 Pulaski Hwy","PROVIDER ZIP 5 CD":19702,"PROVIDER ZIP 4 CD":5108,"PROVIDER PHONE NUM":3028326768,"PROVIDER PHONE EXT":"","PROGRAM YEAR":2011},"geometry":{"type":"Point","coordinates":[-75.684352,39.622284]}},{"type":"Feature","id":"5132dd62a288f42e6734dc40","properties":{"_id":"5132dd62a288f42e6734dc40","PROVIDER NPI":1275528309,"PROVIDER NAME":"BELL, JASON","PROVIDER STATE":"Delaware","PROVIDER CITY":"Newark","PROVIDER  ADDRESS":"1 Centurian Drive, Suite 101","PROVIDER ZIP 5 CD":19713,"PROVIDER ZIP 4 CD":2137,"PROVIDER PHONE NUM":3029945275,"PROVIDER PHONE EXT":"","PROGRAM YEAR":2011},"geometry":{"type":"Point","coordinates":[-75.708385,39.721955]}},{"type":"Feature","id":"5132dd62a288f42e6734dc41","properties":{"_id":"5132dd62a288f42e6734dc41","PROVIDER NPI":1255332631,"PROVIDER NAME":"Benes, George","PROVIDER STATE":"Delaware","PROVIDER CITY":"Newark","PROVIDER  ADDRESS":"2600 Glasgow Ave, Suite 203","PROVIDER ZIP 5 CD":19702,"PROVIDER ZIP 4 CD":4777,"PROVIDER PHONE NUM":3028323755,"PROVIDER PHONE EXT":"","PROGRAM YEAR":2011},"geometry":{"type":"Point","coordinates":[-75.742192,39.596316]}},{"type":"Feature","id":"5132dd62a288f42e6734dc42","properties":{"_id":"5132dd62a288f42e6734dc42","PROVIDER NPI":1720182256,"PROVIDER NAME":"Berg, Fanny","PROVIDER STATE":"Delaware","PROVIDER CITY":"Wilmington","PROVIDER  ADDRESS":"2000 Foulk Rd, Suite A","PROVIDER ZIP 5 CD":19810,"PROVIDER ZIP 4 CD":3642,"PROVIDER PHONE NUM":3024758000,"PROVIDER PHONE EXT":7,"PROGRAM YEAR":2011},"geometry":{"type":"Point","coordinates":[-75.509313,39.814603]}},{"type":"Feature","id":"5132dd62a288f42e6734dc43","properties":{"_id":"5132dd62a288f42e6734dc43","PROVIDER NPI":1932104320,"PROVIDER NAME":"Berlin, Steven","PROVIDER STATE":"Delaware","PROVIDER CITY":"Lewes","PROVIDER  ADDRESS":"1535 Savannah Rd","PROVIDER ZIP 5 CD":19958,"PROVIDER ZIP 4 CD":1611,"PROVIDER PHONE NUM":3026454700,"PROVIDER PHONE EXT":"","PROGRAM YEAR":2011},"geometry":{"type":"Point","coordinates":[-75.15898,38.755663]}},{"type":"Feature","id":"5132dd62a288f42e6734dc44","properties":{"_id":"5132dd62a288f42e6734dc44","PROVIDER NPI":1588683619,"PROVIDER NAME":"Beste, Gary","PROVIDER STATE":"Delaware","PROVIDER CITY":"Newark","PROVIDER  ADDRESS":"313 West Main St","PROVIDER ZIP 5 CD":19711,"PROVIDER ZIP 4 CD":"","PROVIDER PHONE NUM":3027314620,"PROVIDER PHONE EXT":"","PROGRAM YEAR":2011},"geometry":{"type":"Point","coordinates":[-75.763365,39.685695]}},{"type":"Feature","id":"5132dd62a288f42e6734dc45","properties":{"_id":"5132dd62a288f42e6734dc45","PROVIDER NPI":1124190095,"PROVIDER NAME":"BESWICK, DAVID","PROVIDER STATE":"Delaware","PROVIDER CITY":"Newark","PROVIDER  ADDRESS":"4745 Ogletown Stanton Rd, MAP 1, Suite 134","PROVIDER ZIP 5 CD":19713,"PROVIDER ZIP 4 CD":2067,"PROVIDER PHONE NUM":3027385300,"PROVIDER PHONE EXT":"","PROGRAM YEAR":2011},"geometry":{"type":"Point","coordinates":[-75.679873,39.68676]}},{"type":"Feature","id":"5132dd62a288f42e6734dc46","properties":{"_id":"5132dd62a288f42e6734dc46","PROVIDER NPI":1265411508,"PROVIDER NAME":"Birch, David","PROVIDER STATE":"Delaware","PROVIDER CITY":"Lewes","PROVIDER  ADDRESS":"1305 Savannah Rd, Suite 1","PROVIDER ZIP 5 CD":19958,"PROVIDER ZIP 4 CD":1501,"PROVIDER PHONE NUM":3026452281,"PROVIDER PHONE EXT":"","PROGRAM YEAR":2011},"geometry":{"type":"Point","coordinates":[-75.156191,38.746363]}},{"type":"Feature","id":"5132dd62a288f42e6734dc47","properties":{"_id":"5132dd62a288f42e6734dc47","PROVIDER NPI":1720229891,"PROVIDER NAME":"Bogota Angel, Sandra","PROVIDER STATE":"Delaware","PROVIDER CITY":"Wilmington","PROVIDER  ADDRESS":"2106 Silverside Rd, Suite 202","PROVIDER ZIP 5 CD":19810,"PROVIDER ZIP 4 CD":4162,"PROVIDER PHONE NUM":3024779660,"PROVIDER PHONE EXT":"","PROGRAM YEAR":2011},"geometry":{"type":"Point","coordinates":[-75.503884,39.801465]}},{"type":"Feature","id":"5132dd62a288f42e6734dc48","properties":{"_id":"5132dd62a288f42e6734dc48","PROVIDER NPI":1396756250,"PROVIDER NAME":"Bohl, Jessica","PROVIDER STATE":"Delaware","PROVIDER CITY":"Rehoboth Beach","PROVIDER  ADDRESS":"18585 Coastal Hwy Unit 26","PROVIDER ZIP 5 CD":19971,"PROVIDER ZIP 4 CD":6147,"PROVIDER PHONE NUM":3026456681,"PROVIDER PHONE EXT":"","PROGRAM YEAR":2011},"geometry":{"type":"Point","coordinates":[-75.140569,38.736156]}},{"type":"Feature","id":"5132dd62a288f42e6734dc49","properties":{"_id":"5132dd62a288f42e6734dc49","PROVIDER NPI":1326016858,"PROVIDER NAME":"Bolourchi, Habib","PROVIDER STATE":"Delaware","PROVIDER CITY":"Rehobeth Beach","PROVIDER  ADDRESS":"18958 Coastal Highway","PROVIDER ZIP 5 CD":19971,"PROVIDER ZIP 4 CD":"","PROVIDER PHONE NUM":3026457672,"PROVIDER PHONE EXT":"","PROGRAM YEAR":2011},"geometry":{"type":"Point","coordinates":[-75.13168,38.729729]}},{"type":"Feature","id":"5132dd62a288f42e6734dc4a","properties":{"_id":"5132dd62a288f42e6734dc4a","PROVIDER NPI":1356476626,"PROVIDER NAME":"Bovelsky, Christina","PROVIDER STATE":"Delaware","PROVIDER CITY":"Wilmington","PROVIDER  ADDRESS":"1320 Philadelphia Pike","PROVIDER ZIP 5 CD":19809,"PROVIDER ZIP 4 CD":1818,"PROVIDER PHONE NUM":3027982559,"PROVIDER PHONE EXT":"","PROGRAM YEAR":2011},"geometry":{"type":"Point","coordinates":[-75.482747,39.781732]}},{"type":"Feature","id":"5132dd62a288f42e6734dc4b","properties":{"_id":"5132dd62a288f42e6734dc4b","PROVIDER NPI":1790730646,"PROVIDER NAME":"Bovelsky, Marshall","PROVIDER STATE":"Delaware","PROVIDER CITY":"Dover","PROVIDER  ADDRESS":"200 Banning St, suite 320","PROVIDER ZIP 5 CD":19904,"PROVIDER ZIP 4 CD":3485,"PROVIDER PHONE NUM":3026740223,"PROVIDER PHONE EXT":"","PROGRAM YEAR":2011},"geometry":{"type":"Point","coordinates":[-75.561837,39.168393]}},{"type":"Feature","id":"5132dd62a288f42e6734dc4c","properties":{"_id":"5132dd62a288f42e6734dc4c","PROVIDER NPI":1487657102,"PROVIDER NAME":"BOWENS, CHRISTOPHER","PROVIDER STATE":"Delaware","PROVIDER CITY":"Newark","PROVIDER  ADDRESS":"2600 Glasgow Ave, Suite 108","PROVIDER ZIP 5 CD":19702,"PROVIDER ZIP 4 CD":"","PROVIDER PHONE NUM":3028343700,"PROVIDER PHONE EXT":"","PROGRAM YEAR":2011},"geometry":{"type":"Point","coordinates":[-75.742192,39.596316]}},{"type":"Feature","id":"5132dd62a288f42e6734dc4d","properties":{"_id":"5132dd62a288f42e6734dc4d","PROVIDER NPI":1659504801,"PROVIDER NAME":"Bowers, Cody","PROVIDER STATE":"Delaware","PROVIDER CITY":"Wilmington","PROVIDER  ADDRESS":"1941 Limestone Rd, Suite 208","PROVIDER ZIP 5 CD":19808,"PROVIDER ZIP 4 CD":5408,"PROVIDER PHONE NUM":3029945956,"PROVIDER PHONE EXT":"","PROGRAM YEAR":2011},"geometry":{"type":"Point","coordinates":[-75.671356,39.733117]}},{"type":"Feature","id":"5132dd62a288f42e6734dc4e","properties":{"_id":"5132dd62a288f42e6734dc4e","PROVIDER NPI":1528093119,"PROVIDER NAME":"Bradley, Michael","PROVIDER STATE":"Delaware","PROVIDER CITY":"Dover","PROVIDER  ADDRESS":"1342 S Governors Ave","PROVIDER ZIP 5 CD":19904,"PROVIDER ZIP 4 CD":4804,"PROVIDER PHONE NUM":3027347796,"PROVIDER PHONE EXT":"","PROGRAM YEAR":2011},"geometry":{"type":"Point","coordinates":[-75.52997,39.134076]}},{"type":"Feature","id":"5132dd62a288f42e6734dc4f","properties":{"_id":"5132dd62a288f42e6734dc4f","PROVIDER NPI":1619988524,"PROVIDER NAME":"Briggs, Douglas","PROVIDER STATE":"Delaware","PROVIDER CITY":"Wilmington","PROVIDER  ADDRESS":"910 N Union St","PROVIDER ZIP 5 CD":19805,"PROVIDER ZIP 4 CD":5334,"PROVIDER PHONE NUM":3026544001,"PROVIDER PHONE EXT":"","PROGRAM YEAR":2011},"geometry":{"type":"Point","coordinates":[-75.570015,39.753578]}},{"type":"Feature","id":"5132dd62a288f42e6734dc50","properties":{"_id":"5132dd62a288f42e6734dc50","PROVIDER NPI":1881695039,"PROVIDER NAME":"Brooks, Michael","PROVIDER STATE":"Delaware","PROVIDER CITY":"Newark","PROVIDER  ADDRESS":"2600 Glasgow Ave, Suite 203","PROVIDER ZIP 5 CD":19702,"PROVIDER ZIP 4 CD":4777,"PROVIDER PHONE NUM":3028323755,"PROVIDER PHONE EXT":"","PROGRAM YEAR":2011},"geometry":{"type":"Point","coordinates":[-75.742192,39.596316]}},{"type":"Feature","id":"5132dd62a288f42e6734dc51","properties":{"_id":"5132dd62a288f42e6734dc51","PROVIDER NPI":1053343863,"PROVIDER NAME":"Brosch, Faith","PROVIDER STATE":"Delaware","PROVIDER CITY":"Newark","PROVIDER  ADDRESS":"4745 Ogletown Stanton Rd, MAP1, Suite 207","PROVIDER ZIP 5 CD":19713,"PROVIDER ZIP 4 CD":2067,"PROVIDER PHONE NUM":3023689000,"PROVIDER PHONE EXT":"","PROGRAM YEAR":2011},"geometry":{"type":"Point","coordinates":[-75.679873,39.68676]}},{"type":"Feature","id":"5132dd62a288f42e6734dc52","properties":{"_id":"5132dd62a288f42e6734dc52","PROVIDER NPI":1700862737,"PROVIDER NAME":"Brownstein, Adam","PROVIDER STATE":"Delaware","PROVIDER CITY":"Milford","PROVIDER  ADDRESS":"310 Mullet Run","PROVIDER ZIP 5 CD":19963,"PROVIDER ZIP 4 CD":5371,"PROVIDER PHONE NUM":3024240600,"PROVIDER PHONE EXT":"","PROGRAM YEAR":2011},"geometry":{"type":"Point","coordinates":[-75.461325,38.938741]}},{"type":"Feature","id":"5132dd62a288f42e6734dc53","properties":{"_id":"5132dd62a288f42e6734dc53","PROVIDER NPI":1962463919,"PROVIDER NAME":"Buenano, Alvaro","PROVIDER STATE":"Delaware","PROVIDER CITY":"Seaford","PROVIDER  ADDRESS":"200 Federal St","PROVIDER ZIP 5 CD":19973,"PROVIDER ZIP 4 CD":5764,"PROVIDER PHONE NUM":3026299099,"PROVIDER PHONE EXT":"","PROGRAM YEAR":2011},"geometry":{"type":"Point","coordinates":[-75.310872,38.776356]}},{"type":"Feature","id":"5132dd62a288f42e6734dc54","properties":{"_id":"5132dd62a288f42e6734dc54","PROVIDER NPI":1427129436,"PROVIDER NAME":"BUTT, WARREN","PROVIDER STATE":"Delaware","PROVIDER CITY":"Newark","PROVIDER  ADDRESS":"4745 Ogletown Stanton Rd, MAP 1, SUITE 134","PROVIDER ZIP 5 CD":19713,"PROVIDER ZIP 4 CD":2067,"PROVIDER PHONE NUM":3027385300,"PROVIDER PHONE EXT":"","PROGRAM YEAR":2011},"geometry":{"type":"Point","coordinates":[-75.679873,39.68676]}},{"type":"Feature","id":"5132dd62a288f42e6734dc55","properties":{"_id":"5132dd62a288f42e6734dc55","PROVIDER NPI":1063517381,"PROVIDER NAME":"Cabrera, Joaquin","PROVIDER STATE":"Delaware","PROVIDER CITY":"Seaford","PROVIDER  ADDRESS":"8472 Herring Run Rd","PROVIDER ZIP 5 CD":19973,"PROVIDER ZIP 4 CD":5763,"PROVIDER PHONE NUM":3026298977,"PROVIDER PHONE EXT":"","PROGRAM YEAR":2011},"geometry":{"type":"Point","coordinates":[-75.597726,38.662059]}},{"type":"Feature","id":"5132dd62a288f42e6734dc56","properties":{"_id":"5132dd62a288f42e6734dc56","PROVIDER NPI":1831146562,"PROVIDER NAME":"Campo, Darrin","PROVIDER STATE":"Delaware","PROVIDER CITY":"Middletown","PROVIDER  ADDRESS":"102 Sleepy Hollow Dr, Suite 200","PROVIDER ZIP 5 CD":19709,"PROVIDER ZIP 4 CD":8894,"PROVIDER PHONE NUM":3023768899,"PROVIDER PHONE EXT":"","PROGRAM YEAR":2011},"geometry":{"type":"Point","coordinates":[-75.675737,39.478949]}},{"type":"Feature","id":"5132dd62a288f42e6734dc57","properties":{"_id":"5132dd62a288f42e6734dc57","PROVIDER NPI":1154404143,"PROVIDER NAME":"Cancino, Jospefina","PROVIDER STATE":"Delaware","PROVIDER CITY":"Smyrna","PROVIDER  ADDRESS":"224 N DuPont Blvd, PO Box 455","PROVIDER ZIP 5 CD":19977,"PROVIDER ZIP 4 CD":1511,"PROVIDER PHONE NUM":3026530903,"PROVIDER PHONE EXT":"","PROGRAM YEAR":2011},"geometry":{"type":"Point","coordinates":[-75.593538,39.308167]}},{"type":"Feature","id":"5132dd62a288f42e6734dc58","properties":{"_id":"5132dd62a288f42e6734dc58","PROVIDER NPI":1134198674,"PROVIDER NAME":"Carlson, John","PROVIDER STATE":"Delaware","PROVIDER CITY":"Wilmington","PROVIDER  ADDRESS":"3524 Silverside Rd, The Commons, Suite 33","PROVIDER ZIP 5 CD":19810,"PROVIDER ZIP 4 CD":4929,"PROVIDER PHONE NUM":3024787973,"PROVIDER PHONE EXT":"","PROGRAM YEAR":2011},"geometry":{"type":"Point","coordinates":[-75.544643,39.808845]}},{"type":"Feature","id":"5132dd62a288f42e6734dc59","properties":{"_id":"5132dd62a288f42e6734dc59","PROVIDER NPI":1730137019,"PROVIDER NAME":"Case, Mark","PROVIDER STATE":"Delaware","PROVIDER CITY":"Middletown","PROVIDER  ADDRESS":"272 Carter Drive, Suite 200","PROVIDER ZIP 5 CD":19709,"PROVIDER ZIP 4 CD":1439,"PROVIDER PHONE NUM":3024491710,"PROVIDER PHONE EXT":223,"PROGRAM YEAR":2011},"geometry":{"type":"Point","coordinates":[-75.70492,39.719684]}},{"type":"Feature","id":"5132dd62a288f42e6734dc5a","properties":{"_id":"5132dd62a288f42e6734dc5a","PROVIDER NPI":1639273907,"PROVIDER NAME":"Cates, Haynes","PROVIDER STATE":"Delaware","PROVIDER CITY":"Wilmington","PROVIDER  ADDRESS":"1205 Delaware Ave","PROVIDER ZIP 5 CD":19806,"PROVIDER ZIP 4 CD":"","PROVIDER PHONE NUM":3026525946,"PROVIDER PHONE EXT":"","PROGRAM YEAR":2011},"geometry":{"type":"Point","coordinates":[-75.557639,39.753668]}},{"type":"Feature","id":"5132dd62a288f42e6734dc5b","properties":{"_id":"5132dd62a288f42e6734dc5b","PROVIDER NPI":1518063858,"PROVIDER NAME":"Cerny, Veronica","PROVIDER STATE":"Delaware","PROVIDER CITY":"Dover","PROVIDER  ADDRESS":"1177A S Governors Ave","PROVIDER ZIP 5 CD":19904,"PROVIDER ZIP 4 CD":6903,"PROVIDER PHONE NUM":3026744767,"PROVIDER PHONE EXT":"","PROGRAM YEAR":2011},"geometry":{"type":"Point","coordinates":[-75.527183,39.137869]}},{"type":"Feature","id":"5132dd62a288f42e6734dc5c","properties":{"_id":"5132dd62a288f42e6734dc5c","PROVIDER NPI":1467440354,"PROVIDER NAME":"Chabalko, John","PROVIDER STATE":"Delaware","PROVIDER CITY":"Wilmington","PROVIDER  ADDRESS":"701 N Clayton St, Suite 500","PROVIDER ZIP 5 CD":19805,"PROVIDER ZIP 4 CD":3165,"PROVIDER PHONE NUM":3026562213,"PROVIDER PHONE EXT":"","PROGRAM YEAR":2011},"geometry":{"type":"Point","coordinates":[-75.572603,39.740741]}},{"type":"Feature","id":"5132dd62a288f42e6734dc5d","properties":{"_id":"5132dd62a288f42e6734dc5d","PROVIDER NPI":1588602080,"PROVIDER NAME":"Ciampoli, Joseph","PROVIDER STATE":"Delaware","PROVIDER CITY":"Wilmington","PROVIDER  ADDRESS":"3301 Lancaster Pike, Suite 9","PROVIDER ZIP 5 CD":19805,"PROVIDER ZIP 4 CD":1436,"PROVIDER PHONE NUM":3029840257,"PROVIDER PHONE EXT":"","PROGRAM YEAR":2011},"geometry":{"type":"Point","coordinates":[-75.571827,39.748788]}},{"type":"Feature","id":"5132dd62a288f42e6734dc5e","properties":{"_id":"5132dd62a288f42e6734dc5e","PROVIDER NPI":1841388709,"PROVIDER NAME":"Ciavarelli, Linda","PROVIDER STATE":"Delaware","PROVIDER CITY":"Wilmington","PROVIDER  ADDRESS":"1010 N Bancroft Pkwy","PROVIDER ZIP 5 CD":19805,"PROVIDER ZIP 4 CD":2690,"PROVIDER PHONE NUM":3026581129,"PROVIDER PHONE EXT":"","PROGRAM YEAR":2011},"geometry":{"type":"Point","coordinates":[-75.571346,39.755526]}},{"type":"Feature","id":"5132dd62a288f42e6734dc5f","properties":{"_id":"5132dd62a288f42e6734dc5f","PROVIDER NPI":1093800401,"PROVIDER NAME":"Claravall, Odilon","PROVIDER STATE":"Delaware","PROVIDER CITY":"Laurel","PROVIDER  ADDRESS":"1124 South Central Ave","PROVIDER ZIP 5 CD":19956,"PROVIDER ZIP 4 CD":"","PROVIDER PHONE NUM":3028757753,"PROVIDER PHONE EXT":"","PROGRAM YEAR":2011},"geometry":{"type":"Point","coordinates":[-75.569536,38.550034]}},{"type":"Feature","id":"5132dd62a288f42e6734dc60","properties":{"_id":"5132dd62a288f42e6734dc60","PROVIDER NPI":1649202573,"PROVIDER NAME":"Clay, Anthony","PROVIDER STATE":"Delaware","PROVIDER CITY":"Newark","PROVIDER  ADDRESS":"1 Centurian Dr, Suite 200","PROVIDER ZIP 5 CD":19713,"PROVIDER ZIP 4 CD":2137,"PROVIDER PHONE NUM":3023668600,"PROVIDER PHONE EXT":"","PROGRAM YEAR":2011},"geometry":{"type":"Point","coordinates":[-75.708385,39.721955]}},{"type":"Feature","id":"5132dd62a288f42e6734dc61","properties":{"_id":"5132dd62a288f42e6734dc61","PROVIDER NPI":1144231697,"PROVIDER NAME":"Cohen, Stacy","PROVIDER STATE":"Delaware","PROVIDER CITY":"Newark","PROVIDER  ADDRESS":"1536 Capitol Trl","PROVIDER ZIP 5 CD":19711,"PROVIDER ZIP 4 CD":5716,"PROVIDER PHONE NUM":3024541200,"PROVIDER PHONE EXT":"","PROGRAM YEAR":2011},"geometry":{"type":"Point","coordinates":[-75.706305,39.698749]}},{"type":"Feature","id":"5132dd62a288f42e6734dc62","properties":{"_id":"5132dd62a288f42e6734dc62","PROVIDER NPI":1265439582,"PROVIDER NAME":"Coll, John","PROVIDER STATE":"Delaware","PROVIDER CITY":"Dover","PROVIDER  ADDRESS":"1074 S State St","PROVIDER ZIP 5 CD":19901,"PROVIDER ZIP 4 CD":6925,"PROVIDER PHONE NUM":3026788100,"PROVIDER PHONE EXT":2278,"PROGRAM YEAR":2011},"geometry":{"type":"Point","coordinates":[-75.52276,39.143593]}},{"type":"Feature","id":"5132dd62a288f42e6734dc63","properties":{"_id":"5132dd62a288f42e6734dc63","PROVIDER NPI":1205923737,"PROVIDER NAME":"Collins, Andrew","PROVIDER STATE":"Delaware","PROVIDER CITY":"Lewes","PROVIDER  ADDRESS":"17021 Old Orchard Rd, suite 3","PROVIDER ZIP 5 CD":19958,"PROVIDER ZIP 4 CD":4832,"PROVIDER PHONE NUM":3026448008,"PROVIDER PHONE EXT":"","PROGRAM YEAR":2011},"geometry":{"type":"Point","coordinates":[-75.145142,38.777374]}},{"type":"Feature","id":"5132dd62a288f42e6734dc64","properties":{"_id":"5132dd62a288f42e6734dc64","PROVIDER NPI":1679522122,"PROVIDER NAME":"Collins, Donald","PROVIDER STATE":"Delaware","PROVIDER CITY":"Newark","PROVIDER  ADDRESS":"4745 Ogletown Stanton Rd, MAP 1, Suite 220","PROVIDER ZIP 5 CD":19713,"PROVIDER ZIP 4 CD":2067,"PROVIDER PHONE NUM":3023685515,"PROVIDER PHONE EXT":"","PROGRAM YEAR":2011},"geometry":{"type":"Point","coordinates":[-75.679873,39.68676]}},{"type":"Feature","id":"5132dd62a288f42e6734dc65","properties":{"_id":"5132dd62a288f42e6734dc65","PROVIDER NPI":1275737652,"PROVIDER NAME":"concha-parra, RONALD","PROVIDER STATE":"Delaware","PROVIDER CITY":"Seaford","PROVIDER  ADDRESS":"801 Middleford Road","PROVIDER ZIP 5 CD":19973,"PROVIDER ZIP 4 CD":"","PROVIDER PHONE NUM":3026296611,"PROVIDER PHONE EXT":2600,"PROGRAM YEAR":2011},"geometry":{"type":"Point","coordinates":[-75.605333,38.642333]}},{"type":"Feature","id":"5132dd62a288f42e6734dc66","properties":{"_id":"5132dd62a288f42e6734dc66","PROVIDER NPI":1033275045,"PROVIDER NAME":"Conly, Jeffrey","PROVIDER STATE":"Delaware","PROVIDER CITY":"Rehoboth Beach","PROVIDER  ADDRESS":"18958 Coastal Hwy, Suite 1","PROVIDER ZIP 5 CD":19971,"PROVIDER ZIP 4 CD":6196,"PROVIDER PHONE NUM":3028272323,"PROVIDER PHONE EXT":"","PROGRAM YEAR":2011},"geometry":{"type":"Point","coordinates":[-75.13168,38.729729]}},{"type":"Feature","id":"5132dd62a288f42e6734dc67","properties":{"_id":"5132dd62a288f42e6734dc67","PROVIDER NPI":1275517922,"PROVIDER NAME":"Cooper, Michelle","PROVIDER STATE":"Delaware","PROVIDER CITY":"Dover","PROVIDER  ADDRESS":"200 Banning Street, Suite 320","PROVIDER ZIP 5 CD":19904,"PROVIDER ZIP 4 CD":3530,"PROVIDER PHONE NUM":3026740223,"PROVIDER PHONE EXT":"","PROGRAM YEAR":2011},"geometry":{"type":"Point","coordinates":[-75.561837,39.168393]}},{"type":"Feature","id":"5132dd62a288f42e6734dc68","properties":{"_id":"5132dd62a288f42e6734dc68","PROVIDER NPI":1053353433,"PROVIDER NAME":"CORRIN, KENNETH","PROVIDER STATE":"Delaware","PROVIDER CITY":"Wilmington","PROVIDER  ADDRESS":"1307 N Rodney St","PROVIDER ZIP 5 CD":19806,"PROVIDER ZIP 4 CD":4226,"PROVIDER PHONE NUM":3026542226,"PROVIDER PHONE EXT":"","PROGRAM YEAR":2011},"geometry":{"type":"Point","coordinates":[-75.561623,39.754608]}},{"type":"Feature","id":"5132dd62a288f42e6734dc69","properties":{"_id":"5132dd62a288f42e6734dc69","PROVIDER NPI":1578635090,"PROVIDER NAME":"CORSO, MARK","PROVIDER STATE":"Delaware","PROVIDER CITY":"Newark","PROVIDER  ADDRESS":"4745 Ogletown Stanton Rd, MAP I, SUITE 134","PROVIDER ZIP 5 CD":19713,"PROVIDER ZIP 4 CD":2067,"PROVIDER PHONE NUM":3027385300,"PROVIDER PHONE EXT":"","PROGRAM YEAR":2011},"geometry":{"type":"Point","coordinates":[-75.65807,39.674265]}},{"type":"Feature","id":"5132dd62a288f42e6734dc6a","properties":{"_id":"5132dd62a288f42e6734dc6a","PROVIDER NPI":1336222017,"PROVIDER NAME":"COVELL, WILLIAM","PROVIDER STATE":"Delaware","PROVIDER CITY":"Middletown","PROVIDER  ADDRESS":"212 Carter Dr, SUITE A","PROVIDER ZIP 5 CD":19709,"PROVIDER ZIP 4 CD":5837,"PROVIDER PHONE NUM":3023784407,"PROVIDER PHONE EXT":"","PROGRAM YEAR":2011},"geometry":{"type":"Point","coordinates":[-75.70492,39.719684]}},{"type":"Feature","id":"5132dd62a288f42e6734dc6b","properties":{"_id":"5132dd62a288f42e6734dc6b","PROVIDER NPI":1912981473,"PROVIDER NAME":"cramer, jeffrey","PROVIDER STATE":"Delaware","PROVIDER CITY":"Wilmington","PROVIDER  ADDRESS":"2700 Silverside Rd, Suite #2","PROVIDER ZIP 5 CD":19810,"PROVIDER ZIP 4 CD":3719,"PROVIDER PHONE NUM":3024788421,"PROVIDER PHONE EXT":"","PROGRAM YEAR":2011},"geometry":{"type":"Point","coordinates":[-75.521176,39.811878]}},{"type":"Feature","id":"5132dd62a288f42e6734dc6c","properties":{"_id":"5132dd62a288f42e6734dc6c","PROVIDER NPI":1518061621,"PROVIDER NAME":"Cruz, Janet","PROVIDER STATE":"Delaware","PROVIDER CITY":"Seaford","PROVIDER  ADDRESS":"801 Middleford Road","PROVIDER ZIP 5 CD":19973,"PROVIDER ZIP 4 CD":"","PROVIDER PHONE NUM":3026296611,"PROVIDER PHONE EXT":"","PROGRAM YEAR":2011},"geometry":{"type":"Point","coordinates":[-75.605333,38.642333]}},{"type":"Feature","id":"5132dd62a288f42e6734dc6d","properties":{"_id":"5132dd62a288f42e6734dc6d","PROVIDER NPI":1144283417,"PROVIDER NAME":"Cucuzzella, Anthony","PROVIDER STATE":"Delaware","PROVIDER CITY":"Newark","PROVIDER  ADDRESS":"4735 Ogletown-Stanton Rd, Suite 3302","PROVIDER ZIP 5 CD":19713,"PROVIDER ZIP 4 CD":"","PROVIDER PHONE NUM":3026234144,"PROVIDER PHONE EXT":"","PROGRAM YEAR":2011},"geometry":{"type":"Point","coordinates":[-75.650691,39.701121]}},{"type":"Feature","id":"5132dd62a288f42e6734dc6e","properties":{"_id":"5132dd62a288f42e6734dc6e","PROVIDER NPI":1801893144,"PROVIDER NAME":"Curci, Anthony","PROVIDER STATE":"Delaware","PROVIDER CITY":"Wilmington","PROVIDER  ADDRESS":"1320 Philadelphia Pike","PROVIDER ZIP 5 CD":19809,"PROVIDER ZIP 4 CD":1818,"PROVIDER PHONE NUM":3027980666,"PROVIDER PHONE EXT":"","PROGRAM YEAR":2011},"geometry":{"type":"Point","coordinates":[-75.482747,39.781732]}},{"type":"Feature","id":"5132dd62a288f42e6734dc6f","properties":{"_id":"5132dd62a288f42e6734dc6f","PROVIDER NPI":1417044157,"PROVIDER NAME":"Davis, Dustin","PROVIDER STATE":"Delaware","PROVIDER CITY":"Georgetown","PROVIDER  ADDRESS":"201 W Market St","PROVIDER ZIP 5 CD":19947,"PROVIDER ZIP 4 CD":1440,"PROVIDER PHONE NUM":3028562254,"PROVIDER PHONE EXT":"","PROGRAM YEAR":2011},"geometry":{"type":"Point","coordinates":[-75.38763,38.688635]}},{"type":"Feature","id":"5132dd62a288f42e6734dc70","properties":{"_id":"5132dd62a288f42e6734dc70","PROVIDER NPI":1023105822,"PROVIDER NAME":"Davis, Eileen","PROVIDER STATE":"Delaware","PROVIDER CITY":"Georgetown","PROVIDER  ADDRESS":"201 W Market St","PROVIDER ZIP 5 CD":19947,"PROVIDER ZIP 4 CD":"","PROVIDER PHONE NUM":3028562254,"PROVIDER PHONE EXT":"","PROGRAM YEAR":2011},"geometry":{"type":"Point","coordinates":[-75.38763,38.688635]}},{"type":"Feature","id":"5132dd62a288f42e6734dc71","properties":{"_id":"5132dd62a288f42e6734dc71","PROVIDER NPI":1700016169,"PROVIDER NAME":"Dawson, John","PROVIDER STATE":"Delaware","PROVIDER CITY":"Rehoboth Beach","PROVIDER  ADDRESS":"18958 Coastal Hwy","PROVIDER ZIP 5 CD":19971,"PROVIDER ZIP 4 CD":6196,"PROVIDER PHONE NUM":3026457672,"PROVIDER PHONE EXT":"","PROGRAM YEAR":2011},"geometry":{"type":"Point","coordinates":[-75.13168,38.729729]}},{"type":"Feature","id":"5132dd62a288f42e6734dc72","properties":{"_id":"5132dd62a288f42e6734dc72","PROVIDER NPI":1699713032,"PROVIDER NAME":"DE JESUS, VICTORINO","PROVIDER STATE":"Delaware","PROVIDER CITY":"SEAFORD","PROVIDER  ADDRESS":"1330 MIDDLEFORD ROAD, SUITE 301","PROVIDER ZIP 5 CD":19973,"PROVIDER ZIP 4 CD":3648,"PROVIDER PHONE NUM":3025367740,"PROVIDER PHONE EXT":"","PROGRAM YEAR":2011},"geometry":{"type":"Point","coordinates":[-75.597785,38.645568]}},{"type":"Feature","id":"5132dd62a288f42e6734dc73","properties":{"_id":"5132dd62a288f42e6734dc73","PROVIDER NPI":1508845132,"PROVIDER NAME":"DEDHIA, LAXMICHAND","PROVIDER STATE":"Delaware","PROVIDER CITY":"Middletown","PROVIDER  ADDRESS":"114 Sandhill Dr, STE 101","PROVIDER ZIP 5 CD":19709,"PROVIDER ZIP 4 CD":5805,"PROVIDER PHONE NUM":3023784779,"PROVIDER PHONE EXT":"","PROGRAM YEAR":2011},"geometry":{"type":"Point","coordinates":[-75.684598,39.711387]}},{"type":"Feature","id":"5132dd62a288f42e6734dc74","properties":{"_id":"5132dd62a288f42e6734dc74","PROVIDER NPI":1255659140,"PROVIDER NAME":"DelCampo, Nicholas","PROVIDER STATE":"Delaware","PROVIDER CITY":"Rehoboth Beach","PROVIDER  ADDRESS":"18585 Coastal Hwy, Unit 26 Midway","PROVIDER ZIP 5 CD":19971,"PROVIDER ZIP 4 CD":6147,"PROVIDER PHONE NUM":3026456681,"PROVIDER PHONE EXT":"","PROGRAM YEAR":2011},"geometry":{"type":"Point","coordinates":[-75.140569,38.736156]}},{"type":"Feature","id":"5132dd62a288f42e6734dc75","properties":{"_id":"5132dd62a288f42e6734dc75","PROVIDER NPI":1316908866,"PROVIDER NAME":"Delport, Elva","PROVIDER STATE":"Delaware","PROVIDER CITY":"Newark","PROVIDER  ADDRESS":"4735 Ogletown-Stanton Rd, Suite 3302","PROVIDER ZIP 5 CD":19713,"PROVIDER ZIP 4 CD":"","PROVIDER PHONE NUM":3026234144,"PROVIDER PHONE EXT":"","PROGRAM YEAR":2011},"geometry":{"type":"Point","coordinates":[-75.650691,39.701121]}},{"type":"Feature","id":"5132dd62a288f42e6734dc76","properties":{"_id":"5132dd62a288f42e6734dc76","PROVIDER NPI":1548265580,"PROVIDER NAME":"DeLuca, Catherine","PROVIDER STATE":"Delaware","PROVIDER CITY":"Lewes","PROVIDER  ADDRESS":"20251 John J Williams Hwy","PROVIDER ZIP 5 CD":19958,"PROVIDER ZIP 4 CD":4314,"PROVIDER PHONE NUM":3026446860,"PROVIDER PHONE EXT":"","PROGRAM YEAR":2011},"geometry":{"type":"Point","coordinates":[-75.160495,38.70423]}},{"type":"Feature","id":"5132dd62a288f42e6734dc77","properties":{"_id":"5132dd62a288f42e6734dc77","PROVIDER NPI":1497712657,"PROVIDER NAME":"DeMeo, Gregory","PROVIDER STATE":"Delaware","PROVIDER CITY":"Newark","PROVIDER  ADDRESS":"4745 Ogletown Stanton Rd, Suite 106","PROVIDER ZIP 5 CD":19713,"PROVIDER ZIP 4 CD":2067,"PROVIDER PHONE NUM":3024549800,"PROVIDER PHONE EXT":"","PROGRAM YEAR":2011},"geometry":{"type":"Point","coordinates":[-75.650691,39.701121]}},{"type":"Feature","id":"5132dd62a288f42e6734dc78","properties":{"_id":"5132dd62a288f42e6734dc78","PROVIDER NPI":1902817018,"PROVIDER NAME":"DeMichele, Andrew","PROVIDER STATE":"Delaware","PROVIDER CITY":"Wilmington","PROVIDER  ADDRESS":"1500 Shallcross Ave, Ste 1A","PROVIDER ZIP 5 CD":19806,"PROVIDER ZIP 4 CD":"","PROVIDER PHONE NUM":3026526050,"PROVIDER PHONE EXT":"","PROGRAM YEAR":2011},"geometry":{"type":"Point","coordinates":[-75.558484,39.757455]}},{"type":"Feature","id":"5132dd62a288f42e6734dc79","properties":{"_id":"5132dd62a288f42e6734dc79","PROVIDER NPI":1407805856,"PROVIDER NAME":"DePietro, Michael","PROVIDER STATE":"Delaware","PROVIDER CITY":"Newark","PROVIDER  ADDRESS":"4745 Ogletown Stanton Rd, MAP 1, Suite 220","PROVIDER ZIP 5 CD":19713,"PROVIDER ZIP 4 CD":2067,"PROVIDER PHONE NUM":3023685515,"PROVIDER PHONE EXT":"","PROGRAM YEAR":2011},"geometry":{"type":"Point","coordinates":[-75.679873,39.68676]}},{"type":"Feature","id":"5132dd62a288f42e6734dc7a","properties":{"_id":"5132dd62a288f42e6734dc7a","PROVIDER NPI":1245213933,"PROVIDER NAME":"diehl, kristine","PROVIDER STATE":"Delaware","PROVIDER CITY":"Wilmington","PROVIDER  ADDRESS":"2700 Silverside Rd, Suite #2","PROVIDER ZIP 5 CD":19810,"PROVIDER ZIP 4 CD":3719,"PROVIDER PHONE NUM":3024788421,"PROVIDER PHONE EXT":"","PROGRAM YEAR":2011},"geometry":{"type":"Point","coordinates":[-75.521176,39.811878]}},{"type":"Feature","id":"5132dd62a288f42e6734dc7b","properties":{"_id":"5132dd62a288f42e6734dc7b","PROVIDER NPI":1902078074,"PROVIDER NAME":"DiSalvo, Carmelo","PROVIDER STATE":"Delaware","PROVIDER CITY":"Lewes","PROVIDER  ADDRESS":"20251 John J Williams Hwy","PROVIDER ZIP 5 CD":19958,"PROVIDER ZIP 4 CD":4314,"PROVIDER PHONE NUM":3026446860,"PROVIDER PHONE EXT":"","PROGRAM YEAR":2011},"geometry":{"type":"Point","coordinates":[-75.160495,38.70423]}},{"type":"Feature","id":"5132dd62a288f42e6734dc7c","properties":{"_id":"5132dd62a288f42e6734dc7c","PROVIDER NPI":1760536262,"PROVIDER NAME":"Dixit-Patel, Priyanka","PROVIDER STATE":"Delaware","PROVIDER CITY":"Middletown","PROVIDER  ADDRESS":"114 Sandhill Drive, Suite 101","PROVIDER ZIP 5 CD":19709,"PROVIDER ZIP 4 CD":"","PROVIDER PHONE NUM":3023784779,"PROVIDER PHONE EXT":"","PROGRAM YEAR":2011},"geometry":{"type":"Point","coordinates":[-75.707397,39.72272]}},{"type":"Feature","id":"5132dd62a288f42e6734dc7d","properties":{"_id":"5132dd62a288f42e6734dc7d","PROVIDER NPI":1861535544,"PROVIDER NAME":"Domingo, Ronaldo","PROVIDER STATE":"Delaware","PROVIDER CITY":"Newark","PROVIDER  ADDRESS":"620 Christiana Med Ctr","PROVIDER ZIP 5 CD":19702,"PROVIDER ZIP 4 CD":"","PROVIDER PHONE NUM":3027315548,"PROVIDER PHONE EXT":"","PROGRAM YEAR":2011},"geometry":{"type":"Point","coordinates":[-75.658952,39.676956]}},{"type":"Feature","id":"5132dd62a288f42e6734dc7e","properties":{"_id":"5132dd62a288f42e6734dc7e","PROVIDER NPI":1992860027,"PROVIDER NAME":"Dopler, Bruce","PROVIDER STATE":"Delaware","PROVIDER CITY":"Seaford","PROVIDER  ADDRESS":"24488 Sussex Highway, Unit  6","PROVIDER ZIP 5 CD":19973,"PROVIDER ZIP 4 CD":8470,"PROVIDER PHONE NUM":3026287730,"PROVIDER PHONE EXT":"","PROGRAM YEAR":2011},"geometry":{"type":"Point","coordinates":[-75.600105,38.634307]}},{"type":"Feature","id":"5132dd62a288f42e6734dc7f","properties":{"_id":"5132dd62a288f42e6734dc7f","PROVIDER NPI":1922005255,"PROVIDER NAME":"Dowling, Sally","PROVIDER STATE":"Delaware","PROVIDER CITY":"Selbyville","PROVIDER  ADDRESS":"15 N Williams St","PROVIDER ZIP 5 CD":19975,"PROVIDER ZIP 4 CD":9659,"PROVIDER PHONE NUM":3024368004,"PROVIDER PHONE EXT":"","PROGRAM YEAR":2011},"geometry":{"type":"Point","coordinates":[-75.220977,38.462515]}},{"type":"Feature","id":"5132dd62a288f42e6734dc80","properties":{"_id":"5132dd62a288f42e6734dc80","PROVIDER NPI":1922203116,"PROVIDER NAME":"Dubey, Aditya","PROVIDER STATE":"Delaware","PROVIDER CITY":"Dover","PROVIDER  ADDRESS":"807 S Bradford St","PROVIDER ZIP 5 CD":19904,"PROVIDER ZIP 4 CD":"","PROVIDER PHONE NUM":3026747155,"PROVIDER PHONE EXT":"","PROGRAM YEAR":2011},"geometry":{"type":"Point","coordinates":[-75.523705,39.149964]}},{"type":"Feature","id":"5132dd62a288f42e6734dc81","properties":{"_id":"5132dd62a288f42e6734dc81","PROVIDER NPI":1083811541,"PROVIDER NAME":"Dwyer, Travis","PROVIDER STATE":"Delaware","PROVIDER CITY":"Wilmington","PROVIDER  ADDRESS":"1010 N Bancroft Pkwy","PROVIDER ZIP 5 CD":19805,"PROVIDER ZIP 4 CD":2690,"PROVIDER PHONE NUM":3026581129,"PROVIDER PHONE EXT":"","PROGRAM YEAR":2011},"geometry":{"type":"Point","coordinates":[-75.571346,39.755526]}},{"type":"Feature","id":"5132dd62a288f42e6734dc82","properties":{"_id":"5132dd62a288f42e6734dc82","PROVIDER NPI":1467487827,"PROVIDER NAME":"Earl, Karen","PROVIDER STATE":"Delaware","PROVIDER CITY":"Newark","PROVIDER  ADDRESS":"4735 Ogletown Stanton Rd, Suite 2300","PROVIDER ZIP 5 CD":19713,"PROVIDER ZIP 4 CD":2072,"PROVIDER PHONE NUM":3022248400,"PROVIDER PHONE EXT":"","PROGRAM YEAR":2011},"geometry":{"type":"Point","coordinates":[-75.650691,39.701121]}},{"type":"Feature","id":"5132dd62a288f42e6734dc83","properties":{"_id":"5132dd62a288f42e6734dc83","PROVIDER NPI":1104820620,"PROVIDER NAME":"EASTER, J","PROVIDER STATE":"Delaware","PROVIDER CITY":"Dover","PROVIDER  ADDRESS":"720 S Queen St","PROVIDER ZIP 5 CD":19904,"PROVIDER ZIP 4 CD":3567,"PROVIDER PHONE NUM":3027358705,"PROVIDER PHONE EXT":"","PROGRAM YEAR":2011},"geometry":{"type":"Point","coordinates":[-75.528386,39.151027]}},{"type":"Feature","id":"5132dd62a288f42e6734dc84","properties":{"_id":"5132dd62a288f42e6734dc84","PROVIDER NPI":1871577288,"PROVIDER NAME":"Edmondson, G.","PROVIDER STATE":"Delaware","PROVIDER CITY":"Milford","PROVIDER  ADDRESS":"310 Mullet Run","PROVIDER ZIP 5 CD":19963,"PROVIDER ZIP 4 CD":5371,"PROVIDER PHONE NUM":3024240600,"PROVIDER PHONE EXT":"","PROGRAM YEAR":2011},"geometry":{"type":"Point","coordinates":[-75.461325,38.938741]}},{"type":"Feature","id":"5132dd62a288f42e6734dc85","properties":{"_id":"5132dd62a288f42e6734dc85","PROVIDER NPI":1871577189,"PROVIDER NAME":"Edmondson, Loretta","PROVIDER STATE":"Delaware","PROVIDER CITY":"Milford","PROVIDER  ADDRESS":"310 Mullet Run","PROVIDER ZIP 5 CD":19963,"PROVIDER ZIP 4 CD":5371,"PROVIDER PHONE NUM":3024240600,"PROVIDER PHONE EXT":"","PROGRAM YEAR":2011},"geometry":{"type":"Point","coordinates":[-75.461325,38.938741]}},{"type":"Feature","id":"5132dd62a288f42e6734dc86","properties":{"_id":"5132dd62a288f42e6734dc86","PROVIDER NPI":1801900816,"PROVIDER NAME":"Elener, Valerie","PROVIDER STATE":"Delaware","PROVIDER CITY":"Wilmington","PROVIDER  ADDRESS":"2500 Grubb Rd, Suite 212","PROVIDER ZIP 5 CD":19810,"PROVIDER ZIP 4 CD":"","PROVIDER PHONE NUM":3024755000,"PROVIDER PHONE EXT":"","PROGRAM YEAR":2011},"geometry":{"type":"Point","coordinates":[-75.509264,39.817519]}},{"type":"Feature","id":"5132dd62a288f42e6734dc87","properties":{"_id":"5132dd62a288f42e6734dc87","PROVIDER NPI":1275533135,"PROVIDER NAME":"Estock, David","PROVIDER STATE":"Delaware","PROVIDER CITY":"Wilmington","PROVIDER  ADDRESS":"1403 Foulk Rd, Suite 105","PROVIDER ZIP 5 CD":19803,"PROVIDER ZIP 4 CD":2788,"PROVIDER PHONE NUM":3024790100,"PROVIDER PHONE EXT":"","PROGRAM YEAR":2011},"geometry":{"type":"Point","coordinates":[-75.522009,39.801074]}},{"type":"Feature","id":"5132dd62a288f42e6734dc88","properties":{"_id":"5132dd62a288f42e6734dc88","PROVIDER NPI":1700036241,"PROVIDER NAME":"Evangelista, Mark","PROVIDER STATE":"Delaware","PROVIDER CITY":"Seaford","PROVIDER  ADDRESS":"1501 Middleford Rd","PROVIDER ZIP 5 CD":19973,"PROVIDER ZIP 4 CD":3615,"PROVIDER PHONE NUM":3026296611,"PROVIDER PHONE EXT":"","PROGRAM YEAR":2011},"geometry":{"type":"Point","coordinates":[-75.593217,38.648759]}},{"type":"Feature","id":"5132dd62a288f42e6734dc89","properties":{"_id":"5132dd62a288f42e6734dc89","PROVIDER NPI":1942329354,"PROVIDER NAME":"Evans, Kirk","PROVIDER STATE":"Delaware","PROVIDER CITY":"Newark","PROVIDER  ADDRESS":"1 Centurian Dr, Ste 310B","PROVIDER ZIP 5 CD":19713,"PROVIDER ZIP 4 CD":2137,"PROVIDER PHONE NUM":3029186335,"PROVIDER PHONE EXT":"","PROGRAM YEAR":2011},"geometry":{"type":"Point","coordinates":[-75.780385,39.652189]}},{"type":"Feature","id":"5132dd62a288f42e6734dc8a","properties":{"_id":"5132dd62a288f42e6734dc8a","PROVIDER NPI":1629036728,"PROVIDER NAME":"Feehery, Raymond","PROVIDER STATE":"Delaware","PROVIDER CITY":"Newark","PROVIDER  ADDRESS":"620 Stanton Christiana Rd, Suite 303","PROVIDER ZIP 5 CD":19713,"PROVIDER ZIP 4 CD":2133,"PROVIDER PHONE NUM":3029998511,"PROVIDER PHONE EXT":"","PROGRAM YEAR":2011},"geometry":{"type":"Point","coordinates":[-75.650691,39.701121]}},{"type":"Feature","id":"5132dd62a288f42e6734dc8b","properties":{"_id":"5132dd62a288f42e6734dc8b","PROVIDER NPI":1386612844,"PROVIDER NAME":"fields, joann","PROVIDER STATE":"Delaware","PROVIDER CITY":"Felton","PROVIDER  ADDRESS":"2 E High St, PO Box 615","PROVIDER ZIP 5 CD":19943,"PROVIDER ZIP 4 CD":7306,"PROVIDER PHONE NUM":3022841169,"PROVIDER PHONE EXT":"","PROGRAM YEAR":2011},"geometry":{"type":"Point","coordinates":[-75.567703,39.007058]}},{"type":"Feature","id":"5132dd62a288f42e6734dc8c","properties":{"_id":"5132dd62a288f42e6734dc8c","PROVIDER NPI":1528138187,"PROVIDER NAME":"FILIPPONE, MARCIANA","PROVIDER STATE":"Delaware","PROVIDER CITY":"Newark","PROVIDER  ADDRESS":"4745 Ogletown Stanton Rd, MAP 1, SUITE 134","PROVIDER ZIP 5 CD":19713,"PROVIDER ZIP 4 CD":2067,"PROVIDER PHONE NUM":3027385300,"PROVIDER PHONE EXT":"","PROGRAM YEAR":2011},"geometry":{"type":"Point","coordinates":[-75.679873,39.68676]}},{"type":"Feature","id":"5132dd62a288f42e6734dc8d","properties":{"_id":"5132dd62a288f42e6734dc8d","PROVIDER NPI":1255338844,"PROVIDER NAME":"Fink, David","PROVIDER STATE":"Delaware","PROVIDER CITY":"Newark","PROVIDER  ADDRESS":"4745 Ogletown-Stanton, Ste 105","PROVIDER ZIP 5 CD":19713,"PROVIDER ZIP 4 CD":2143,"PROVIDER PHONE NUM":3023683257,"PROVIDER PHONE EXT":"","PROGRAM YEAR":2011},"geometry":{"type":"Point","coordinates":[-75.650691,39.701121]}},{"type":"Feature","id":"5132dd62a288f42e6734dc8e","properties":{"_id":"5132dd62a288f42e6734dc8e","PROVIDER NPI":1366608580,"PROVIDER NAME":"FRUMENTO, PAUL","PROVIDER STATE":"Delaware","PROVIDER CITY":"WILMINGTON","PROVIDER  ADDRESS":"1010 NORTH BANCROFT PARKWAY, SUITE 12","PROVIDER ZIP 5 CD":19805,"PROVIDER ZIP 4 CD":"","PROVIDER PHONE NUM":3026581128,"PROVIDER PHONE EXT":"","PROGRAM YEAR":2011},"geometry":{"type":"Point","coordinates":[-75.571823,39.757604]}},{"type":"Feature","id":"5132dd62a288f42e6734dc8f","properties":{"_id":"5132dd62a288f42e6734dc8f","PROVIDER NPI":1700853603,"PROVIDER NAME":"Furey, Anthony","PROVIDER STATE":"Delaware","PROVIDER CITY":"Newark","PROVIDER  ADDRESS":"One Centurian Drive, Suite 200","PROVIDER ZIP 5 CD":19713,"PROVIDER ZIP 4 CD":"","PROVIDER PHONE NUM":3023668600,"PROVIDER PHONE EXT":5658,"PROGRAM YEAR":2011},"geometry":{"type":"Point","coordinates":[-75.650581,39.60926]}},{"type":"Feature","id":"5132dd62a288f42e6734dc90","properties":{"_id":"5132dd62a288f42e6734dc90","PROVIDER NPI":1306834585,"PROVIDER NAME":"Garcia, Luis","PROVIDER STATE":"Delaware","PROVIDER CITY":"Wilmington","PROVIDER  ADDRESS":"1941 Limestone Rd, Suite 208","PROVIDER ZIP 5 CD":19808,"PROVIDER ZIP 4 CD":5400,"PROVIDER PHONE NUM":3029945956,"PROVIDER PHONE EXT":205,"PROGRAM YEAR":2011},"geometry":{"type":"Point","coordinates":[-75.671356,39.733117]}},{"type":"Feature","id":"5132dd62a288f42e6734dc91","properties":{"_id":"5132dd62a288f42e6734dc91","PROVIDER NPI":1821035650,"PROVIDER NAME":"Garg, Manish","PROVIDER STATE":"Delaware","PROVIDER CITY":"Wilmington","PROVIDER  ADDRESS":"2006 Limestone Rd, Suite 7","PROVIDER ZIP 5 CD":19808,"PROVIDER ZIP 4 CD":5553,"PROVIDER PHONE NUM":3023552383,"PROVIDER PHONE EXT":"","PROGRAM YEAR":2011},"geometry":{"type":"Point","coordinates":[-75.653276,39.718458]}},{"type":"Feature","id":"5132dd62a288f42e6734dc92","properties":{"_id":"5132dd62a288f42e6734dc92","PROVIDER NPI":1912006552,"PROVIDER NAME":"Gbemudu, Yvette","PROVIDER STATE":"Delaware","PROVIDER CITY":"Wilmington","PROVIDER  ADDRESS":"1100 S Broom St","PROVIDER ZIP 5 CD":19805,"PROVIDER ZIP 4 CD":4585,"PROVIDER PHONE NUM":3026565416,"PROVIDER PHONE EXT":"","PROGRAM YEAR":2011},"geometry":{"type":"Point","coordinates":[-75.572668,39.736207]}},{"type":"Feature","id":"5132dd62a288f42e6734dc93","properties":{"_id":"5132dd62a288f42e6734dc93","PROVIDER NPI":1750344784,"PROVIDER NAME":"Geracimos, Eva","PROVIDER STATE":"Delaware","PROVIDER CITY":"Wilmington","PROVIDER  ADDRESS":"5311 Limestone Rd, Suite 201","PROVIDER ZIP 5 CD":19808,"PROVIDER ZIP 4 CD":1258,"PROVIDER PHONE NUM":3022349109,"PROVIDER PHONE EXT":"","PROGRAM YEAR":2011},"geometry":{"type":"Point","coordinates":[-75.667653,39.730376]}},{"type":"Feature","id":"5132dd62a288f42e6734dc94","properties":{"_id":"5132dd62a288f42e6734dc94","PROVIDER NPI":1326008509,"PROVIDER NAME":"Girard, Donald","PROVIDER STATE":"Delaware","PROVIDER CITY":"Wilmington","PROVIDER  ADDRESS":"5211 W Woodmill Dr, Suite 36","PROVIDER ZIP 5 CD":19808,"PROVIDER ZIP 4 CD":4068,"PROVIDER PHONE NUM":3026335755,"PROVIDER PHONE EXT":"","PROGRAM YEAR":2011},"geometry":{"type":"Point","coordinates":[-75.668617,39.718337]}},{"type":"Feature","id":"5132dd62a288f42e6734dc95","properties":{"_id":"5132dd62a288f42e6734dc95","PROVIDER NPI":1316944663,"PROVIDER NAME":"Glowacki, P.","PROVIDER STATE":"Delaware","PROVIDER CITY":"Newark","PROVIDER  ADDRESS":"2600 Glasgow Ave, Suite 124","PROVIDER ZIP 5 CD":19702,"PROVIDER ZIP 4 CD":4777,"PROVIDER PHONE NUM":3028364200,"PROVIDER PHONE EXT":"","PROGRAM YEAR":2011},"geometry":{"type":"Point","coordinates":[-75.742192,39.596316]}},{"type":"Feature","id":"5132dd62a288f42e6734dc96","properties":{"_id":"5132dd62a288f42e6734dc96","PROVIDER NPI":1710937123,"PROVIDER NAME":"Goodill, John","PROVIDER STATE":"Delaware","PROVIDER CITY":"Newark","PROVIDER  ADDRESS":"4745 Ogletown Stanton Rd, MAP 1, Suite 220","PROVIDER ZIP 5 CD":19713,"PROVIDER ZIP 4 CD":2067,"PROVIDER PHONE NUM":3023685515,"PROVIDER PHONE EXT":"","PROGRAM YEAR":2011},"geometry":{"type":"Point","coordinates":[-75.679873,39.68676]}},{"type":"Feature","id":"5132dd62a288f42e6734dc97","properties":{"_id":"5132dd62a288f42e6734dc97","PROVIDER NPI":1962662122,"PROVIDER NAME":"Goodman, Katy","PROVIDER STATE":"Delaware","PROVIDER CITY":"Wilmington","PROVIDER  ADDRESS":"1100 S Broom St","PROVIDER ZIP 5 CD":19805,"PROVIDER ZIP 4 CD":4585,"PROVIDER PHONE NUM":3026565416,"PROVIDER PHONE EXT":"","PROGRAM YEAR":2011},"geometry":{"type":"Point","coordinates":[-75.572668,39.736207]}},{"type":"Feature","id":"5132dd62a288f42e6734dc98","properties":{"_id":"5132dd62a288f42e6734dc98","PROVIDER NPI":1285631515,"PROVIDER NAME":"Goodman, Ronald","PROVIDER STATE":"Delaware","PROVIDER CITY":"Wilmington","PROVIDER  ADDRESS":"1320 Philadelphia Pike","PROVIDER ZIP 5 CD":19809,"PROVIDER ZIP 4 CD":1818,"PROVIDER PHONE NUM":3027980666,"PROVIDER PHONE EXT":"","PROGRAM YEAR":2011},"geometry":{"type":"Point","coordinates":[-75.482747,39.781732]}},{"type":"Feature","id":"5132dd62a288f42e6734dc99","properties":{"_id":"5132dd62a288f42e6734dc99","PROVIDER NPI":1225076375,"PROVIDER NAME":"Gorgui, Khalil","PROVIDER STATE":"Delaware","PROVIDER CITY":"Delmar","PROVIDER  ADDRESS":"8 E Grove St","PROVIDER ZIP 5 CD":19940,"PROVIDER ZIP 4 CD":1115,"PROVIDER PHONE NUM":3028460618,"PROVIDER PHONE EXT":"","PROGRAM YEAR":2011},"geometry":{"type":"Point","coordinates":[-75.577787,38.456892]}},{"type":"Feature","id":"5132dd62a288f42e6734dc9a","properties":{"_id":"5132dd62a288f42e6734dc9a","PROVIDER NPI":1033140116,"PROVIDER NAME":"Goshow-Harris, Joanne","PROVIDER STATE":"Delaware","PROVIDER CITY":"Newark","PROVIDER  ADDRESS":"4735 Ogletown Stanton Rd, Suite 2300","PROVIDER ZIP 5 CD":19713,"PROVIDER ZIP 4 CD":2072,"PROVIDER PHONE NUM":3022248400,"PROVIDER PHONE EXT":"","PROGRAM YEAR":2011},"geometry":{"type":"Point","coordinates":[-75.650691,39.701121]}},{"type":"Feature","id":"5132dd62a288f42e6734dc9b","properties":{"_id":"5132dd62a288f42e6734dc9b","PROVIDER NPI":1881698116,"PROVIDER NAME":"Grifasi, Richard","PROVIDER STATE":"Delaware","PROVIDER CITY":"Lewes","PROVIDER  ADDRESS":"17252 North Village Main Blvd.","PROVIDER ZIP 5 CD":19958,"PROVIDER ZIP 4 CD":"","PROVIDER PHONE NUM":3026441039,"PROVIDER PHONE EXT":"","PROGRAM YEAR":2011},"geometry":{"type":"Point","coordinates":[-75.169139,38.752382]}},{"type":"Feature","id":"5132dd62a288f42e6734dc9c","properties":{"_id":"5132dd62a288f42e6734dc9c","PROVIDER NPI":1891788519,"PROVIDER NAME":"Groll, Jerome","PROVIDER STATE":"Delaware","PROVIDER CITY":"Lewes","PROVIDER  ADDRESS":"34445 King Street Row","PROVIDER ZIP 5 CD":19958,"PROVIDER ZIP 4 CD":4787,"PROVIDER PHONE NUM":3026452833,"PROVIDER PHONE EXT":114,"PROGRAM YEAR":2011},"geometry":{"type":"Point","coordinates":[-75.119821,38.718754]}},{"type":"Feature","id":"5132dd62a288f42e6734dc9d","properties":{"_id":"5132dd62a288f42e6734dc9d","PROVIDER NPI":1295771939,"PROVIDER NAME":"Gross, Philip","PROVIDER STATE":"Delaware","PROVIDER CITY":"Dover","PROVIDER  ADDRESS":"820 Walker Road","PROVIDER ZIP 5 CD":19904,"PROVIDER ZIP 4 CD":"","PROVIDER PHONE NUM":3026783545,"PROVIDER PHONE EXT":"","PROGRAM YEAR":2011},"geometry":{"type":"Point","coordinates":[-75.544413,39.16977]}},{"type":"Feature","id":"5132dd62a288f42e6734dc9e","properties":{"_id":"5132dd62a288f42e6734dc9e","PROVIDER NPI":1386734143,"PROVIDER NAME":"Gruber, Harold","PROVIDER STATE":"Delaware","PROVIDER CITY":"Wilmington","PROVIDER  ADDRESS":"2018 Naamans Rd, Suite 1","PROVIDER ZIP 5 CD":19810,"PROVIDER ZIP 4 CD":2659,"PROVIDER PHONE NUM":3025287964,"PROVIDER PHONE EXT":"","PROGRAM YEAR":2011},"geometry":{"type":"Point","coordinates":[-75.498885,39.803498]}},{"type":"Feature","id":"5132dd62a288f42e6734dc9f","properties":{"_id":"5132dd62a288f42e6734dc9f","PROVIDER NPI":1487724068,"PROVIDER NAME":"HACKER, JOSEPH","PROVIDER STATE":"Delaware","PROVIDER CITY":"Newark","PROVIDER  ADDRESS":"4745 Ogletown Stanton Rd, MAP 1, SUITE 134","PROVIDER ZIP 5 CD":19713,"PROVIDER ZIP 4 CD":2067,"PROVIDER PHONE NUM":3027385300,"PROVIDER PHONE EXT":"","PROGRAM YEAR":2011},"geometry":{"type":"Point","coordinates":[-75.679873,39.68676]}},{"type":"Feature","id":"5132dd62a288f42e6734dca0","properties":{"_id":"5132dd62a288f42e6734dca0","PROVIDER NPI":1417954009,"PROVIDER NAME":"HALE, John","PROVIDER STATE":"Delaware","PROVIDER CITY":"Lewes","PROVIDER  ADDRESS":"1305 Savannah Rd, Suite 1","PROVIDER ZIP 5 CD":19958,"PROVIDER ZIP 4 CD":1514,"PROVIDER PHONE NUM":3026452281,"PROVIDER PHONE EXT":"","PROGRAM YEAR":2011},"geometry":{"type":"Point","coordinates":[-75.156191,38.746363]}},{"type":"Feature","id":"5132dd62a288f42e6734dca1","properties":{"_id":"5132dd62a288f42e6734dca1","PROVIDER NPI":1679557722,"PROVIDER NAME":"Hammer, Scott","PROVIDER STATE":"Delaware","PROVIDER CITY":"Milford","PROVIDER  ADDRESS":"119 Neurology Way","PROVIDER ZIP 5 CD":19963,"PROVIDER ZIP 4 CD":5368,"PROVIDER PHONE NUM":3024243900,"PROVIDER PHONE EXT":"","PROGRAM YEAR":2011},"geometry":{"type":"Point","coordinates":[-75.42797,38.91261]}},{"type":"Feature","id":"5132dd62a288f42e6734dca2","properties":{"_id":"5132dd62a288f42e6734dca2","PROVIDER NPI":1831196831,"PROVIDER NAME":"Hanlon, Jacob","PROVIDER STATE":"Delaware","PROVIDER CITY":"Dover","PROVIDER  ADDRESS":"642 S Queen St, Suite #103","PROVIDER ZIP 5 CD":19904,"PROVIDER ZIP 4 CD":3506,"PROVIDER PHONE NUM":3026749255,"PROVIDER PHONE EXT":"","PROGRAM YEAR":2011},"geometry":{"type":"Point","coordinates":[-75.561837,39.168393]}},{"type":"Feature","id":"5132dd62a288f42e6734dca3","properties":{"_id":"5132dd62a288f42e6734dca3","PROVIDER NPI":1033132915,"PROVIDER NAME":"Haranin, Michele","PROVIDER STATE":"Delaware","PROVIDER CITY":"Dover","PROVIDER  ADDRESS":"820 Walker Road","PROVIDER ZIP 5 CD":19904,"PROVIDER ZIP 4 CD":"","PROVIDER PHONE NUM":3026783545,"PROVIDER PHONE EXT":"","PROGRAM YEAR":2011},"geometry":{"type":"Point","coordinates":[-75.544413,39.16977]}},{"type":"Feature","id":"5132dd62a288f42e6734dca4","properties":{"_id":"5132dd62a288f42e6734dca4","PROVIDER NPI":1588648547,"PROVIDER NAME":"Hawkins, Mary","PROVIDER STATE":"Delaware","PROVIDER CITY":"Milford","PROVIDER  ADDRESS":"310 Mullet Run","PROVIDER ZIP 5 CD":19963,"PROVIDER ZIP 4 CD":5371,"PROVIDER PHONE NUM":3024240600,"PROVIDER PHONE EXT":"","PROGRAM YEAR":2011},"geometry":{"type":"Point","coordinates":[-75.461325,38.938741]}},{"type":"Feature","id":"5132dd62a288f42e6734dca5","properties":{"_id":"5132dd62a288f42e6734dca5","PROVIDER NPI":1548235799,"PROVIDER NAME":"Hawtof, Jeffrey","PROVIDER STATE":"Delaware","PROVIDER CITY":"Millsboro","PROVIDER  ADDRESS":"26744 John J Williams Hwy, Oak Orchard Prof Suite #3","PROVIDER ZIP 5 CD":19966,"PROVIDER ZIP 4 CD":4645,"PROVIDER PHONE NUM":3029479767,"PROVIDER PHONE EXT":209,"PROGRAM YEAR":2011},"geometry":{"type":"Point","coordinates":[-75.203607,38.613325]}},{"type":"Feature","id":"5132dd62a288f42e6734dca6","properties":{"_id":"5132dd62a288f42e6734dca6","PROVIDER NPI":1386649390,"PROVIDER NAME":"Heckert, Jeffrey","PROVIDER STATE":"Delaware","PROVIDER CITY":"Lewes","PROVIDER  ADDRESS":"20251 John J Williams Hwy","PROVIDER ZIP 5 CD":19958,"PROVIDER ZIP 4 CD":4314,"PROVIDER PHONE NUM":3026446860,"PROVIDER PHONE EXT":"","PROGRAM YEAR":2011},"geometry":{"type":"Point","coordinates":[-75.160495,38.70423]}},{"type":"Feature","id":"5132dd62a288f42e6734dca7","properties":{"_id":"5132dd62a288f42e6734dca7","PROVIDER NPI":1407811490,"PROVIDER NAME":"Helou, Beshara","PROVIDER STATE":"Delaware","PROVIDER CITY":"Georgetown","PROVIDER  ADDRESS":"20930 DuPont Blvd, Suite 101","PROVIDER ZIP 5 CD":19947,"PROVIDER ZIP 4 CD":1725,"PROVIDER PHONE NUM":3028563737,"PROVIDER PHONE EXT":"","PROGRAM YEAR":2011},"geometry":{"type":"Point","coordinates":[-75.380643,38.665835]}},{"type":"Feature","id":"5132dd62a288f42e6734dca8","properties":{"_id":"5132dd62a288f42e6734dca8","PROVIDER NPI":1720173057,"PROVIDER NAME":"Henry, Michael","PROVIDER STATE":"Delaware","PROVIDER CITY":"Wilmington","PROVIDER  ADDRESS":"1010 North Bancroft Parkway, Suite 12","PROVIDER ZIP 5 CD":19805,"PROVIDER ZIP 4 CD":2668,"PROVIDER PHONE NUM":3026581129,"PROVIDER PHONE EXT":"","PROGRAM YEAR":2011},"geometry":{"type":"Point","coordinates":[-75.571823,39.757604]}},{"type":"Feature","id":"5132dd62a288f42e6734dca9","properties":{"_id":"5132dd62a288f42e6734dca9","PROVIDER NPI":1992856785,"PROVIDER NAME":"Herrera, Ivonne","PROVIDER STATE":"Delaware","PROVIDER CITY":"Seaford","PROVIDER  ADDRESS":"1350 Middleford Road, Suite 502","PROVIDER ZIP 5 CD":19973,"PROVIDER ZIP 4 CD":"","PROVIDER PHONE NUM":3026288300,"PROVIDER PHONE EXT":"","PROGRAM YEAR":2011},"geometry":{"type":"Point","coordinates":[-75.597785,38.645568]}},{"type":"Feature","id":"5132dd62a288f42e6734dcaa","properties":{"_id":"5132dd62a288f42e6734dcaa","PROVIDER NPI":1417139122,"PROVIDER NAME":"Hobbs, Debra","PROVIDER STATE":"Delaware","PROVIDER CITY":"Lewes","PROVIDER  ADDRESS":"1520 Savannah Rd, Ste 2","PROVIDER ZIP 5 CD":19958,"PROVIDER ZIP 4 CD":1624,"PROVIDER PHONE NUM":"","PROVIDER PHONE EXT":"","PROGRAM YEAR":2011},"geometry":{"type":"Point","coordinates":[-75.141711,38.768895]}},{"type":"Feature","id":"5132dd62a288f42e6734dcab","properties":{"_id":"5132dd62a288f42e6734dcab","PROVIDER NPI":1982679924,"PROVIDER NAME":"HOCUTT, JOHN","PROVIDER STATE":"Delaware","PROVIDER CITY":"Wilmington","PROVIDER  ADDRESS":"3521 Silverside Rd, Quillen Building 2B","PROVIDER ZIP 5 CD":19810,"PROVIDER ZIP 4 CD":4900,"PROVIDER PHONE NUM":3024757800,"PROVIDER PHONE EXT":"","PROGRAM YEAR":2011},"geometry":{"type":"Point","coordinates":[-75.544509,39.808832]}},{"type":"Feature","id":"5132dd62a288f42e6734dcac","properties":{"_id":"5132dd62a288f42e6734dcac","PROVIDER NPI":1518922574,"PROVIDER NAME":"Horn, Brian","PROVIDER STATE":"Delaware","PROVIDER CITY":"Dover","PROVIDER  ADDRESS":"230 Beiser Blvd, Ste 200","PROVIDER ZIP 5 CD":19904,"PROVIDER ZIP 4 CD":7793,"PROVIDER PHONE NUM":3027351880,"PROVIDER PHONE EXT":"","PROGRAM YEAR":2011},"geometry":{"type":"Point","coordinates":[-75.623864,39.14241]}},{"type":"Feature","id":"5132dd62a288f42e6734dcad","properties":{"_id":"5132dd62a288f42e6734dcad","PROVIDER NPI":1326018631,"PROVIDER NAME":"HOSMANE, VINAY","PROVIDER STATE":"Delaware","PROVIDER CITY":"Newark","PROVIDER  ADDRESS":"G-39 Omega Drive","PROVIDER ZIP 5 CD":19713,"PROVIDER ZIP 4 CD":2079,"PROVIDER PHONE NUM":3027310001,"PROVIDER PHONE EXT":"","PROGRAM YEAR":2011},"geometry":{"type":"Point","coordinates":[-75.675657,39.690939]}},{"type":"Feature","id":"5132dd62a288f42e6734dcae","properties":{"_id":"5132dd62a288f42e6734dcae","PROVIDER NPI":1831289610,"PROVIDER NAME":"Hudak, Sandra","PROVIDER STATE":"Delaware","PROVIDER CITY":"Wilmington","PROVIDER  ADDRESS":"2018 Naamans Rd, suite #1","PROVIDER ZIP 5 CD":19810,"PROVIDER ZIP 4 CD":2659,"PROVIDER PHONE NUM":3025287964,"PROVIDER PHONE EXT":"","PROGRAM YEAR":2011},"geometry":{"type":"Point","coordinates":[-75.498885,39.803498]}},{"type":"Feature","id":"5132dd62a288f42e6734dcaf","properties":{"_id":"5132dd62a288f42e6734dcaf","PROVIDER NPI":1336216399,"PROVIDER NAME":"Hunt, Clifton","PROVIDER STATE":"Delaware","PROVIDER CITY":"Wilmington","PROVIDER  ADDRESS":"1941 Limestone Rd, Suite 108","PROVIDER ZIP 5 CD":19808,"PROVIDER ZIP 4 CD":5400,"PROVIDER PHONE NUM":3029997898,"PROVIDER PHONE EXT":"","PROGRAM YEAR":2011},"geometry":{"type":"Point","coordinates":[-75.671356,39.733117]}},{"type":"Feature","id":"5132dd62a288f42e6734dcb0","properties":{"_id":"5132dd62a288f42e6734dcb0","PROVIDER NPI":1346385507,"PROVIDER NAME":"Jacobson, Matthew","PROVIDER STATE":"Delaware","PROVIDER CITY":"Newark","PROVIDER  ADDRESS":"Total Care Physicians, Omega Prof Center, Omega Dr., Building B, Suite 89","PROVIDER ZIP 5 CD":19713,"PROVIDER ZIP 4 CD":"","PROVIDER PHONE NUM":3027385500,"PROVIDER PHONE EXT":"","PROGRAM YEAR":2011},"geometry":{"type":"Point","coordinates":[-75.724131,39.671647]}},{"type":"Feature","id":"5132dd62a288f42e6734dcb1","properties":{"_id":"5132dd62a288f42e6734dcb1","PROVIDER NPI":1275539033,"PROVIDER NAME":"Jaffe, Rebecca","PROVIDER STATE":"Delaware","PROVIDER CITY":"Wilmington","PROVIDER  ADDRESS":"3105 Limestone Rd, Ste 300","PROVIDER ZIP 5 CD":19808,"PROVIDER ZIP 4 CD":2156,"PROVIDER PHONE NUM":3029920200,"PROVIDER PHONE EXT":16,"PROGRAM YEAR":2011},"geometry":{"type":"Point","coordinates":[-75.671169,39.733285]}},{"type":"Feature","id":"5132dd62a288f42e6734dcb2","properties":{"_id":"5132dd62a288f42e6734dcb2","PROVIDER NPI":1871548693,"PROVIDER NAME":"Jani, Uday","PROVIDER STATE":"Delaware","PROVIDER CITY":"Milton","PROVIDER  ADDRESS":"28312 Lewes Georgetown Hwy","PROVIDER ZIP 5 CD":19968,"PROVIDER ZIP 4 CD":3115,"PROVIDER PHONE NUM":3026840990,"PROVIDER PHONE EXT":"","PROGRAM YEAR":2011},"geometry":{"type":"Point","coordinates":[-75.248508,38.73224]}},{"type":"Feature","id":"5132dd62a288f42e6734dcb3","properties":{"_id":"5132dd62a288f42e6734dcb3","PROVIDER NPI":1306828330,"PROVIDER NAME":"Jawahar, David","PROVIDER STATE":"Delaware","PROVIDER CITY":"Dover","PROVIDER  ADDRESS":"807 S Bradford St","PROVIDER ZIP 5 CD":19904,"PROVIDER ZIP 4 CD":"","PROVIDER PHONE NUM":3026747155,"PROVIDER PHONE EXT":"","PROGRAM YEAR":2011},"geometry":{"type":"Point","coordinates":[-75.523705,39.149964]}},{"type":"Feature","id":"5132dd62a288f42e6734dcb4","properties":{"_id":"5132dd62a288f42e6734dcb4","PROVIDER NPI":1235101676,"PROVIDER NAME":"Jones, Horatio","PROVIDER STATE":"Delaware","PROVIDER CITY":"Wilmington","PROVIDER  ADDRESS":"5311 Limestone Rd, Ste 201","PROVIDER ZIP 5 CD":19808,"PROVIDER ZIP 4 CD":"","PROVIDER PHONE NUM":3022249109,"PROVIDER PHONE EXT":"","PROGRAM YEAR":2011},"geometry":{"type":"Point","coordinates":[-75.699343,39.746017]}},{"type":"Feature","id":"5132dd62a288f42e6734dcb5","properties":{"_id":"5132dd62a288f42e6734dcb5","PROVIDER NPI":1366492746,"PROVIDER NAME":"Jones, Mark","PROVIDER STATE":"Delaware","PROVIDER CITY":"Newark","PROVIDER  ADDRESS":"4745 Ogletown Stanton Rd, MAP 1, Suite 220","PROVIDER ZIP 5 CD":19713,"PROVIDER ZIP 4 CD":2067,"PROVIDER PHONE NUM":3023685515,"PROVIDER PHONE EXT":"","PROGRAM YEAR":2011},"geometry":{"type":"Point","coordinates":[-75.679873,39.68676]}},{"type":"Feature","id":"5132dd62a288f42e6734dcb6","properties":{"_id":"5132dd62a288f42e6734dcb6","PROVIDER NPI":1487867917,"PROVIDER NAME":"Joshi, Madan","PROVIDER STATE":"Delaware","PROVIDER CITY":"Seaford","PROVIDER  ADDRESS":"801 Middleford Rd, Nanticoke Hospital","PROVIDER ZIP 5 CD":19973,"PROVIDER ZIP 4 CD":"","PROVIDER PHONE NUM":3026296611,"PROVIDER PHONE EXT":"","PROGRAM YEAR":2011},"geometry":{"type":"Point","coordinates":[-75.605333,38.642333]}},{"type":"Feature","id":"5132dd62a288f42e6734dcb7","properties":{"_id":"5132dd62a288f42e6734dcb7","PROVIDER NPI":1376514364,"PROVIDER NAME":"Kahlon, Randeep","PROVIDER STATE":"Delaware","PROVIDER CITY":"Newark","PROVIDER  ADDRESS":"4745 Ogletown Stanton Rd, Ste 225","PROVIDER ZIP 5 CD":19713,"PROVIDER ZIP 4 CD":"","PROVIDER PHONE NUM":3027312888,"PROVIDER PHONE EXT":"","PROGRAM YEAR":2011},"geometry":{"type":"Point","coordinates":[-75.650691,39.701121]}},{"type":"Feature","id":"5132dd62a288f42e6734dcb8","properties":{"_id":"5132dd62a288f42e6734dcb8","PROVIDER NPI":1285716043,"PROVIDER NAME":"Kahn, Andrea","PROVIDER STATE":"Delaware","PROVIDER CITY":"Seaford","PROVIDER  ADDRESS":"110 S North St","PROVIDER ZIP 5 CD":19973,"PROVIDER ZIP 4 CD":3508,"PROVIDER PHONE NUM":3026290656,"PROVIDER PHONE EXT":"","PROGRAM YEAR":2011},"geometry":{"type":"Point","coordinates":[-75.61448,38.639926]}},{"type":"Feature","id":"5132dd62a288f42e6734dcb9","properties":{"_id":"5132dd62a288f42e6734dcb9","PROVIDER NPI":1891877635,"PROVIDER NAME":"KAHN, FRED","PROVIDER STATE":"Delaware","PROVIDER CITY":"Seaford","PROVIDER  ADDRESS":"110 S North St","PROVIDER ZIP 5 CD":19973,"PROVIDER ZIP 4 CD":3508,"PROVIDER PHONE NUM":3026290656,"PROVIDER PHONE EXT":"","PROGRAM YEAR":2011},"geometry":{"type":"Point","coordinates":[-75.61448,38.639926]}},{"type":"Feature","id":"5132dd62a288f42e6734dcba","properties":{"_id":"5132dd62a288f42e6734dcba","PROVIDER NPI":1881650729,"PROVIDER NAME":"Karalis, Helen","PROVIDER STATE":"Delaware","PROVIDER CITY":"Wilmington","PROVIDER  ADDRESS":"1100 S Broom St","PROVIDER ZIP 5 CD":19805,"PROVIDER ZIP 4 CD":4585,"PROVIDER PHONE NUM":3026565416,"PROVIDER PHONE EXT":"","PROGRAM YEAR":2011},"geometry":{"type":"Point","coordinates":[-75.572668,39.736207]}},{"type":"Feature","id":"5132dd62a288f42e6734dcbb","properties":{"_id":"5132dd62a288f42e6734dcbb","PROVIDER NPI":1427002690,"PROVIDER NAME":"Karnish, Joseph","PROVIDER STATE":"Delaware","PROVIDER CITY":"Georgetown","PROVIDER  ADDRESS":"505B W Market St","PROVIDER ZIP 5 CD":19947,"PROVIDER ZIP 4 CD":2321,"PROVIDER PHONE NUM":3028567099,"PROVIDER PHONE EXT":"","PROGRAM YEAR":2011},"geometry":{"type":"Point","coordinates":[-75.393477,38.683676]}},{"type":"Feature","id":"5132dd62a288f42e6734dcbc","properties":{"_id":"5132dd62a288f42e6734dcbc","PROVIDER NPI":1497839419,"PROVIDER NAME":"Kehagias, Ioannis","PROVIDER STATE":"Delaware","PROVIDER CITY":"Middletown","PROVIDER  ADDRESS":"5246 Summit Bridge Rd","PROVIDER ZIP 5 CD":19709,"PROVIDER ZIP 4 CD":8822,"PROVIDER PHONE NUM":3023785494,"PROVIDER PHONE EXT":"","PROGRAM YEAR":2011},"geometry":{"type":"Point","coordinates":[-75.721115,39.468241]}},{"type":"Feature","id":"5132dd62a288f42e6734dcbd","properties":{"_id":"5132dd62a288f42e6734dcbd","PROVIDER NPI":1659303634,"PROVIDER NAME":"Kelly, John","PROVIDER STATE":"Delaware","PROVIDER CITY":"Newark","PROVIDER  ADDRESS":"One Centurian Drive, Suite 200","PROVIDER ZIP 5 CD":19713,"PROVIDER ZIP 4 CD":4168,"PROVIDER PHONE NUM":3023668600,"PROVIDER PHONE EXT":"","PROGRAM YEAR":2011},"geometry":{"type":"Point","coordinates":[-75.650581,39.60926]}},{"type":"Feature","id":"5132dd62a288f42e6734dcbe","properties":{"_id":"5132dd62a288f42e6734dcbe","PROVIDER NPI":1376599845,"PROVIDER NAME":"Kelly, Susan","PROVIDER STATE":"Delaware","PROVIDER CITY":"Lewes","PROVIDER  ADDRESS":"431 Savannah Rd","PROVIDER ZIP 5 CD":19958,"PROVIDER ZIP 4 CD":1460,"PROVIDER PHONE NUM":3026449080,"PROVIDER PHONE EXT":"","PROGRAM YEAR":2011},"geometry":{"type":"Point","coordinates":[-75.142483,38.771082]}},{"type":"Feature","id":"5132dd62a288f42e6734dcbf","properties":{"_id":"5132dd62a288f42e6734dcbf","PROVIDER NPI":1386693760,"PROVIDER NAME":"Kestner, Joseph","PROVIDER STATE":"Delaware","PROVIDER CITY":"Newark","PROVIDER  ADDRESS":"4745 Ogletown Stanton Rd, MAP 1, Suite 220","PROVIDER ZIP 5 CD":19713,"PROVIDER ZIP 4 CD":2067,"PROVIDER PHONE NUM":3023685515,"PROVIDER PHONE EXT":"","PROGRAM YEAR":2011},"geometry":{"type":"Point","coordinates":[-75.679873,39.68676]}},{"type":"Feature","id":"5132dd62a288f42e6734dcc0","properties":{"_id":"5132dd62a288f42e6734dcc0","PROVIDER NPI":1619972098,"PROVIDER NAME":"Killeen, Vincent","PROVIDER STATE":"Delaware","PROVIDER CITY":"Lewes","PROVIDER  ADDRESS":"1535 Savannah Rd","PROVIDER ZIP 5 CD":19958,"PROVIDER ZIP 4 CD":1611,"PROVIDER PHONE NUM":3026454700,"PROVIDER PHONE EXT":"","PROGRAM YEAR":2011},"geometry":{"type":"Point","coordinates":[-75.15898,38.755663]}},{"type":"Feature","id":"5132dd62a288f42e6734dcc1","properties":{"_id":"5132dd62a288f42e6734dcc1","PROVIDER NPI":1003877580,"PROVIDER NAME":"Kim, Nancy","PROVIDER STATE":"Delaware","PROVIDER CITY":"Newark","PROVIDER  ADDRESS":"4735 Ogletown-Stanton Rd, Suite 3302","PROVIDER ZIP 5 CD":19713,"PROVIDER ZIP 4 CD":"","PROVIDER PHONE NUM":3026234144,"PROVIDER PHONE EXT":"","PROGRAM YEAR":2011},"geometry":{"type":"Point","coordinates":[-75.650691,39.701121]}},{"type":"Feature","id":"5132dd62a288f42e6734dcc2","properties":{"_id":"5132dd62a288f42e6734dcc2","PROVIDER NPI":1932194701,"PROVIDER NAME":"Kim, Philip","PROVIDER STATE":"Delaware","PROVIDER CITY":"Newark","PROVIDER  ADDRESS":"4701 Ogletown Stanton Rd, Suite 2131","PROVIDER ZIP 5 CD":19713,"PROVIDER ZIP 4 CD":2055,"PROVIDER PHONE NUM":3022667800,"PROVIDER PHONE EXT":"","PROGRAM YEAR":2011},"geometry":{"type":"Point","coordinates":[-75.650691,39.701121]}},{"type":"Feature","id":"5132dd62a288f42e6734dcc3","properties":{"_id":"5132dd62a288f42e6734dcc3","PROVIDER NPI":1326047796,"PROVIDER NAME":"Kopecki, Robert","PROVIDER STATE":"Delaware","PROVIDER CITY":"Wilmington","PROVIDER  ADDRESS":"3105 Limestone Rd, Suite 301","PROVIDER ZIP 5 CD":19808,"PROVIDER ZIP 4 CD":2147,"PROVIDER PHONE NUM":3026331700,"PROVIDER PHONE EXT":"","PROGRAM YEAR":2011},"geometry":{"type":"Point","coordinates":[-75.671266,39.73248]}},{"type":"Feature","id":"5132dd62a288f42e6734dcc4","properties":{"_id":"5132dd62a288f42e6734dcc4","PROVIDER NPI":1215902275,"PROVIDER NAME":"Kramer, Hal","PROVIDER STATE":"Delaware","PROVIDER CITY":"Wilmington","PROVIDER  ADDRESS":"5311 Limestone Road, Ste 201","PROVIDER ZIP 5 CD":19808,"PROVIDER ZIP 4 CD":"","PROVIDER PHONE NUM":3022349109,"PROVIDER PHONE EXT":"","PROGRAM YEAR":2011},"geometry":{"type":"Point","coordinates":[-75.699343,39.746017]}},{"type":"Feature","id":"5132dd62a288f42e6734dcc5","properties":{"_id":"5132dd62a288f42e6734dcc5","PROVIDER NPI":1629017447,"PROVIDER NAME":"Krasner, David","PROVIDER STATE":"Delaware","PROVIDER CITY":"Wilmington","PROVIDER  ADDRESS":"1100 S Broom St","PROVIDER ZIP 5 CD":19805,"PROVIDER ZIP 4 CD":4585,"PROVIDER PHONE NUM":3026565416,"PROVIDER PHONE EXT":"","PROGRAM YEAR":2011},"geometry":{"type":"Point","coordinates":[-75.572668,39.736207]}},{"type":"Feature","id":"5132dd62a288f42e6734dcc6","properties":{"_id":"5132dd62a288f42e6734dcc6","PROVIDER NPI":1619970258,"PROVIDER NAME":"Kwan, Delbert","PROVIDER STATE":"Delaware","PROVIDER CITY":"Lewes","PROVIDER  ADDRESS":"34431 King Street Row","PROVIDER ZIP 5 CD":19958,"PROVIDER ZIP 4 CD":4787,"PROVIDER PHONE NUM":3026452666,"PROVIDER PHONE EXT":103,"PROGRAM YEAR":2011},"geometry":{"type":"Point","coordinates":[-75.119821,38.718754]}},{"type":"Feature","id":"5132dd62a288f42e6734dcc7","properties":{"_id":"5132dd62a288f42e6734dcc7","PROVIDER NPI":1063443133,"PROVIDER NAME":"Larkin, Molly","PROVIDER STATE":"Delaware","PROVIDER CITY":"Newark","PROVIDER  ADDRESS":"4735 Ogletown Stanton Rd, Suite 2300","PROVIDER ZIP 5 CD":19713,"PROVIDER ZIP 4 CD":2072,"PROVIDER PHONE NUM":3022248400,"PROVIDER PHONE EXT":"","PROGRAM YEAR":2011},"geometry":{"type":"Point","coordinates":[-75.650691,39.701121]}},{"type":"Feature","id":"5132dd62a288f42e6734dcc8","properties":{"_id":"5132dd62a288f42e6734dcc8","PROVIDER NPI":1912921149,"PROVIDER NAME":"Larson, James","PROVIDER STATE":"Delaware","PROVIDER CITY":"Newark","PROVIDER  ADDRESS":"537 Stanton Christiana Rd., Suite 210","PROVIDER ZIP 5 CD":19713,"PROVIDER ZIP 4 CD":2081,"PROVIDER PHONE NUM":3026830600,"PROVIDER PHONE EXT":"","PROGRAM YEAR":2011},"geometry":{"type":"Point","coordinates":[-75.650691,39.701121]}},{"type":"Feature","id":"5132dd62a288f42e6734dcc9","properties":{"_id":"5132dd62a288f42e6734dcc9","PROVIDER NPI":1912964446,"PROVIDER NAME":"LaRue, Lori","PROVIDER STATE":"Delaware","PROVIDER CITY":"Wilmington","PROVIDER  ADDRESS":"2106 Silverside Rd, Suite 102","PROVIDER ZIP 5 CD":19810,"PROVIDER ZIP 4 CD":4162,"PROVIDER PHONE NUM":3024788099,"PROVIDER PHONE EXT":"","PROGRAM YEAR":2011},"geometry":{"type":"Point","coordinates":[-75.503884,39.801465]}},{"type":"Feature","id":"5132dd62a288f42e6734dcca","properties":{"_id":"5132dd62a288f42e6734dcca","PROVIDER NPI":1093726101,"PROVIDER NAME":"Lawrence, Matthew","PROVIDER STATE":"Delaware","PROVIDER CITY":"Wilmington","PROVIDER  ADDRESS":"1500 Shallcross Ave, Ste 1A","PROVIDER ZIP 5 CD":19806,"PROVIDER ZIP 4 CD":"","PROVIDER PHONE NUM":3026526050,"PROVIDER PHONE EXT":"","PROGRAM YEAR":2011},"geometry":{"type":"Point","coordinates":[-75.558484,39.757455]}},{"type":"Feature","id":"5132dd62a288f42e6734dccb","properties":{"_id":"5132dd62a288f42e6734dccb","PROVIDER NPI":1912068529,"PROVIDER NAME":"LEE, STEPHANIE","PROVIDER STATE":"Delaware","PROVIDER CITY":"NEWARK","PROVIDER  ADDRESS":"C78 80 OMEGA DRIVE","PROVIDER ZIP 5 CD":19713,"PROVIDER ZIP 4 CD":"","PROVIDER PHONE NUM":3023682883,"PROVIDER PHONE EXT":"","PROGRAM YEAR":2011},"geometry":{"type":"Point","coordinates":[-75.675786,39.691121]}},{"type":"Feature","id":"5132dd62a288f42e6734dccc","properties":{"_id":"5132dd62a288f42e6734dccc","PROVIDER NPI":1245335553,"PROVIDER NAME":"Lehman, Thomas","PROVIDER STATE":"Delaware","PROVIDER CITY":"Wilmington","PROVIDER  ADDRESS":"1205 Delaware Avenue","PROVIDER ZIP 5 CD":19806,"PROVIDER ZIP 4 CD":"","PROVIDER PHONE NUM":3026568083,"PROVIDER PHONE EXT":"","PROGRAM YEAR":2011},"geometry":{"type":"Point","coordinates":[-75.557639,39.753668]}},{"type":"Feature","id":"5132dd62a288f42e6734dccd","properties":{"_id":"5132dd62a288f42e6734dccd","PROVIDER NPI":1902835770,"PROVIDER NAME":"Leidig, Gilbert","PROVIDER STATE":"Delaware","PROVIDER CITY":"Newark","PROVIDER  ADDRESS":"1 Centurian Dr, Suite 200","PROVIDER ZIP 5 CD":19713,"PROVIDER ZIP 4 CD":2137,"PROVIDER PHONE NUM":3023668600,"PROVIDER PHONE EXT":"","PROGRAM YEAR":2011},"geometry":{"type":"Point","coordinates":[-75.708385,39.721955]}},{"type":"Feature","id":"5132dd62a288f42e6734dcce","properties":{"_id":"5132dd62a288f42e6734dcce","PROVIDER NPI":1891725156,"PROVIDER NAME":"Liarakos, George","PROVIDER STATE":"Delaware","PROVIDER CITY":"Newark","PROVIDER  ADDRESS":"4745 Ogletown Stanton Rd, MAP1, Suite 207","PROVIDER ZIP 5 CD":19713,"PROVIDER ZIP 4 CD":2067,"PROVIDER PHONE NUM":3023689000,"PROVIDER PHONE EXT":"","PROGRAM YEAR":2011},"geometry":{"type":"Point","coordinates":[-75.679873,39.68676]}},{"type":"Feature","id":"5132dd62a288f42e6734dccf","properties":{"_id":"5132dd62a288f42e6734dccf","PROVIDER NPI":1144390857,"PROVIDER NAME":"LOBIS, IRA","PROVIDER STATE":"Delaware","PROVIDER CITY":"Newark","PROVIDER  ADDRESS":"4745 Ogletown Stanton Rd, MAP 1, SUITE 134","PROVIDER ZIP 5 CD":19713,"PROVIDER ZIP 4 CD":2067,"PROVIDER PHONE NUM":3027385300,"PROVIDER PHONE EXT":"","PROGRAM YEAR":2011},"geometry":{"type":"Point","coordinates":[-75.679873,39.68676]}},{"type":"Feature","id":"5132dd62a288f42e6734dcd0","properties":{"_id":"5132dd62a288f42e6734dcd0","PROVIDER NPI":1831119189,"PROVIDER NAME":"Long, Vandana","PROVIDER STATE":"Delaware","PROVIDER CITY":"Newark","PROVIDER  ADDRESS":"4745 Ogletown Stanton Road, MAP 1, Suite 134","PROVIDER ZIP 5 CD":19713,"PROVIDER ZIP 4 CD":"","PROVIDER PHONE NUM":3027385300,"PROVIDER PHONE EXT":"","PROGRAM YEAR":2011},"geometry":{"type":"Point","coordinates":[-75.679873,39.68676]}},{"type":"Feature","id":"5132dd62a288f42e6734dcd1","properties":{"_id":"5132dd62a288f42e6734dcd1","PROVIDER NPI":1093892812,"PROVIDER NAME":"Lynch, John","PROVIDER STATE":"Delaware","PROVIDER CITY":"Laurel","PROVIDER  ADDRESS":"116 E Front St, Suite B","PROVIDER ZIP 5 CD":19956,"PROVIDER ZIP 4 CD":1722,"PROVIDER PHONE NUM":3028751048,"PROVIDER PHONE EXT":"","PROGRAM YEAR":2011},"geometry":{"type":"Point","coordinates":[-75.494574,38.565336]}},{"type":"Feature","id":"5132dd62a288f42e6734dcd2","properties":{"_id":"5132dd62a288f42e6734dcd2","PROVIDER NPI":1336168459,"PROVIDER NAME":"Lytle-Glover, Karen","PROVIDER STATE":"Delaware","PROVIDER CITY":"Newark","PROVIDER  ADDRESS":"4745 Ogletown Stanton Rd, MAP1, Suite 207","PROVIDER ZIP 5 CD":19713,"PROVIDER ZIP 4 CD":2067,"PROVIDER PHONE NUM":3023689000,"PROVIDER PHONE EXT":"","PROGRAM YEAR":2011},"geometry":{"type":"Point","coordinates":[-75.679873,39.68676]}},{"type":"Feature","id":"5132dd62a288f42e6734dcd3","properties":{"_id":"5132dd62a288f42e6734dcd3","PROVIDER NPI":1124028808,"PROVIDER NAME":"Maged, David","PROVIDER STATE":"Delaware","PROVIDER CITY":"Wilmington","PROVIDER  ADDRESS":"3105 Limestone Rd, Ste 301","PROVIDER ZIP 5 CD":19808,"PROVIDER ZIP 4 CD":2147,"PROVIDER PHONE NUM":3026331700,"PROVIDER PHONE EXT":"","PROGRAM YEAR":2011},"geometry":{"type":"Point","coordinates":[-75.671169,39.733285]}},{"type":"Feature","id":"5132dd62a288f42e6734dcd4","properties":{"_id":"5132dd62a288f42e6734dcd4","PROVIDER NPI":1811907736,"PROVIDER NAME":"Mahoney, John","PROVIDER STATE":"Delaware","PROVIDER CITY":"Newark","PROVIDER  ADDRESS":"1536 Capitol Trl","PROVIDER ZIP 5 CD":19711,"PROVIDER ZIP 4 CD":5716,"PROVIDER PHONE NUM":3024541200,"PROVIDER PHONE EXT":"","PROGRAM YEAR":2011},"geometry":{"type":"Point","coordinates":[-75.706305,39.698749]}},{"type":"Feature","id":"5132dd62a288f42e6734dcd5","properties":{"_id":"5132dd62a288f42e6734dcd5","PROVIDER NPI":1598768806,"PROVIDER NAME":"Manifold, Stephen","PROVIDER STATE":"Delaware","PROVIDER CITY":"Dover","PROVIDER  ADDRESS":"720 S Queen St","PROVIDER ZIP 5 CD":19904,"PROVIDER ZIP 4 CD":3567,"PROVIDER PHONE NUM":3027358705,"PROVIDER PHONE EXT":"","PROGRAM YEAR":2011},"geometry":{"type":"Point","coordinates":[-75.528386,39.151027]}},{"type":"Feature","id":"5132dd62a288f42e6734dcd6","properties":{"_id":"5132dd62a288f42e6734dcd6","PROVIDER NPI":1093785461,"PROVIDER NAME":"Manubay, Napoleon","PROVIDER STATE":"Delaware","PROVIDER CITY":"Wilmington","PROVIDER  ADDRESS":"2601 Annand Dr, Suite 13","PROVIDER ZIP 5 CD":19808,"PROVIDER ZIP 4 CD":3719,"PROVIDER PHONE NUM":3029956192,"PROVIDER PHONE EXT":"","PROGRAM YEAR":2011},"geometry":{"type":"Point","coordinates":[-75.674506,39.716335]}},{"type":"Feature","id":"5132dd62a288f42e6734dcd7","properties":{"_id":"5132dd62a288f42e6734dcd7","PROVIDER NPI":1922088426,"PROVIDER NAME":"MARQUEZ, MISAEL","PROVIDER STATE":"Delaware","PROVIDER CITY":"Wilmington","PROVIDER  ADDRESS":"2601 Annand Dr, Suite 13","PROVIDER ZIP 5 CD":19808,"PROVIDER ZIP 4 CD":3719,"PROVIDER PHONE NUM":3029956192,"PROVIDER PHONE EXT":"","PROGRAM YEAR":2011},"geometry":{"type":"Point","coordinates":[-75.674506,39.716335]}},{"type":"Feature","id":"5132dd62a288f42e6734dcd8","properties":{"_id":"5132dd62a288f42e6734dcd8","PROVIDER NPI":1184691156,"PROVIDER NAME":"Marshall, Stefanie","PROVIDER STATE":"Delaware","PROVIDER CITY":"Newark","PROVIDER  ADDRESS":"4745 Ogletown Stanton Rd, Suite 106","PROVIDER ZIP 5 CD":19713,"PROVIDER ZIP 4 CD":2067,"PROVIDER PHONE NUM":3024549800,"PROVIDER PHONE EXT":"","PROGRAM YEAR":2011},"geometry":{"type":"Point","coordinates":[-75.650691,39.701121]}},{"type":"Feature","id":"5132dd62a288f42e6734dcd9","properties":{"_id":"5132dd62a288f42e6734dcd9","PROVIDER NPI":1639255375,"PROVIDER NAME":"Maynard, Christine","PROVIDER STATE":"Delaware","PROVIDER CITY":"Newark","PROVIDER  ADDRESS":"4735 Ogletown Stanton Rd, Suite 2300","PROVIDER ZIP 5 CD":19713,"PROVIDER ZIP 4 CD":2072,"PROVIDER PHONE NUM":3022248400,"PROVIDER PHONE EXT":"","PROGRAM YEAR":2011},"geometry":{"type":"Point","coordinates":[-75.650691,39.701121]}},{"type":"Feature","id":"5132dd62a288f42e6734dcda","properties":{"_id":"5132dd62a288f42e6734dcda","PROVIDER NPI":1942272315,"PROVIDER NAME":"McConnell, Edward","PROVIDER STATE":"Delaware","PROVIDER CITY":"Wilmington","PROVIDER  ADDRESS":"5311 Limestone Rd, Suite 201","PROVIDER ZIP 5 CD":19808,"PROVIDER ZIP 4 CD":1258,"PROVIDER PHONE NUM":3022349109,"PROVIDER PHONE EXT":"","PROGRAM YEAR":2011},"geometry":{"type":"Point","coordinates":[-75.667653,39.730376]}},{"type":"Feature","id":"5132dd62a288f42e6734dcdb","properties":{"_id":"5132dd62a288f42e6734dcdb","PROVIDER NPI":1831124270,"PROVIDER NAME":"McCracken, Alice","PROVIDER STATE":"Delaware","PROVIDER CITY":"Newark","PROVIDER  ADDRESS":"4735 Ogletown Stanton Rd, Suite 2300","PROVIDER ZIP 5 CD":19713,"PROVIDER ZIP 4 CD":2072,"PROVIDER PHONE NUM":3022248400,"PROVIDER PHONE EXT":"","PROGRAM YEAR":2011},"geometry":{"type":"Point","coordinates":[-75.650691,39.701121]}},{"type":"Feature","id":"5132dd62a288f42e6734dcdc","properties":{"_id":"5132dd62a288f42e6734dcdc","PROVIDER NPI":1811928989,"PROVIDER NAME":"McCullough-Duzy, Helen","PROVIDER STATE":"Delaware","PROVIDER CITY":"Newark","PROVIDER  ADDRESS":"4735 Ogletown Stanton Rd, Suite 2300","PROVIDER ZIP 5 CD":19713,"PROVIDER ZIP 4 CD":2072,"PROVIDER PHONE NUM":3022248400,"PROVIDER PHONE EXT":"","PROGRAM YEAR":2011},"geometry":{"type":"Point","coordinates":[-75.650691,39.701121]}},{"type":"Feature","id":"5132dd62a288f42e6734dcdd","properties":{"_id":"5132dd62a288f42e6734dcdd","PROVIDER NPI":1952312852,"PROVIDER NAME":"Meier, Bradley","PROVIDER STATE":"Delaware","PROVIDER CITY":"Hockessin","PROVIDER  ADDRESS":"310 Lantana Dr","PROVIDER ZIP 5 CD":19707,"PROVIDER ZIP 4 CD":8807,"PROVIDER PHONE NUM":3022391600,"PROVIDER PHONE EXT":"","PROGRAM YEAR":2011},"geometry":{"type":"Point","coordinates":[-75.711537,39.775002]}},{"type":"Feature","id":"5132dd62a288f42e6734dcde","properties":{"_id":"5132dd62a288f42e6734dcde","PROVIDER NPI":1174686042,"PROVIDER NAME":"Merriman, Nathan","PROVIDER STATE":"Delaware","PROVIDER CITY":"Newark","PROVIDER  ADDRESS":"4745 Ogletown Stanton Road, MAP 1, Suite 134","PROVIDER ZIP 5 CD":19713,"PROVIDER ZIP 4 CD":"","PROVIDER PHONE NUM":3027385300,"PROVIDER PHONE EXT":"","PROGRAM YEAR":2011},"geometry":{"type":"Point","coordinates":[-75.679873,39.68676]}},{"type":"Feature","id":"5132dd62a288f42e6734dcdf","properties":{"_id":"5132dd62a288f42e6734dcdf","PROVIDER NPI":1477582518,"PROVIDER NAME":"Micklin, Alan","PROVIDER STATE":"Delaware","PROVIDER CITY":"Newark","PROVIDER  ADDRESS":"1 Centurian Dr, Suite 200","PROVIDER ZIP 5 CD":19713,"PROVIDER ZIP 4 CD":2137,"PROVIDER PHONE NUM":3023668600,"PROVIDER PHONE EXT":"","PROGRAM YEAR":2011},"geometry":{"type":"Point","coordinates":[-75.708385,39.721955]}},{"type":"Feature","id":"5132dd62a288f42e6734dce0","properties":{"_id":"5132dd62a288f42e6734dce0","PROVIDER NPI":1174674816,"PROVIDER NAME":"MODI, ASHESH","PROVIDER STATE":"Delaware","PROVIDER CITY":"Newark","PROVIDER  ADDRESS":"4745 Ogletown Stanton Rd, MAP 1, Suite134","PROVIDER ZIP 5 CD":19713,"PROVIDER ZIP 4 CD":2067,"PROVIDER PHONE NUM":3027385300,"PROVIDER PHONE EXT":"","PROGRAM YEAR":2011},"geometry":{"type":"Point","coordinates":[-75.650691,39.701121]}},{"type":"Feature","id":"5132dd62a288f42e6734dce1","properties":{"_id":"5132dd62a288f42e6734dce1","PROVIDER NPI":1700842135,"PROVIDER NAME":"mondero, nancy","PROVIDER STATE":"Delaware","PROVIDER CITY":"Millsboro","PROVIDER  ADDRESS":"32711 Long Neck Rd","PROVIDER ZIP 5 CD":19966,"PROVIDER ZIP 4 CD":6678,"PROVIDER PHONE NUM":3029459730,"PROVIDER PHONE EXT":"","PROGRAM YEAR":2011},"geometry":{"type":"Point","coordinates":[-75.169713,38.629235]}},{"type":"Feature","id":"5132dd62a288f42e6734dce2","properties":{"_id":"5132dd62a288f42e6734dce2","PROVIDER NPI":1376594150,"PROVIDER NAME":"Moosavy, Farid","PROVIDER STATE":"Delaware","PROVIDER CITY":"Newark","PROVIDER  ADDRESS":"4745 Ogletown Stanton Rd, Suite 220","PROVIDER ZIP 5 CD":19713,"PROVIDER ZIP 4 CD":2067,"PROVIDER PHONE NUM":3023685515,"PROVIDER PHONE EXT":"","PROGRAM YEAR":2011},"geometry":{"type":"Point","coordinates":[-75.650691,39.701121]}},{"type":"Feature","id":"5132dd62a288f42e6734dce3","properties":{"_id":"5132dd62a288f42e6734dce3","PROVIDER NPI":1376756080,"PROVIDER NAME":"Morgan, Fanta","PROVIDER STATE":"Delaware","PROVIDER CITY":"Dover","PROVIDER  ADDRESS":"642 S Queen St, Suite #103","PROVIDER ZIP 5 CD":19904,"PROVIDER ZIP 4 CD":3506,"PROVIDER PHONE NUM":3026749255,"PROVIDER PHONE EXT":"","PROGRAM YEAR":2011},"geometry":{"type":"Point","coordinates":[-75.561837,39.168393]}},{"type":"Feature","id":"5132dd62a288f42e6734dce4","properties":{"_id":"5132dd62a288f42e6734dce4","PROVIDER NPI":1811024631,"PROVIDER NAME":"Moutsatsos, Alexia","PROVIDER STATE":"Delaware","PROVIDER CITY":"Newark","PROVIDER  ADDRESS":"Total Care Physicians, Omega Drive, Building B, Suite 89","PROVIDER ZIP 5 CD":19713,"PROVIDER ZIP 4 CD":"","PROVIDER PHONE NUM":3027385500,"PROVIDER PHONE EXT":"","PROGRAM YEAR":2011},"geometry":{"type":"Point","coordinates":[-75.675657,39.690939]}},{"type":"Feature","id":"5132dd62a288f42e6734dce5","properties":{"_id":"5132dd62a288f42e6734dce5","PROVIDER NPI":1063496735,"PROVIDER NAME":"Moylan, Laura","PROVIDER STATE":"Delaware","PROVIDER CITY":"Dover","PROVIDER  ADDRESS":"200 Banning Street, Suite 320","PROVIDER ZIP 5 CD":19904,"PROVIDER ZIP 4 CD":3530,"PROVIDER PHONE NUM":3026740223,"PROVIDER PHONE EXT":"","PROGRAM YEAR":2011},"geometry":{"type":"Point","coordinates":[-75.561837,39.168393]}},{"type":"Feature","id":"5132dd62a288f42e6734dce6","properties":{"_id":"5132dd62a288f42e6734dce6","PROVIDER NPI":1427023639,"PROVIDER NAME":"MUENCH, PETER","PROVIDER STATE":"Delaware","PROVIDER CITY":"NEWARK","PROVIDER  ADDRESS":"H 50 OMEGA DRIVE Suite H","PROVIDER ZIP 5 CD":19713,"PROVIDER ZIP 4 CD":"","PROVIDER PHONE NUM":3022667577,"PROVIDER PHONE EXT":"","PROGRAM YEAR":2011},"geometry":{"type":"Point","coordinates":[-75.675657,39.690939]}},{"type":"Feature","id":"5132dd62a288f42e6734dce7","properties":{"_id":"5132dd62a288f42e6734dce7","PROVIDER NPI":1235136870,"PROVIDER NAME":"Mullin, Miriam","PROVIDER STATE":"Delaware","PROVIDER CITY":"Wilmington","PROVIDER  ADDRESS":"3105 Limestone Rd, Ste 300","PROVIDER ZIP 5 CD":19808,"PROVIDER ZIP 4 CD":2156,"PROVIDER PHONE NUM":3029920200,"PROVIDER PHONE EXT":16,"PROGRAM YEAR":2011},"geometry":{"type":"Point","coordinates":[-75.671169,39.733285]}},{"type":"Feature","id":"5132dd62a288f42e6734dce8","properties":{"_id":"5132dd62a288f42e6734dce8","PROVIDER NPI":1942380092,"PROVIDER NAME":"Mullins, Sarah","PROVIDER STATE":"Delaware","PROVIDER CITY":"Wilmington","PROVIDER  ADDRESS":"5311 Limestone Road, Suite 201","PROVIDER ZIP 5 CD":19808,"PROVIDER ZIP 4 CD":"","PROVIDER PHONE NUM":3022349109,"PROVIDER PHONE EXT":"","PROGRAM YEAR":2011},"geometry":{"type":"Point","coordinates":[-75.667653,39.730376]}},{"type":"Feature","id":"5132dd62a288f42e6734dce9","properties":{"_id":"5132dd62a288f42e6734dce9","PROVIDER NPI":1821009481,"PROVIDER NAME":"Murray, Kevin","PROVIDER STATE":"Delaware","PROVIDER CITY":"Newark","PROVIDER  ADDRESS":"650 Plaza Dr, Four Seasons Shopping Center","PROVIDER ZIP 5 CD":19702,"PROVIDER ZIP 4 CD":6369,"PROVIDER PHONE NUM":3024534043,"PROVIDER PHONE EXT":"","PROGRAM YEAR":2011},"geometry":{"type":"Point","coordinates":[-75.65169,39.709915]}},{"type":"Feature","id":"5132dd62a288f42e6734dcea","properties":{"_id":"5132dd62a288f42e6734dcea","PROVIDER NPI":1194783019,"PROVIDER NAME":"Myers, Ian","PROVIDER STATE":"Delaware","PROVIDER CITY":"Newark","PROVIDER  ADDRESS":"2600 Glasgow Ave, Suite 126","PROVIDER ZIP 5 CD":19702,"PROVIDER ZIP 4 CD":"","PROVIDER PHONE NUM":3028327600,"PROVIDER PHONE EXT":"","PROGRAM YEAR":2011},"geometry":{"type":"Point","coordinates":[-75.742192,39.596316]}},{"type":"Feature","id":"5132dd62a288f42e6734dceb","properties":{"_id":"5132dd62a288f42e6734dceb","PROVIDER NPI":1346247699,"PROVIDER NAME":"Namey, George","PROVIDER STATE":"Delaware","PROVIDER CITY":"Newark","PROVIDER  ADDRESS":"2600 Glasgow Ave, suite 124","PROVIDER ZIP 5 CD":19702,"PROVIDER ZIP 4 CD":4777,"PROVIDER PHONE NUM":3028364200,"PROVIDER PHONE EXT":"","PROGRAM YEAR":2011},"geometry":{"type":"Point","coordinates":[-75.742192,39.596316]}},{"type":"Feature","id":"5132dd62a288f42e6734dcec","properties":{"_id":"5132dd62a288f42e6734dcec","PROVIDER NPI":1568557890,"PROVIDER NAME":"Newcomb, William","PROVIDER STATE":"Delaware","PROVIDER CITY":"Wilmington","PROVIDER  ADDRESS":"1010 North Bancroft Parkway, Suite 12","PROVIDER ZIP 5 CD":19805,"PROVIDER ZIP 4 CD":2668,"PROVIDER PHONE NUM":3026581129,"PROVIDER PHONE EXT":"","PROGRAM YEAR":2011},"geometry":{"type":"Point","coordinates":[-75.571823,39.757604]}},{"type":"Feature","id":"5132dd62a288f42e6734dced","properties":{"_id":"5132dd62a288f42e6734dced","PROVIDER NPI":1447254073,"PROVIDER NAME":"Newell, Wendy","PROVIDER STATE":"Delaware","PROVIDER CITY":"Dover","PROVIDER  ADDRESS":"103 Wolf Creek Blvd, Suite 1","PROVIDER ZIP 5 CD":19901,"PROVIDER ZIP 4 CD":4915,"PROVIDER PHONE NUM":3026742420,"PROVIDER PHONE EXT":"","PROGRAM YEAR":2011},"geometry":{"type":"Point","coordinates":[-75.514673,39.190912]}},{"type":"Feature","id":"5132dd62a288f42e6734dcee","properties":{"_id":"5132dd62a288f42e6734dcee","PROVIDER NPI":1962477489,"PROVIDER NAME":"Norsworthy, Jack","PROVIDER STATE":"Delaware","PROVIDER CITY":"Wilmington","PROVIDER  ADDRESS":"1305 Kirkwood Hwy","PROVIDER ZIP 5 CD":19805,"PROVIDER ZIP 4 CD":2121,"PROVIDER PHONE NUM":3029946575,"PROVIDER PHONE EXT":"","PROGRAM YEAR":2011},"geometry":{"type":"Point","coordinates":[-75.601743,39.739316]}},{"type":"Feature","id":"5132dd62a288f42e6734dcef","properties":{"_id":"5132dd62a288f42e6734dcef","PROVIDER NPI":1952564734,"PROVIDER NAME":"Nukuna, Adeline","PROVIDER STATE":"Delaware","PROVIDER CITY":"LEWES","PROVIDER  ADDRESS":"431 SAVANNAH ROAD","PROVIDER ZIP 5 CD":19958,"PROVIDER ZIP 4 CD":"","PROVIDER PHONE NUM":3026449080,"PROVIDER PHONE EXT":"","PROGRAM YEAR":2011},"geometry":{"type":"Point","coordinates":[-75.142483,38.771082]}},{"type":"Feature","id":"5132dd62a288f42e6734dcf0","properties":{"_id":"5132dd62a288f42e6734dcf0","PROVIDER NPI":1215980313,"PROVIDER NAME":"O'Brien, Gerald","PROVIDER STATE":"Delaware","PROVIDER CITY":"Newark","PROVIDER  ADDRESS":"4745 Ogletown Stanton Rd, Suite 220","PROVIDER ZIP 5 CD":19713,"PROVIDER ZIP 4 CD":2067,"PROVIDER PHONE NUM":3023685515,"PROVIDER PHONE EXT":"","PROGRAM YEAR":2011},"geometry":{"type":"Point","coordinates":[-75.650691,39.701121]}},{"type":"Feature","id":"5132dd62a288f42e6734dcf1","properties":{"_id":"5132dd62a288f42e6734dcf1","PROVIDER NPI":1063547602,"PROVIDER NAME":"O'Brien, Sharon","PROVIDER STATE":"Delaware","PROVIDER CITY":"Wilmington","PROVIDER  ADDRESS":"1401 Foulk Rd, Suite 100","PROVIDER ZIP 5 CD":19803,"PROVIDER ZIP 4 CD":2763,"PROVIDER PHONE NUM":3024773300,"PROVIDER PHONE EXT":"","PROGRAM YEAR":2011},"geometry":{"type":"Point","coordinates":[-75.52198,39.800989]}},{"type":"Feature","id":"5132dd62a288f42e6734dcf2","properties":{"_id":"5132dd62a288f42e6734dcf2","PROVIDER NPI":1659336782,"PROVIDER NAME":"OCAMPO-LIM, BLANCA","PROVIDER STATE":"Delaware","PROVIDER CITY":"Smyrna","PROVIDER  ADDRESS":"38 Deak Dr","PROVIDER ZIP 5 CD":19977,"PROVIDER ZIP 4 CD":"","PROVIDER PHONE NUM":3026531699,"PROVIDER PHONE EXT":"","PROGRAM YEAR":2011},"geometry":{"type":"Point","coordinates":[-75.102024,38.782551]}},{"type":"Feature","id":"5132dd62a288f42e6734dcf3","properties":{"_id":"5132dd62a288f42e6734dcf3","PROVIDER NPI":1770502809,"PROVIDER NAME":"O'Donnell, Timothy","PROVIDER STATE":"Delaware","PROVIDER CITY":"Newark","PROVIDER  ADDRESS":"Suite 32 Peoples Plaza","PROVIDER ZIP 5 CD":19702,"PROVIDER ZIP 4 CD":"","PROVIDER PHONE NUM":3028346800,"PROVIDER PHONE EXT":"","PROGRAM YEAR":2011},"geometry":{"type":"Point","coordinates":[-75.744352,39.60304]}},{"type":"Feature","id":"5132dd62a288f42e6734dcf4","properties":{"_id":"5132dd62a288f42e6734dcf4","PROVIDER NPI":1265445233,"PROVIDER NAME":"ONeill, John","PROVIDER STATE":"Delaware","PROVIDER CITY":"Middletown","PROVIDER  ADDRESS":"222 Carter Dr, Suite103","PROVIDER ZIP 5 CD":19709,"PROVIDER ZIP 4 CD":5854,"PROVIDER PHONE NUM":3023766100,"PROVIDER PHONE EXT":"","PROGRAM YEAR":2011},"geometry":{"type":"Point","coordinates":[-75.70492,39.719684]}},{"type":"Feature","id":"5132dd62a288f42e6734dcf5","properties":{"_id":"5132dd62a288f42e6734dcf5","PROVIDER NPI":1033175005,"PROVIDER NAME":"Ostrum, Gordon","PROVIDER STATE":"Delaware","PROVIDER CITY":"Newark","PROVIDER  ADDRESS":"4745 Ogletown Stanton Rd, Suite 106","PROVIDER ZIP 5 CD":19713,"PROVIDER ZIP 4 CD":2067,"PROVIDER PHONE NUM":3024549800,"PROVIDER PHONE EXT":"","PROGRAM YEAR":2011},"geometry":{"type":"Point","coordinates":[-75.650691,39.701121]}},{"type":"Feature","id":"5132dd62a288f42e6734dcf6","properties":{"_id":"5132dd62a288f42e6734dcf6","PROVIDER NPI":1831399310,"PROVIDER NAME":"padilla, francisco","PROVIDER STATE":"Delaware","PROVIDER CITY":"Seaford","PROVIDER  ADDRESS":"801 Middleford Road","PROVIDER ZIP 5 CD":19973,"PROVIDER ZIP 4 CD":"","PROVIDER PHONE NUM":3026296611,"PROVIDER PHONE EXT":"","PROGRAM YEAR":2011},"geometry":{"type":"Point","coordinates":[-75.605333,38.642333]}},{"type":"Feature","id":"5132dd62a288f42e6734dcf7","properties":{"_id":"5132dd62a288f42e6734dcf7","PROVIDER NPI":1316149677,"PROVIDER NAME":"Pagliei, Jill","PROVIDER STATE":"Delaware","PROVIDER CITY":"Wilmington","PROVIDER  ADDRESS":"1100 S Broom St","PROVIDER ZIP 5 CD":19805,"PROVIDER ZIP 4 CD":4585,"PROVIDER PHONE NUM":3026565416,"PROVIDER PHONE EXT":"","PROGRAM YEAR":2011},"geometry":{"type":"Point","coordinates":[-75.572668,39.736207]}},{"type":"Feature","id":"5132dd62a288f42e6734dcf8","properties":{"_id":"5132dd62a288f42e6734dcf8","PROVIDER NPI":1427054857,"PROVIDER NAME":"pahnke, greg","PROVIDER STATE":"Delaware","PROVIDER CITY":"Newark","PROVIDER  ADDRESS":"4701 Ogletown Stanton Road, Ste 1340","PROVIDER ZIP 5 CD":19713,"PROVIDER ZIP 4 CD":"","PROVIDER PHONE NUM":3027330404,"PROVIDER PHONE EXT":"","PROGRAM YEAR":2011},"geometry":{"type":"Point","coordinates":[-75.650691,39.701121]}},{"type":"Feature","id":"5132dd62a288f42e6734dcf9","properties":{"_id":"5132dd62a288f42e6734dcf9","PROVIDER NPI":1164420360,"PROVIDER NAME":"Palandjian, Robert","PROVIDER STATE":"Delaware","PROVIDER CITY":"Wilmington","PROVIDER  ADDRESS":"1320 Philadelphia Pike","PROVIDER ZIP 5 CD":19809,"PROVIDER ZIP 4 CD":1818,"PROVIDER PHONE NUM":3027980666,"PROVIDER PHONE EXT":"","PROGRAM YEAR":2011},"geometry":{"type":"Point","coordinates":[-75.482747,39.781732]}},{"type":"Feature","id":"5132dd62a288f42e6734dcfa","properties":{"_id":"5132dd62a288f42e6734dcfa","PROVIDER NPI":1609937267,"PROVIDER NAME":"PANWALKER, ANAND","PROVIDER STATE":"Delaware","PROVIDER CITY":"NEWARK","PROVIDER  ADDRESS":"C78 80 OMEGA DRIVE","PROVIDER ZIP 5 CD":19713,"PROVIDER ZIP 4 CD":"","PROVIDER PHONE NUM":3023682883,"PROVIDER PHONE EXT":"","PROGRAM YEAR":2011},"geometry":{"type":"Point","coordinates":[-75.675786,39.691121]}},{"type":"Feature","id":"5132dd62a288f42e6734dcfb","properties":{"_id":"5132dd62a288f42e6734dcfb","PROVIDER NPI":1326202391,"PROVIDER NAME":"Paskey, Katherine","PROVIDER STATE":"Delaware","PROVIDER CITY":"Newark","PROVIDER  ADDRESS":"620 Stanton Christiana Rd, Suite 303","PROVIDER ZIP 5 CD":19713,"PROVIDER ZIP 4 CD":2133,"PROVIDER PHONE NUM":3029998511,"PROVIDER PHONE EXT":"","PROGRAM YEAR":2011},"geometry":{"type":"Point","coordinates":[-75.650691,39.701121]}},{"type":"Feature","id":"5132dd62a288f42e6734dcfc","properties":{"_id":"5132dd62a288f42e6734dcfc","PROVIDER NPI":1952333858,"PROVIDER NAME":"Pastore, Gaetano","PROVIDER STATE":"Delaware","PROVIDER CITY":"Newark","PROVIDER  ADDRESS":"1 Centurian Dr, Suite 200","PROVIDER ZIP 5 CD":19713,"PROVIDER ZIP 4 CD":2137,"PROVIDER PHONE NUM":3023668600,"PROVIDER PHONE EXT":"","PROGRAM YEAR":2011},"geometry":{"type":"Point","coordinates":[-75.708385,39.721955]}},{"type":"Feature","id":"5132dd62a288f42e6734dcfd","properties":{"_id":"5132dd62a288f42e6734dcfd","PROVIDER NPI":1104827823,"PROVIDER NAME":"Patel, Ashok","PROVIDER STATE":"Delaware","PROVIDER CITY":"Dover","PROVIDER  ADDRESS":"1055 S Bradford Street","PROVIDER ZIP 5 CD":19904,"PROVIDER ZIP 4 CD":"","PROVIDER PHONE NUM":3026741818,"PROVIDER PHONE EXT":"","PROGRAM YEAR":2011},"geometry":{"type":"Point","coordinates":[-75.52401,39.145572]}},{"type":"Feature","id":"5132dd62a288f42e6734dcfe","properties":{"_id":"5132dd62a288f42e6734dcfe","PROVIDER NPI":1154583243,"PROVIDER NAME":"Patel, Sanjeev","PROVIDER STATE":"Delaware","PROVIDER CITY":"Dover","PROVIDER  ADDRESS":"200 Banning St, Suite 340","PROVIDER ZIP 5 CD":19904,"PROVIDER ZIP 4 CD":3485,"PROVIDER PHONE NUM":3027341414,"PROVIDER PHONE EXT":"","PROGRAM YEAR":2011},"geometry":{"type":"Point","coordinates":[-75.561837,39.168393]}},{"type":"Feature","id":"5132dd62a288f42e6734dcff","properties":{"_id":"5132dd62a288f42e6734dcff","PROVIDER NPI":1336174887,"PROVIDER NAME":"Patel, Sharad","PROVIDER STATE":"Delaware","PROVIDER CITY":"Dover","PROVIDER  ADDRESS":"1342 S Governors Ave","PROVIDER ZIP 5 CD":19904,"PROVIDER ZIP 4 CD":4804,"PROVIDER PHONE NUM":3027347796,"PROVIDER PHONE EXT":"","PROGRAM YEAR":2011},"geometry":{"type":"Point","coordinates":[-75.52997,39.134076]}},{"type":"Feature","id":"5132dd62a288f42e6734dd00","properties":{"_id":"5132dd62a288f42e6734dd00","PROVIDER NPI":1922192434,"PROVIDER NAME":"Pedro, Antonio","PROVIDER STATE":"Delaware","PROVIDER CITY":"Laurel","PROVIDER  ADDRESS":"1124 South Central Ave","PROVIDER ZIP 5 CD":19956,"PROVIDER ZIP 4 CD":"","PROVIDER PHONE NUM":3028757753,"PROVIDER PHONE EXT":"","PROGRAM YEAR":2011},"geometry":{"type":"Point","coordinates":[-75.569536,38.550034]}},{"type":"Feature","id":"5132dd62a288f42e6734dd01","properties":{"_id":"5132dd62a288f42e6734dd01","PROVIDER NPI":1487651865,"PROVIDER NAME":"Piccioni, Lawrence","PROVIDER STATE":"Delaware","PROVIDER CITY":"Dover","PROVIDER  ADDRESS":"260 Beiser Blvd, Suite 101","PROVIDER ZIP 5 CD":19904,"PROVIDER ZIP 4 CD":7790,"PROVIDER PHONE NUM":3027308060,"PROVIDER PHONE EXT":"","PROGRAM YEAR":2011},"geometry":{"type":"Point","coordinates":[-75.638604,39.132853]}},{"type":"Feature","id":"5132dd62a288f42e6734dd02","properties":{"_id":"5132dd62a288f42e6734dd02","PROVIDER NPI":1083775654,"PROVIDER NAME":"PIPER, JOHN","PROVIDER STATE":"Delaware","PROVIDER CITY":"NEWARK","PROVIDER  ADDRESS":"C78 80 OMEGA DRIVE","PROVIDER ZIP 5 CD":19713,"PROVIDER ZIP 4 CD":"","PROVIDER PHONE NUM":3023682883,"PROVIDER PHONE EXT":"","PROGRAM YEAR":2011},"geometry":{"type":"Point","coordinates":[-75.675786,39.691121]}},