[{"type":"Feature","id":"5132dd74a288f42e67359002","properties":{"_id":"5132dd74a288f42e67359002","PROVIDER NPI":1821016593,"PROVIDER NAME":"Abel, Louise","PROVIDER STATE":"New Mexico","PROVIDER CITY":"Santa Fe","PROVIDER  ADDRESS":"1650 Hospital Drive, Suite 400","PROVIDER ZIP 5 CD":87505,"PROVIDER ZIP 4 CD":"","PROVIDER PHONE NUM":5059897400,"PROVIDER PHONE EXT":"","PROGRAM YEAR":2011},"geometry":{"type":"Point","coordinates":[-105.948516,35.659838]}},{"type":"Feature","id":"5132dd74a288f42e67359003","properties":{"_id":"5132dd74a288f42e67359003","PROVIDER NPI":1730216003,"PROVIDER NAME":"Aguilar, Mario","PROVIDER STATE":"New Mexico","PROVIDER CITY":"Las Cruces","PROVIDER  ADDRESS":"1240 S Telshor Blvd, Suite C","PROVIDER ZIP 5 CD":88011,"PROVIDER ZIP 4 CD":4731,"PROVIDER PHONE NUM":5055221212,"PROVIDER PHONE EXT":"","PROGRAM YEAR":2011},"geometry":{"type":"Point","coordinates":[-105.839988,32.934182]}},{"type":"Feature","id":"5132dd74a288f42e67359004","properties":{"_id":"5132dd74a288f42e67359004","PROVIDER NPI":1821088063,"PROVIDER NAME":"Alidina, Amyn","PROVIDER STATE":"New Mexico","PROVIDER CITY":"Albuquerque","PROVIDER  ADDRESS":"4901 Lang Ave NE","PROVIDER ZIP 5 CD":87109,"PROVIDER ZIP 4 CD":4397,"PROVIDER PHONE NUM":5058223948,"PROVIDER PHONE EXT":"","PROGRAM YEAR":2011},"geometry":{"type":"Point","coordinates":[-106.59281,35.172447]}},{"type":"Feature","id":"5132dd74a288f42e67359005","properties":{"_id":"5132dd74a288f42e67359005","PROVIDER NPI":1952425985,"PROVIDER NAME":"Altman, Alan","PROVIDER STATE":"New Mexico","PROVIDER CITY":"Albuquerque","PROVIDER  ADDRESS":"700 Lomas Blvd NE, One Woodward Center","PROVIDER ZIP 5 CD":87102,"PROVIDER ZIP 4 CD":2568,"PROVIDER PHONE NUM":5052422764,"PROVIDER PHONE EXT":"","PROGRAM YEAR":2011},"geometry":{"type":"Point","coordinates":[-106.63707,35.090144]}},{"type":"Feature","id":"5132dd74a288f42e67359006","properties":{"_id":"5132dd74a288f42e67359006","PROVIDER NPI":1699760769,"PROVIDER NAME":"Askew, Ezell","PROVIDER STATE":"New Mexico","PROVIDER CITY":"Albuquerque","PROVIDER  ADDRESS":"4901 Lang Ave NE","PROVIDER ZIP 5 CD":87109,"PROVIDER ZIP 4 CD":"","PROVIDER PHONE NUM":5058428171,"PROVIDER PHONE EXT":"","PROGRAM YEAR":2011},"geometry":{"type":"Point","coordinates":[-106.59281,35.172447]}},{"type":"Feature","id":"5132dd74a288f42e67359007","properties":{"_id":"5132dd74a288f42e67359007","PROVIDER NPI":1063418556,"PROVIDER NAME":"Balkissoon-Castillo, Shanti","PROVIDER STATE":"New Mexico","PROVIDER CITY":"Albuquerque","PROVIDER  ADDRESS":"8300 Carmel Ave NE, Ste 501","PROVIDER ZIP 5 CD":87122,"PROVIDER ZIP 4 CD":3125,"PROVIDER PHONE NUM":5057971001,"PROVIDER PHONE EXT":"","PROGRAM YEAR":2011},"geometry":{"type":"Point","coordinates":[-106.496778,35.175827]}},{"type":"Feature","id":"5132dd74a288f42e67359008","properties":{"_id":"5132dd74a288f42e67359008","PROVIDER NPI":1932127925,"PROVIDER NAME":"Bankston, Chandi","PROVIDER STATE":"New Mexico","PROVIDER CITY":"Alamogordo","PROVIDER  ADDRESS":"1315 12th St","PROVIDER ZIP 5 CD":88310,"PROVIDER ZIP 4 CD":5810,"PROVIDER PHONE NUM":5054375716,"PROVIDER PHONE EXT":"","PROGRAM YEAR":2011},"geometry":{"type":"Point","coordinates":[-105.877628,33.641244]}},{"type":"Feature","id":"5132dd74a288f42e67359009","properties":{"_id":"5132dd74a288f42e67359009","PROVIDER NPI":1033260633,"PROVIDER NAME":"Brown, David","PROVIDER STATE":"New Mexico","PROVIDER CITY":"Santa Fe","PROVIDER  ADDRESS":"1620 Hospital Dr","PROVIDER ZIP 5 CD":87505,"PROVIDER ZIP 4 CD":4743,"PROVIDER PHONE NUM":5059824848,"PROVIDER PHONE EXT":"","PROGRAM YEAR":2011},"geometry":{"type":"Point","coordinates":[-105.948529,35.659967]}},{"type":"Feature","id":"5132dd74a288f42e6735900a","properties":{"_id":"5132dd74a288f42e6735900a","PROVIDER NPI":1083626519,"PROVIDER NAME":"Brown, Joshua","PROVIDER STATE":"New Mexico","PROVIDER CITY":"Santa Fe","PROVIDER  ADDRESS":"1650 Hospital Dr, Suite 200","PROVIDER ZIP 5 CD":87505,"PROVIDER ZIP 4 CD":4769,"PROVIDER PHONE NUM":5059824276,"PROVIDER PHONE EXT":"","PROGRAM YEAR":2011},"geometry":{"type":"Point","coordinates":[-105.948516,35.659838]}},{"type":"Feature","id":"5132dd74a288f42e6735900b","properties":{"_id":"5132dd74a288f42e6735900b","PROVIDER NPI":1548361876,"PROVIDER NAME":"CARTER, BARRY","PROVIDER STATE":"New Mexico","PROVIDER CITY":"Roswell","PROVIDER  ADDRESS":"313 W Country Club Rd, STE 11","PROVIDER ZIP 5 CD":88201,"PROVIDER ZIP 4 CD":5804,"PROVIDER PHONE NUM":5756232020,"PROVIDER PHONE EXT":"","PROGRAM YEAR":2011},"geometry":{"type":"Point","coordinates":[-104.52621,33.404629]}},{"type":"Feature","id":"5132dd74a288f42e6735900c","properties":{"_id":"5132dd74a288f42e6735900c","PROVIDER NPI":1609889310,"PROVIDER NAME":"CASAUS, DEIDRA","PROVIDER STATE":"New Mexico","PROVIDER CITY":"BERNALILLO","PROVIDER  ADDRESS":"140 E US HWY 550, STE E","PROVIDER ZIP 5 CD":87004,"PROVIDER ZIP 4 CD":"","PROVIDER PHONE NUM":5057713937,"PROVIDER PHONE EXT":"","PROGRAM YEAR":2011},"geometry":{"type":"Point","coordinates":[-106.544397,35.318388]}},{"type":"Feature","id":"5132dd74a288f42e6735900d","properties":{"_id":"5132dd74a288f42e6735900d","PROVIDER NPI":1710994132,"PROVIDER NAME":"Castillo, Eugenio","PROVIDER STATE":"New Mexico","PROVIDER CITY":"Hobbs","PROVIDER  ADDRESS":"2410 N Fowler St, SUITE B","PROVIDER ZIP 5 CD":88240,"PROVIDER ZIP 4 CD":2312,"PROVIDER PHONE NUM":5753922040,"PROVIDER PHONE EXT":"","PROGRAM YEAR":2011},"geometry":{"type":"Point","coordinates":[-103.125769,32.696818]}},{"type":"Feature","id":"5132dd74a288f42e6735900e","properties":{"_id":"5132dd74a288f42e6735900e","PROVIDER NPI":1528025921,"PROVIDER NAME":"Cetrulo, Stephen","PROVIDER STATE":"New Mexico","PROVIDER CITY":"Taos","PROVIDER  ADDRESS":"1399 Weimer Rd, Suite 600","PROVIDER ZIP 5 CD":87571,"PROVIDER ZIP 4 CD":"","PROVIDER PHONE NUM":5757510334,"PROVIDER PHONE EXT":"","PROGRAM YEAR":2011},"geometry":{"type":"Point","coordinates":[-105.573888,36.36625]}},{"type":"Feature","id":"5132dd74a288f42e6735900f","properties":{"_id":"5132dd74a288f42e6735900f","PROVIDER NPI":1033236518,"PROVIDER NAME":"Chesnut, William","PROVIDER STATE":"New Mexico","PROVIDER CITY":"Albuquerque","PROVIDER  ADDRESS":"700 Lomas Blvd NE, One WoodwardCenter","PROVIDER ZIP 5 CD":87102,"PROVIDER ZIP 4 CD":2568,"PROVIDER PHONE NUM":5052422764,"PROVIDER PHONE EXT":"","PROGRAM YEAR":2011},"geometry":{"type":"Point","coordinates":[-106.63707,35.090144]}},{"type":"Feature","id":"5132dd74a288f42e67359010","properties":{"_id":"5132dd74a288f42e67359010","PROVIDER NPI":1548290869,"PROVIDER NAME":"Chiu, Charnes","PROVIDER STATE":"New Mexico","PROVIDER CITY":"Santa Fe","PROVIDER  ADDRESS":"1650 Hospital Dr, Suite# 200","PROVIDER ZIP 5 CD":87505,"PROVIDER ZIP 4 CD":4769,"PROVIDER PHONE NUM":5059824276,"PROVIDER PHONE EXT":"","PROGRAM YEAR":2011},"geometry":{"type":"Point","coordinates":[-105.948516,35.659838]}},{"type":"Feature","id":"5132dd74a288f42e67359011","properties":{"_id":"5132dd74a288f42e67359011","PROVIDER NPI":1083773931,"PROVIDER NAME":"Clark, Donald","PROVIDER STATE":"New Mexico","PROVIDER CITY":"Albuquerque","PROVIDER  ADDRESS":"801 Vassar NE, Albuquerque Indian Health Center","PROVIDER ZIP 5 CD":87106,"PROVIDER ZIP 4 CD":"","PROVIDER PHONE NUM":5052484065,"PROVIDER PHONE EXT":"","PROGRAM YEAR":2011},"geometry":{"type":"Point","coordinates":[-106.614301,35.088339]}},{"type":"Feature","id":"5132dd74a288f42e67359012","properties":{"_id":"5132dd74a288f42e67359012","PROVIDER NPI":1114920238,"PROVIDER NAME":"Clark, Douglas","PROVIDER STATE":"New Mexico","PROVIDER CITY":"Albuquerque","PROVIDER  ADDRESS":"4901 Lang Ave NE","PROVIDER ZIP 5 CD":87109,"PROVIDER ZIP 4 CD":4397,"PROVIDER PHONE NUM":5058428171,"PROVIDER PHONE EXT":"","PROGRAM YEAR":2011},"geometry":{"type":"Point","coordinates":[-106.59281,35.172447]}},{"type":"Feature","id":"5132dd74a288f42e67359013","properties":{"_id":"5132dd74a288f42e67359013","PROVIDER NPI":1851412829,"PROVIDER NAME":"Clarke, Brett","PROVIDER STATE":"New Mexico","PROVIDER CITY":"Farmington","PROVIDER  ADDRESS":"2300 E 30th St, BLDG D-102","PROVIDER ZIP 5 CD":87401,"PROVIDER ZIP 4 CD":8990,"PROVIDER PHONE NUM":5053274429,"PROVIDER PHONE EXT":"","PROGRAM YEAR":2011},"geometry":{"type":"Point","coordinates":[-108.174327,36.757051]}},{"type":"Feature","id":"5132dd74a288f42e67359014","properties":{"_id":"5132dd74a288f42e67359014","PROVIDER NPI":1972668796,"PROVIDER NAME":"Clements, Michael","PROVIDER STATE":"New Mexico","PROVIDER CITY":"Ruidoso","PROVIDER  ADDRESS":"1701 Sudderth Dr","PROVIDER ZIP 5 CD":88345,"PROVIDER ZIP 4 CD":7067,"PROVIDER PHONE NUM":5756301055,"PROVIDER PHONE EXT":"","PROGRAM YEAR":2011},"geometry":{"type":"Point","coordinates":[-105.662092,33.328089]}},{"type":"Feature","id":"5132dd74a288f42e67359015","properties":{"_id":"5132dd74a288f42e67359015","PROVIDER NPI":1225135791,"PROVIDER NAME":"COCKBURN, ALDEN","PROVIDER STATE":"New Mexico","PROVIDER CITY":"TAOS","PROVIDER  ADDRESS":"1399 WEIMER ROAD, # 600B","PROVIDER ZIP 5 CD":87571,"PROVIDER ZIP 4 CD":6351,"PROVIDER PHONE NUM":5057510334,"PROVIDER PHONE EXT":"","PROGRAM YEAR":2011},"geometry":{"type":"Point","coordinates":[-105.573888,36.36625]}},{"type":"Feature","id":"5132dd74a288f42e67359016","properties":{"_id":"5132dd74a288f42e67359016","PROVIDER NPI":1508978511,"PROVIDER NAME":"Colon, Francisco","PROVIDER STATE":"New Mexico","PROVIDER CITY":"Farmington","PROVIDER  ADDRESS":"940 W Pinon St","PROVIDER ZIP 5 CD":87401,"PROVIDER ZIP 4 CD":5905,"PROVIDER PHONE NUM":5053265552,"PROVIDER PHONE EXT":"","PROGRAM YEAR":2011},"geometry":{"type":"Point","coordinates":[-108.218336,36.722952]}},{"type":"Feature","id":"5132dd74a288f42e67359017","properties":{"_id":"5132dd74a288f42e67359017","PROVIDER NPI":1740284082,"PROVIDER NAME":"Constantin, Luis","PROVIDER STATE":"New Mexico","PROVIDER CITY":"TAOS","PROVIDER  ADDRESS":"1399 WEIMER, Suite 200","PROVIDER ZIP 5 CD":87571,"PROVIDER ZIP 4 CD":"","PROVIDER PHONE NUM":5052481800,"PROVIDER PHONE EXT":"","PROGRAM YEAR":2011},"geometry":{"type":"Point","coordinates":[-105.573888,36.36625]}},{"type":"Feature","id":"5132dd74a288f42e67359018","properties":{"_id":"5132dd74a288f42e67359018","PROVIDER NPI":1508999780,"PROVIDER NAME":"Corrie, Jennifer","PROVIDER STATE":"New Mexico","PROVIDER CITY":"TAOS","PROVIDER  ADDRESS":"1329 GUSDORF RD","PROVIDER ZIP 5 CD":87571,"PROVIDER ZIP 4 CD":6282,"PROVIDER PHONE NUM":5756244646,"PROVIDER PHONE EXT":"","PROGRAM YEAR":2011},"geometry":{"type":"Point","coordinates":[-105.590286,36.373711]}},{"type":"Feature","id":"5132dd74a288f42e67359019","properties":{"_id":"5132dd74a288f42e67359019","PROVIDER NPI":1073536322,"PROVIDER NAME":"David, Whitney","PROVIDER STATE":"New Mexico","PROVIDER CITY":"Taos","PROVIDER  ADDRESS":"1399 Weimer Rd, 600","PROVIDER ZIP 5 CD":87571,"PROVIDER ZIP 4 CD":6340,"PROVIDER PHONE NUM":5757510334,"PROVIDER PHONE EXT":"","PROGRAM YEAR":2011},"geometry":{"type":"Point","coordinates":[-105.573888,36.36625]}},{"type":"Feature","id":"5132dd74a288f42e6735901a","properties":{"_id":"5132dd74a288f42e6735901a","PROVIDER NPI":1174510028,"PROVIDER NAME":"Desaulniers, Lani","PROVIDER STATE":"New Mexico","PROVIDER CITY":"Albuquerque","PROVIDER  ADDRESS":"801 Vassar Dr NE","PROVIDER ZIP 5 CD":87106,"PROVIDER ZIP 4 CD":2725,"PROVIDER PHONE NUM":5052484017,"PROVIDER PHONE EXT":"","PROGRAM YEAR":2011},"geometry":{"type":"Point","coordinates":[-106.614301,35.088339]}},{"type":"Feature","id":"5132dd74a288f42e6735901b","properties":{"_id":"5132dd74a288f42e6735901b","PROVIDER NPI":1265412639,"PROVIDER NAME":"DeWitt, Diane","PROVIDER STATE":"New Mexico","PROVIDER CITY":"Clovis","PROVIDER  ADDRESS":"1217 Pile St, PO Box 700","PROVIDER ZIP 5 CD":88101,"PROVIDER ZIP 4 CD":5944,"PROVIDER PHONE NUM":5757635522,"PROVIDER PHONE EXT":"","PROGRAM YEAR":2011},"geometry":{"type":"Point","coordinates":[-103.294978,34.497241]}},{"type":"Feature","id":"5132dd74a288f42e6735901c","properties":{"_id":"5132dd74a288f42e6735901c","PROVIDER NPI":1407867245,"PROVIDER NAME":"Dieterichs, Daniel","PROVIDER STATE":"New Mexico","PROVIDER CITY":"Belen","PROVIDER  ADDRESS":"837 W Castillo Ave","PROVIDER ZIP 5 CD":87002,"PROVIDER ZIP 4 CD":3123,"PROVIDER PHONE NUM":5058648992,"PROVIDER PHONE EXT":"","PROGRAM YEAR":2011},"geometry":{"type":"Point","coordinates":[-106.777809,34.659896]}},{"type":"Feature","id":"5132dd74a288f42e6735901d","properties":{"_id":"5132dd74a288f42e6735901d","PROVIDER NPI":1508872185,"PROVIDER NAME":"Echols, Paul","PROVIDER STATE":"New Mexico","PROVIDER CITY":"Albuquerque","PROVIDER  ADDRESS":"2nd Ambulatory Care Ctr, 2211 Lomas Blvd. NE","PROVIDER ZIP 5 CD":87131,"PROVIDER ZIP 4 CD":1,"PROVIDER PHONE NUM":5052562743,"PROVIDER PHONE EXT":"","PROGRAM YEAR":2011},"geometry":{"type":"Point","coordinates":[-106.642077,35.090122]}},{"type":"Feature","id":"5132dd74a288f42e6735901e","properties":{"_id":"5132dd74a288f42e6735901e","PROVIDER NPI":1770639585,"PROVIDER NAME":"Endres, Delores","PROVIDER STATE":"New Mexico","PROVIDER CITY":"Taos","PROVIDER  ADDRESS":"630 Paseo Del Pueblo Sur, Suite 150","PROVIDER ZIP 5 CD":87571,"PROVIDER ZIP 4 CD":6070,"PROVIDER PHONE NUM":5057583005,"PROVIDER PHONE EXT":"","PROGRAM YEAR":2011},"geometry":{"type":"Point","coordinates":[-105.572272,36.530994]}},{"type":"Feature","id":"5132dd74a288f42e6735901f","properties":{"_id":"5132dd74a288f42e6735901f","PROVIDER NPI":1427294982,"PROVIDER NAME":"Farley, Roderick","PROVIDER STATE":"New Mexico","PROVIDER CITY":"Albuquerque","PROVIDER  ADDRESS":"8001 Merissa Ln NE","PROVIDER ZIP 5 CD":87122,"PROVIDER ZIP 4 CD":3763,"PROVIDER PHONE NUM":5058220022,"PROVIDER PHONE EXT":"","PROGRAM YEAR":2011},"geometry":{"type":"Point","coordinates":[-106.5259,35.137529]}},{"type":"Feature","id":"5132dd74a288f42e67359020","properties":{"_id":"5132dd74a288f42e67359020","PROVIDER NPI":1508854258,"PROVIDER NAME":"Fiber, Frederick","PROVIDER STATE":"New Mexico","PROVIDER CITY":"Albuquerque","PROVIDER  ADDRESS":"401 Edith Blvd NE","PROVIDER ZIP 5 CD":87102,"PROVIDER ZIP 4 CD":2509,"PROVIDER PHONE NUM":5052438030,"PROVIDER PHONE EXT":215,"PROGRAM YEAR":2011},"geometry":{"type":"Point","coordinates":[-106.641684,35.0858]}},{"type":"Feature","id":"5132dd74a288f42e67359021","properties":{"_id":"5132dd74a288f42e67359021","PROVIDER NPI":1740372812,"PROVIDER NAME":"Finch, Kathy","PROVIDER STATE":"New Mexico","PROVIDER CITY":"Albuquerque","PROVIDER  ADDRESS":"5341 Wyoming Blvd NE Ste A","PROVIDER ZIP 5 CD":87109,"PROVIDER ZIP 4 CD":3164,"PROVIDER PHONE NUM":5052440640,"PROVIDER PHONE EXT":"","PROGRAM YEAR":2011},"geometry":{"type":"Point","coordinates":[-106.551144,35.140478]}},{"type":"Feature","id":"5132dd74a288f42e67359022","properties":{"_id":"5132dd74a288f42e67359022","PROVIDER NPI":1952358376,"PROVIDER NAME":"Foghi, Armin","PROVIDER STATE":"New Mexico","PROVIDER CITY":"Rio Rancho","PROVIDER  ADDRESS":"1740 Grande Blvd. SE, Suite D","PROVIDER ZIP 5 CD":87124,"PROVIDER ZIP 4 CD":"","PROVIDER PHONE NUM":5058920402,"PROVIDER PHONE EXT":"","PROGRAM YEAR":2011},"geometry":{"type":"Point","coordinates":[-106.710707,35.254208]}},{"type":"Feature","id":"5132dd74a288f42e67359023","properties":{"_id":"5132dd74a288f42e67359023","PROVIDER NPI":1346234788,"PROVIDER NAME":"Fontaine, Annette","PROVIDER STATE":"New Mexico","PROVIDER CITY":"Albuquerque","PROVIDER  ADDRESS":"4901 Lang Ave NE, New Mexico Oncology & Hematology Consultants, LTD","PROVIDER ZIP 5 CD":87109,"PROVIDER ZIP 4 CD":4397,"PROVIDER PHONE NUM":5058428171,"PROVIDER PHONE EXT":"","PROGRAM YEAR":2011},"geometry":{"type":"Point","coordinates":[-106.59281,35.172447]}},{"type":"Feature","id":"5132dd74a288f42e67359024","properties":{"_id":"5132dd74a288f42e67359024","PROVIDER NPI":1861488983,"PROVIDER NAME":"GELDERT, MAURICE","PROVIDER STATE":"New Mexico","PROVIDER CITY":"Roswell","PROVIDER  ADDRESS":"200 W Wilshire Blvd, SUITE D","PROVIDER ZIP 5 CD":88201,"PROVIDER ZIP 4 CD":627,"PROVIDER PHONE NUM":5756235111,"PROVIDER PHONE EXT":"","PROGRAM YEAR":2011},"geometry":{"type":"Point","coordinates":[-104.521914,33.426962]}},{"type":"Feature","id":"5132dd74a288f42e67359025","properties":{"_id":"5132dd74a288f42e67359025","PROVIDER NPI":1235181199,"PROVIDER NAME":"Gerstner, Gloria","PROVIDER STATE":"New Mexico","PROVIDER CITY":"Santa Fe","PROVIDER  ADDRESS":"3600 Rodeo Ln Ste B5","PROVIDER ZIP 5 CD":87507,"PROVIDER ZIP 4 CD":5801,"PROVIDER PHONE NUM":5052929700,"PROVIDER PHONE EXT":"","PROGRAM YEAR":2011},"geometry":{"type":"Point","coordinates":[-106.00614,35.638102]}},{"type":"Feature","id":"5132dd74a288f42e67359026","properties":{"_id":"5132dd74a288f42e67359026","PROVIDER NPI":1417950536,"PROVIDER NAME":"Giudice, Richard","PROVIDER STATE":"New Mexico","PROVIDER CITY":"Albuquerque","PROVIDER  ADDRESS":"4901 Lang Ave NE","PROVIDER ZIP 5 CD":87109,"PROVIDER ZIP 4 CD":4397,"PROVIDER PHONE NUM":5058428171,"PROVIDER PHONE EXT":"","PROGRAM YEAR":2011},"geometry":{"type":"Point","coordinates":[-106.59281,35.172447]}},{"type":"Feature","id":"5132dd74a288f42e67359027","properties":{"_id":"5132dd74a288f42e67359027","PROVIDER NPI":1366448607,"PROVIDER NAME":"Guttmann, Dan","PROVIDER STATE":"New Mexico","PROVIDER CITY":"Taos","PROVIDER  ADDRESS":"1219 Gusdorf Rd, Ste A","PROVIDER ZIP 5 CD":87571,"PROVIDER ZIP 4 CD":6499,"PROVIDER PHONE NUM":5057580009,"PROVIDER PHONE EXT":"","PROGRAM YEAR":2011},"geometry":{"type":"Point","coordinates":[-105.377951,36.360605]}},{"type":"Feature","id":"5132dd74a288f42e67359028","properties":{"_id":"5132dd74a288f42e67359028","PROVIDER NPI":1588621551,"PROVIDER NAME":"hart, angelique","PROVIDER STATE":"New Mexico","PROVIDER CITY":"Santa Fe","PROVIDER  ADDRESS":"1530 Bishops Lodge Rd","PROVIDER ZIP 5 CD":87506,"PROVIDER ZIP 4 CD":5,"PROVIDER PHONE NUM":5059831293,"PROVIDER PHONE EXT":"","PROGRAM YEAR":2011},"geometry":{"type":"Point","coordinates":[-105.928096,35.758308]}},{"type":"Feature","id":"5132dd74a288f42e67359029","properties":{"_id":"5132dd74a288f42e67359029","PROVIDER NPI":1720081839,"PROVIDER NAME":"Haskins, Clark","PROVIDER STATE":"New Mexico","PROVIDER CITY":"Albuquerque","PROVIDER  ADDRESS":"4901 Lang Avenue NE","PROVIDER ZIP 5 CD":87109,"PROVIDER ZIP 4 CD":4397,"PROVIDER PHONE NUM":5058428171,"PROVIDER PHONE EXT":"","PROGRAM YEAR":2011},"geometry":{"type":"Point","coordinates":[-106.59281,35.172447]}},{"type":"Feature","id":"5132dd74a288f42e6735902a","properties":{"_id":"5132dd74a288f42e6735902a","PROVIDER NPI":1518929421,"PROVIDER NAME":"Heilbron, Roy","PROVIDER STATE":"New Mexico","PROVIDER CITY":"Santa Fe","PROVIDER  ADDRESS":"1530 Bishops Lodge Rd","PROVIDER ZIP 5 CD":87506,"PROVIDER ZIP 4 CD":"","PROVIDER PHONE NUM":5059831293,"PROVIDER PHONE EXT":"","PROGRAM YEAR":2011},"geometry":{"type":"Point","coordinates":[-105.928096,35.758308]}},{"type":"Feature","id":"5132dd74a288f42e6735902b","properties":{"_id":"5132dd74a288f42e6735902b","PROVIDER NPI":1205828233,"PROVIDER NAME":"Herrera, Michael","PROVIDER STATE":"New Mexico","PROVIDER CITY":"Santa Fe","PROVIDER  ADDRESS":"2019 Galisteo St. Ste. G5, Galisteo Center","PROVIDER ZIP 5 CD":87505,"PROVIDER ZIP 4 CD":2164,"PROVIDER PHONE NUM":5059899600,"PROVIDER PHONE EXT":109,"PROGRAM YEAR":2011},"geometry":{"type":"Point","coordinates":[-105.963474,35.640011]}},{"type":"Feature","id":"5132dd74a288f42e6735902c","properties":{"_id":"5132dd74a288f42e6735902c","PROVIDER NPI":1972683878,"PROVIDER NAME":"HILE, KERRY","PROVIDER STATE":"New Mexico","PROVIDER CITY":"Albuquerque","PROVIDER  ADDRESS":"801 Vassar Dr NE","PROVIDER ZIP 5 CD":87106,"PROVIDER ZIP 4 CD":2725,"PROVIDER PHONE NUM":5052484005,"PROVIDER PHONE EXT":"","PROGRAM YEAR":2011},"geometry":{"type":"Point","coordinates":[-106.614301,35.088339]}},{"type":"Feature","id":"5132dd74a288f42e6735902d","properties":{"_id":"5132dd74a288f42e6735902d","PROVIDER NPI":1326099508,"PROVIDER NAME":"Hinsley, Matthew","PROVIDER STATE":"New Mexico","PROVIDER CITY":"Santa Fe","PROVIDER  ADDRESS":"1620 Hospital Dr, Southwestern Ear, Nose & Throat Associates","PROVIDER ZIP 5 CD":87505,"PROVIDER ZIP 4 CD":4754,"PROVIDER PHONE NUM":5059463927,"PROVIDER PHONE EXT":"","PROGRAM YEAR":2011},"geometry":{"type":"Point","coordinates":[-105.948529,35.659967]}},{"type":"Feature","id":"5132dd74a288f42e6735902e","properties":{"_id":"5132dd74a288f42e6735902e","PROVIDER NPI":1710982681,"PROVIDER NAME":"Honsinger, Richard","PROVIDER STATE":"New Mexico","PROVIDER CITY":"Los Alamos","PROVIDER  ADDRESS":"3917 West Rd, Suite 150","PROVIDER ZIP 5 CD":87544,"PROVIDER ZIP 4 CD":"","PROVIDER PHONE NUM":5056624351,"PROVIDER PHONE EXT":"","PROGRAM YEAR":2011},"geometry":{"type":"Point","coordinates":[-105.377951,36.360605]}},{"type":"Feature","id":"5132dd74a288f42e6735902f","properties":{"_id":"5132dd74a288f42e6735902f","PROVIDER NPI":1700923877,"PROVIDER NAME":"Howard, Mark","PROVIDER STATE":"New Mexico","PROVIDER CITY":"Carlsbad","PROVIDER  ADDRESS":"2402 W Pierce St, Suite 6A","PROVIDER ZIP 5 CD":88220,"PROVIDER ZIP 4 CD":3566,"PROVIDER PHONE NUM":5758851970,"PROVIDER PHONE EXT":"","PROGRAM YEAR":2011},"geometry":{"type":"Point","coordinates":[-104.255003,32.414606]}},{"type":"Feature","id":"5132dd74a288f42e67359030","properties":{"_id":"5132dd74a288f42e67359030","PROVIDER NPI":1770570749,"PROVIDER NAME":"Hurt, Allen","PROVIDER STATE":"New Mexico","PROVIDER CITY":"Hobbs","PROVIDER  ADDRESS":"2410 N Fowler St, Ste. B","PROVIDER ZIP 5 CD":88240,"PROVIDER ZIP 4 CD":2312,"PROVIDER PHONE NUM":5053922040,"PROVIDER PHONE EXT":"","PROGRAM YEAR":2011},"geometry":{"type":"Point","coordinates":[-103.125769,32.696818]}},{"type":"Feature","id":"5132dd74a288f42e67359031","properties":{"_id":"5132dd74a288f42e67359031","PROVIDER NPI":1215971254,"PROVIDER NAME":"Ismail, Geilan","PROVIDER STATE":"New Mexico","PROVIDER CITY":"Taos","PROVIDER  ADDRESS":"1399 Weimer Rd, SUITE 200","PROVIDER ZIP 5 CD":87571,"PROVIDER ZIP 4 CD":6349,"PROVIDER PHONE NUM":5057582224,"PROVIDER PHONE EXT":"","PROGRAM YEAR":2011},"geometry":{"type":"Point","coordinates":[-105.573888,36.36625]}},{"type":"Feature","id":"5132dd74a288f42e67359032","properties":{"_id":"5132dd74a288f42e67359032","PROVIDER NPI":1144230061,"PROVIDER NAME":"IVEY, NATHAN","PROVIDER STATE":"New Mexico","PROVIDER CITY":"Albuquerque","PROVIDER  ADDRESS":"5111 Juan Tabo Blvd NE","PROVIDER ZIP 5 CD":87111,"PROVIDER ZIP 4 CD":"","PROVIDER PHONE NUM":5058801000,"PROVIDER PHONE EXT":"","PROGRAM YEAR":2011},"geometry":{"type":"Point","coordinates":[-106.516296,35.139108]}},{"type":"Feature","id":"5132dd74a288f42e67359033","properties":{"_id":"5132dd74a288f42e67359033","PROVIDER NPI":1952389306,"PROVIDER NAME":"Johnson, David","PROVIDER STATE":"New Mexico","PROVIDER CITY":"Albuquerque","PROVIDER  ADDRESS":"801 Vassar Dr NE","PROVIDER ZIP 5 CD":87106,"PROVIDER ZIP 4 CD":2725,"PROVIDER PHONE NUM":5052484000,"PROVIDER PHONE EXT":"","PROGRAM YEAR":2011},"geometry":{"type":"Point","coordinates":[-106.614301,35.088339]}},{"type":"Feature","id":"5132dd74a288f42e67359034","properties":{"_id":"5132dd74a288f42e67359034","PROVIDER NPI":1790886240,"PROVIDER NAME":"Jones, Robert","PROVIDER STATE":"New Mexico","PROVIDER CITY":"Albuquerque","PROVIDER  ADDRESS":"5310 Homestead Rd NE, bldg 4","PROVIDER ZIP 5 CD":87110,"PROVIDER ZIP 4 CD":1437,"PROVIDER PHONE NUM":5052563648,"PROVIDER PHONE EXT":"","PROGRAM YEAR":2011},"geometry":{"type":"Point","coordinates":[-106.585909,35.128979]}},{"type":"Feature","id":"5132dd74a288f42e67359035","properties":{"_id":"5132dd74a288f42e67359035","PROVIDER NPI":1437288073,"PROVIDER NAME":"Karimian, Siavash","PROVIDER STATE":"New Mexico","PROVIDER CITY":"Roswell","PROVIDER  ADDRESS":"1621 N. Washington Avenue","PROVIDER ZIP 5 CD":88201,"PROVIDER ZIP 4 CD":"","PROVIDER PHONE NUM":5756258430,"PROVIDER PHONE EXT":"","PROGRAM YEAR":2011},"geometry":{"type":"Point","coordinates":[-104.531733,33.41107]}},{"type":"Feature","id":"5132dd74a288f42e67359036","properties":{"_id":"5132dd74a288f42e67359036","PROVIDER NPI":1396703666,"PROVIDER NAME":"Kaufman, Jemery","PROVIDER STATE":"New Mexico","PROVIDER CITY":"Taos","PROVIDER  ADDRESS":"1399 Weimer Rd, SUITE 200","PROVIDER ZIP 5 CD":87571,"PROVIDER ZIP 4 CD":6349,"PROVIDER PHONE NUM":5057582224,"PROVIDER PHONE EXT":"","PROGRAM YEAR":2011},"geometry":{"type":"Point","coordinates":[-105.573888,36.36625]}},{"type":"Feature","id":"5132dd74a288f42e67359037","properties":{"_id":"5132dd74a288f42e67359037","PROVIDER NPI":1851336986,"PROVIDER NAME":"Kaufman, Michael","PROVIDER STATE":"New Mexico","PROVIDER CITY":"Taos","PROVIDER  ADDRESS":"1399 Weimer Rd, Suite 200","PROVIDER ZIP 5 CD":87571,"PROVIDER ZIP 4 CD":"","PROVIDER PHONE NUM":5057582224,"PROVIDER PHONE EXT":"","PROGRAM YEAR":2011},"geometry":{"type":"Point","coordinates":[-105.573888,36.36625]}},{"type":"Feature","id":"5132dd74a288f42e67359038","properties":{"_id":"5132dd74a288f42e67359038","PROVIDER NPI":1376545632,"PROVIDER NAME":"Kemmer, Catherine","PROVIDER STATE":"New Mexico","PROVIDER CITY":"Las Cruces","PROVIDER  ADDRESS":"2100 S Triviz Dr, Ste H","PROVIDER ZIP 5 CD":88001,"PROVIDER ZIP 4 CD":601,"PROVIDER PHONE NUM":5755229793,"PROVIDER PHONE EXT":"","PROGRAM YEAR":2011},"geometry":{"type":"Point","coordinates":[-106.783602,32.262367]}},{"type":"Feature","id":"5132dd74a288f42e67359039","properties":{"_id":"5132dd74a288f42e67359039","PROVIDER NPI":1366448839,"PROVIDER NAME":"Kerbleski, Gerard","PROVIDER STATE":"New Mexico","PROVIDER CITY":"Albuquerque","PROVIDER  ADDRESS":"8300 Carmel Ave NE, Ste 501","PROVIDER ZIP 5 CD":87122,"PROVIDER ZIP 4 CD":3125,"PROVIDER PHONE NUM":5057971001,"PROVIDER PHONE EXT":"","PROGRAM YEAR":2011},"geometry":{"type":"Point","coordinates":[-106.496778,35.175827]}},{"type":"Feature","id":"5132dd74a288f42e6735903a","properties":{"_id":"5132dd74a288f42e6735903a","PROVIDER NPI":1356347835,"PROVIDER NAME":"Kobos, Sharon","PROVIDER STATE":"New Mexico","PROVIDER CITY":"Albuquerque","PROVIDER  ADDRESS":"6821 Montgomery Blvd NE, Suite D","PROVIDER ZIP 5 CD":87109,"PROVIDER ZIP 4 CD":1410,"PROVIDER PHONE NUM":5058818081,"PROVIDER PHONE EXT":"","PROGRAM YEAR":2011},"geometry":{"type":"Point","coordinates":[-106.572291,35.13087]}},{"type":"Feature","id":"5132dd74a288f42e6735903b","properties":{"_id":"5132dd74a288f42e6735903b","PROVIDER NPI":1407868995,"PROVIDER NAME":"Kossmann, Robert","PROVIDER STATE":"New Mexico","PROVIDER CITY":"Santa Fe","PROVIDER  ADDRESS":"1650 Hospital Dr, Suite 200","PROVIDER ZIP 5 CD":87505,"PROVIDER ZIP 4 CD":4769,"PROVIDER PHONE NUM":5059824276,"PROVIDER PHONE EXT":"","PROGRAM YEAR":2011},"geometry":{"type":"Point","coordinates":[-105.948516,35.659838]}},{"type":"Feature","id":"5132dd74a288f42e6735903c","properties":{"_id":"5132dd74a288f42e6735903c","PROVIDER NPI":1831167410,"PROVIDER NAME":"Leech, David","PROVIDER STATE":"New Mexico","PROVIDER CITY":"Albuquerque","PROVIDER  ADDRESS":"101 Hospital Loop NE, Suite 114","PROVIDER ZIP 5 CD":87109,"PROVIDER ZIP 4 CD":2129,"PROVIDER PHONE NUM":5058887770,"PROVIDER PHONE EXT":"","PROGRAM YEAR":2011},"geometry":{"type":"Point","coordinates":[-106.593241,35.132802]}},{"type":"Feature","id":"5132dd74a288f42e6735903d","properties":{"_id":"5132dd74a288f42e6735903d","PROVIDER NPI":1124134887,"PROVIDER NAME":"Lee-Jones, Yeonjoo","PROVIDER STATE":"New Mexico","PROVIDER CITY":"Albuquerque","PROVIDER  ADDRESS":"5310 Homestead Rd NE, bldg 400","PROVIDER ZIP 5 CD":87110,"PROVIDER ZIP 4 CD":1437,"PROVIDER PHONE NUM":5052563648,"PROVIDER PHONE EXT":"","PROGRAM YEAR":2011},"geometry":{"type":"Point","coordinates":[-106.585909,35.128979]}},{"type":"Feature","id":"5132dd74a288f42e6735903e","properties":{"_id":"5132dd74a288f42e6735903e","PROVIDER NPI":1275536088,"PROVIDER NAME":"Lopez de Victoria, Armando","PROVIDER STATE":"New Mexico","PROVIDER CITY":"Farmington","PROVIDER  ADDRESS":"940 W Pinon ST","PROVIDER ZIP 5 CD":87401,"PROVIDER ZIP 4 CD":5905,"PROVIDER PHONE NUM":5053265552,"PROVIDER PHONE EXT":"","PROGRAM YEAR":2011},"geometry":{"type":"Point","coordinates":[-108.218336,36.722952]}},{"type":"Feature","id":"5132dd74a288f42e6735903f","properties":{"_id":"5132dd74a288f42e6735903f","PROVIDER NPI":1982601555,"PROVIDER NAME":"Lubowitz, James","PROVIDER STATE":"New Mexico","PROVIDER CITY":"Taos","PROVIDER  ADDRESS":"1219 Gusdorf Rd, Ste A","PROVIDER ZIP 5 CD":87571,"PROVIDER ZIP 4 CD":6499,"PROVIDER PHONE NUM":5757580009,"PROVIDER PHONE EXT":"","PROGRAM YEAR":2011},"geometry":{"type":"Point","coordinates":[-105.377951,36.360605]}},{"type":"Feature","id":"5132dd74a288f42e67359040","properties":{"_id":"5132dd74a288f42e67359040","PROVIDER NPI":1295874287,"PROVIDER NAME":"Luzius, Joseph","PROVIDER STATE":"New Mexico","PROVIDER CITY":"Albuquerque","PROVIDER  ADDRESS":"801 Vassar Dr NE","PROVIDER ZIP 5 CD":87106,"PROVIDER ZIP 4 CD":2725,"PROVIDER PHONE NUM":5052484012,"PROVIDER PHONE EXT":"","PROGRAM YEAR":2011},"geometry":{"type":"Point","coordinates":[-106.614301,35.088339]}},{"type":"Feature","id":"5132dd74a288f42e67359041","properties":{"_id":"5132dd74a288f42e67359041","PROVIDER NPI":1164450904,"PROVIDER NAME":"Magee, Michael","PROVIDER STATE":"New Mexico","PROVIDER CITY":"Albuquerque","PROVIDER  ADDRESS":"4901 Lang Ave NE","PROVIDER ZIP 5 CD":87109,"PROVIDER ZIP 4 CD":"","PROVIDER PHONE NUM":5058428171,"PROVIDER PHONE EXT":"","PROGRAM YEAR":2011},"geometry":{"type":"Point","coordinates":[-106.59281,35.172447]}},{"type":"Feature","id":"5132dd74a288f42e67359042","properties":{"_id":"5132dd74a288f42e67359042","PROVIDER NPI":1144356486,"PROVIDER NAME":"Manson, Kirk","PROVIDER STATE":"New Mexico","PROVIDER CITY":"Albuquerque","PROVIDER  ADDRESS":"1804 Carlisle Blvd NE","PROVIDER ZIP 5 CD":87110,"PROVIDER ZIP 4 CD":4906,"PROVIDER PHONE NUM":5058840044,"PROVIDER PHONE EXT":"","PROGRAM YEAR":2011},"geometry":{"type":"Point","coordinates":[-106.604141,35.099165]}},{"type":"Feature","id":"5132dd74a288f42e67359043","properties":{"_id":"5132dd74a288f42e67359043","PROVIDER NPI":1366445470,"PROVIDER NAME":"Marshall, Natalie","PROVIDER STATE":"New Mexico","PROVIDER CITY":"Albuquerque","PROVIDER  ADDRESS":"4901 Lang Ave NE","PROVIDER ZIP 5 CD":87109,"PROVIDER ZIP 4 CD":4397,"PROVIDER PHONE NUM":5058428171,"PROVIDER PHONE EXT":"","PROGRAM YEAR":2011},"geometry":{"type":"Point","coordinates":[-106.59281,35.172447]}},{"type":"Feature","id":"5132dd74a288f42e67359044","properties":{"_id":"5132dd74a288f42e67359044","PROVIDER NPI":1356370894,"PROVIDER NAME":"Massen, Richard","PROVIDER STATE":"New Mexico","PROVIDER CITY":"Taos","PROVIDER  ADDRESS":"1399 Weimer Rd, Suite 600","PROVIDER ZIP 5 CD":87571,"PROVIDER ZIP 4 CD":6340,"PROVIDER PHONE NUM":5757510334,"PROVIDER PHONE EXT":"","PROGRAM YEAR":2011},"geometry":{"type":"Point","coordinates":[-105.573888,36.36625]}},{"type":"Feature","id":"5132dd74a288f42e67359045","properties":{"_id":"5132dd74a288f42e67359045","PROVIDER NPI":1720081862,"PROVIDER NAME":"McAneny, Barbara","PROVIDER STATE":"New Mexico","PROVIDER CITY":"Albuquerque","PROVIDER  ADDRESS":"4901 Lang Ave NE","PROVIDER ZIP 5 CD":87109,"PROVIDER ZIP 4 CD":4397,"PROVIDER PHONE NUM":5058428171,"PROVIDER PHONE EXT":"","PROGRAM YEAR":2011},"geometry":{"type":"Point","coordinates":[-106.59281,35.172447]}},{"type":"Feature","id":"5132dd74a288f42e67359046","properties":{"_id":"5132dd74a288f42e67359046","PROVIDER NPI":1730228214,"PROVIDER NAME":"McCanna, Charles","PROVIDER STATE":"New Mexico","PROVIDER CITY":"Santa Fe","PROVIDER  ADDRESS":"460 Saint Michaels Dr, Suite 1103","PROVIDER ZIP 5 CD":87505,"PROVIDER ZIP 4 CD":7619,"PROVIDER PHONE NUM":5059898400,"PROVIDER PHONE EXT":"","PROGRAM YEAR":2011},"geometry":{"type":"Point","coordinates":[-105.948292,35.658158]}},{"type":"Feature","id":"5132dd74a288f42e67359047","properties":{"_id":"5132dd74a288f42e67359047","PROVIDER NPI":1972519759,"PROVIDER NAME":"McLeod, Orrin","PROVIDER STATE":"New Mexico","PROVIDER CITY":"Cedar Crest","PROVIDER  ADDRESS":"12127B N Hwy 14, Suite 5","PROVIDER ZIP 5 CD":87008,"PROVIDER ZIP 4 CD":"","PROVIDER PHONE NUM":5052812460,"PROVIDER PHONE EXT":"","PROGRAM YEAR":2011},"geometry":{"type":"Point","coordinates":[-106.371734,35.117795]}},{"type":"Feature","id":"5132dd74a288f42e67359048","properties":{"_id":"5132dd74a288f42e67359048","PROVIDER NPI":1669796595,"PROVIDER NAME":"Medford, Effie","PROVIDER STATE":"New Mexico","PROVIDER CITY":"Cedar Crest","PROVIDER  ADDRESS":"12127B North Hwy 14, Suite 5","PROVIDER ZIP 5 CD":87008,"PROVIDER ZIP 4 CD":"","PROVIDER PHONE NUM":5052812460,"PROVIDER PHONE EXT":"","PROGRAM YEAR":2011},"geometry":{"type":"Point","coordinates":[-106.371734,35.117795]}},{"type":"Feature","id":"5132dd74a288f42e67359049","properties":{"_id":"5132dd74a288f42e67359049","PROVIDER NPI":1184654311,"PROVIDER NAME":"Mohling, Shanti","PROVIDER STATE":"New Mexico","PROVIDER CITY":"Taos","PROVIDER  ADDRESS":"1329 Gusdorf Rd","PROVIDER ZIP 5 CD":87571,"PROVIDER ZIP 4 CD":6282,"PROVIDER PHONE NUM":5757585001,"PROVIDER PHONE EXT":"","PROGRAM YEAR":2011},"geometry":{"type":"Point","coordinates":[-105.590286,36.373711]}},{"type":"Feature","id":"5132dd74a288f42e6735904a","properties":{"_id":"5132dd74a288f42e6735904a","PROVIDER NPI":1871591701,"PROVIDER NAME":"Moreno, Johnny","PROVIDER STATE":"New Mexico","PROVIDER CITY":"Artesia","PROVIDER  ADDRESS":"606 N 13th St","PROVIDER ZIP 5 CD":88210,"PROVIDER ZIP 4 CD":1165,"PROVIDER PHONE NUM":5757481266,"PROVIDER PHONE EXT":"","PROGRAM YEAR":2011},"geometry":{"type":"Point","coordinates":[-104.41267,32.847095]}},{"type":"Feature","id":"5132dd74a288f42e6735904b","properties":{"_id":"5132dd74a288f42e6735904b","PROVIDER NPI":1083711121,"PROVIDER NAME":"MOURACHOV, PAVEL","PROVIDER STATE":"New Mexico","PROVIDER CITY":"Los Alamos","PROVIDER  ADDRESS":"3917 West Rd, Ste 137","PROVIDER ZIP 5 CD":87544,"PROVIDER ZIP 4 CD":"","PROVIDER PHONE NUM":5056618500,"PROVIDER PHONE EXT":"","PROGRAM YEAR":2011},"geometry":{"type":"Point","coordinates":[-106.327689,35.886597]}},{"type":"Feature","id":"5132dd74a288f42e6735904c","properties":{"_id":"5132dd74a288f42e6735904c","PROVIDER NPI":1457338170,"PROVIDER NAME":"murray, james","PROVIDER STATE":"New Mexico","PROVIDER CITY":"Albuquerque","PROVIDER  ADDRESS":"801 Vassar Dr NE","PROVIDER ZIP 5 CD":87106,"PROVIDER ZIP 4 CD":2725,"PROVIDER PHONE NUM":5052484003,"PROVIDER PHONE EXT":"","PROGRAM YEAR":2011},"geometry":{"type":"Point","coordinates":[-106.614301,35.088339]}},{"type":"Feature","id":"5132dd74a288f42e6735904d","properties":{"_id":"5132dd74a288f42e6735904d","PROVIDER NPI":1477787208,"PROVIDER NAME":"Noseff, Jerried","PROVIDER STATE":"New Mexico","PROVIDER CITY":"Hobbs","PROVIDER  ADDRESS":"2410 N Fowler St, Suite A","PROVIDER ZIP 5 CD":88240,"PROVIDER ZIP 4 CD":2312,"PROVIDER PHONE NUM":5754921502,"PROVIDER PHONE EXT":"","PROGRAM YEAR":2011},"geometry":{"type":"Point","coordinates":[-103.12666,32.697623]}},{"type":"Feature","id":"5132dd74a288f42e6735904e","properties":{"_id":"5132dd74a288f42e6735904e","PROVIDER NPI":1316032923,"PROVIDER NAME":"Olmeda, Maria","PROVIDER STATE":"New Mexico","PROVIDER CITY":"Farmington","PROVIDER  ADDRESS":"940 W Pinon St","PROVIDER ZIP 5 CD":87401,"PROVIDER ZIP 4 CD":5905,"PROVIDER PHONE NUM":5053265552,"PROVIDER PHONE EXT":"","PROGRAM YEAR":2011},"geometry":{"type":"Point","coordinates":[-108.218336,36.722952]}},{"type":"Feature","id":"5132dd74a288f42e6735904f","properties":{"_id":"5132dd74a288f42e6735904f","PROVIDER NPI":1295726073,"PROVIDER NAME":"O'Shea, Sheryl","PROVIDER STATE":"New Mexico","PROVIDER CITY":"Albuquerque","PROVIDER  ADDRESS":"801 Vassar Dr NE","PROVIDER ZIP 5 CD":87106,"PROVIDER ZIP 4 CD":2725,"PROVIDER PHONE NUM":5052484052,"PROVIDER PHONE EXT":"","PROGRAM YEAR":2011},"geometry":{"type":"Point","coordinates":[-106.614301,35.088339]}},{"type":"Feature","id":"5132dd74a288f42e67359050","properties":{"_id":"5132dd74a288f42e67359050","PROVIDER NPI":1497745509,"PROVIDER NAME":"Pincus, Michael","PROVIDER STATE":"New Mexico","PROVIDER CITY":"Rio Rancho","PROVIDER  ADDRESS":"2207-A Golf Course Rd SE","PROVIDER ZIP 5 CD":87124,"PROVIDER ZIP 4 CD":1954,"PROVIDER PHONE NUM":5058961500,"PROVIDER PHONE EXT":"","PROGRAM YEAR":2011},"geometry":{"type":"Point","coordinates":[-106.677169,35.220155]}},{"type":"Feature","id":"5132dd74a288f42e67359051","properties":{"_id":"5132dd74a288f42e67359051","PROVIDER NPI":1689664385,"PROVIDER NAME":"Reid, John","PROVIDER STATE":"New Mexico","PROVIDER CITY":"Taos","PROVIDER  ADDRESS":"1219 Gusdorf Rd","PROVIDER ZIP 5 CD":87571,"PROVIDER ZIP 4 CD":5402,"PROVIDER PHONE NUM":5757580009,"PROVIDER PHONE EXT":"","PROGRAM YEAR":2011},"geometry":{"type":"Point","coordinates":[-105.587475,36.377583]}},{"type":"Feature","id":"5132dd74a288f42e67359052","properties":{"_id":"5132dd74a288f42e67359052","PROVIDER NPI":1770589475,"PROVIDER NAME":"Rhymes, Jill","PROVIDER STATE":"New Mexico","PROVIDER CITY":"Santa Fe","PROVIDER  ADDRESS":"531 Harkle Rd, Ste B","PROVIDER ZIP 5 CD":87505,"PROVIDER ZIP 4 CD":4753,"PROVIDER PHONE NUM":5059839622,"PROVIDER PHONE EXT":"","PROGRAM YEAR":2011},"geometry":{"type":"Point","coordinates":[-105.869104,35.546963]}},{"type":"Feature","id":"5132dd74a288f42e67359053","properties":{"_id":"5132dd74a288f42e67359053","PROVIDER NPI":1700843000,"PROVIDER NAME":"Schreiber, Lawrence","PROVIDER STATE":"New Mexico","PROVIDER CITY":"Taos","PROVIDER  ADDRESS":"630 Paseo Del Pueblo Sur, Suite 150","PROVIDER ZIP 5 CD":87571,"PROVIDER ZIP 4 CD":7002,"PROVIDER PHONE NUM":5057515711,"PROVIDER PHONE EXT":"","PROGRAM YEAR":2011},"geometry":{"type":"Point","coordinates":[-105.572272,36.530994]}},{"type":"Feature","id":"5132dd74a288f42e67359054","properties":{"_id":"5132dd74a288f42e67359054","PROVIDER NPI":1821056920,"PROVIDER NAME":"Schreiber, Lucas","PROVIDER STATE":"New Mexico","PROVIDER CITY":"Taos","PROVIDER  ADDRESS":"630 Paseo Del Pueblo Sur, Suite 150","PROVIDER ZIP 5 CD":87571,"PROVIDER ZIP 4 CD":7002,"PROVIDER PHONE NUM":5057515711,"PROVIDER PHONE EXT":"","PROGRAM YEAR":2011},"geometry":{"type":"Point","coordinates":[-105.572272,36.530994]}},{"type":"Feature","id":"5132dd74a288f42e67359055","properties":{"_id":"5132dd74a288f42e67359055","PROVIDER NPI":1407871536,"PROVIDER NAME":"Schulte, Charles","PROVIDER STATE":"New Mexico","PROVIDER CITY":"Albuquerque","PROVIDER  ADDRESS":"4333 Pan American Fwy NE Ste B","PROVIDER ZIP 5 CD":87107,"PROVIDER ZIP 4 CD":6831,"PROVIDER PHONE NUM":5052471073,"PROVIDER PHONE EXT":"","PROGRAM YEAR":2011},"geometry":{"type":"Point","coordinates":[-106.619509,35.127204]}},{"type":"Feature","id":"5132dd74a288f42e67359056","properties":{"_id":"5132dd74a288f42e67359056","PROVIDER NPI":1275545782,"PROVIDER NAME":"Seredowych, Mark","PROVIDER STATE":"New Mexico","PROVIDER CITY":"Santa Fe","PROVIDER  ADDRESS":"1650 Hospital Dr, Suite 200","PROVIDER ZIP 5 CD":87505,"PROVIDER ZIP 4 CD":4769,"PROVIDER PHONE NUM":5059824276,"PROVIDER PHONE EXT":"","PROGRAM YEAR":2011},"geometry":{"type":"Point","coordinates":[-105.948516,35.659838]}},{"type":"Feature","id":"5132dd74a288f42e67359057","properties":{"_id":"5132dd74a288f42e67359057","PROVIDER NPI":1598762791,"PROVIDER NAME":"Shaffer, Bruce","PROVIDER STATE":"New Mexico","PROVIDER CITY":"Santa Fe","PROVIDER  ADDRESS":"1925 Aspen Dr, Ste 802A","PROVIDER ZIP 5 CD":87505,"PROVIDER ZIP 4 CD":5577,"PROVIDER PHONE NUM":5054732972,"PROVIDER PHONE EXT":"","PROGRAM YEAR":2011},"geometry":{"type":"Point","coordinates":[-105.970819,35.655166]}},{"type":"Feature","id":"5132dd74a288f42e67359058","properties":{"_id":"5132dd74a288f42e67359058","PROVIDER NPI":1538176227,"PROVIDER NAME":"Shelley, Brent","PROVIDER STATE":"New Mexico","PROVIDER CITY":"Las Cruces","PROVIDER  ADDRESS":"1680  Calle de Alvarez","PROVIDER ZIP 5 CD":88005,"PROVIDER ZIP 4 CD":"","PROVIDER PHONE NUM":5755265367,"PROVIDER PHONE EXT":"","PROGRAM YEAR":2011},"geometry":{"type":"Point","coordinates":[-106.794311,32.28086]}},{"type":"Feature","id":"5132dd74a288f42e67359059","properties":{"_id":"5132dd74a288f42e67359059","PROVIDER NPI":1023051232,"PROVIDER NAME":"Shepard, Peter","PROVIDER STATE":"New Mexico","PROVIDER CITY":"Santa Fe","PROVIDER  ADDRESS":"1620 Hospital Dr, Southwestern Ear Nose and Throat Associates","PROVIDER ZIP 5 CD":87505,"PROVIDER ZIP 4 CD":4754,"PROVIDER PHONE NUM":5059824848,"PROVIDER PHONE EXT":"","PROGRAM YEAR":2011},"geometry":{"type":"Point","coordinates":[-105.948529,35.659967]}},{"type":"Feature","id":"5132dd74a288f42e6735905a","properties":{"_id":"5132dd74a288f42e6735905a","PROVIDER NPI":1316943897,"PROVIDER NAME":"Simon, Janet","PROVIDER STATE":"New Mexico","PROVIDER CITY":"Albuquerque","PROVIDER  ADDRESS":"8300 Carmel Ave NE, Ste 501","PROVIDER ZIP 5 CD":87122,"PROVIDER ZIP 4 CD":3125,"PROVIDER PHONE NUM":5057971001,"PROVIDER PHONE EXT":"","PROGRAM YEAR":2011},"geometry":{"type":"Point","coordinates":[-106.496778,35.175827]}},{"type":"Feature","id":"5132dd74a288f42e6735905b","properties":{"_id":"5132dd74a288f42e6735905b","PROVIDER NPI":1740224500,"PROVIDER NAME":"Singh, Jagdev","PROVIDER STATE":"New Mexico","PROVIDER CITY":"Alamogordo","PROVIDER  ADDRESS":"1909 Cuba Ave, Suite 1","PROVIDER ZIP 5 CD":88310,"PROVIDER ZIP 4 CD":5646,"PROVIDER PHONE NUM":5754371900,"PROVIDER PHONE EXT":"","PROGRAM YEAR":2011},"geometry":{"type":"Point","coordinates":[-105.991663,32.807324]}},{"type":"Feature","id":"5132dd74a288f42e6735905c","properties":{"_id":"5132dd74a288f42e6735905c","PROVIDER NPI":1780628495,"PROVIDER NAME":"Sinha, Jayashree","PROVIDER STATE":"New Mexico","PROVIDER CITY":"Clovis","PROVIDER  ADDRESS":"1600 W 21st St, Suite B","PROVIDER ZIP 5 CD":88101,"PROVIDER ZIP 4 CD":4084,"PROVIDER PHONE NUM":5759355051,"PROVIDER PHONE EXT":"","PROGRAM YEAR":2011},"geometry":{"type":"Point","coordinates":[-103.201538,34.419312]}},{"type":"Feature","id":"5132dd74a288f42e6735905d","properties":{"_id":"5132dd74a288f42e6735905d","PROVIDER NPI":1194773911,"PROVIDER NAME":"Slaughter, Douglas","PROVIDER STATE":"New Mexico","PROVIDER CITY":"Albuquerque","PROVIDER  ADDRESS":"3620 Bosque Plaza Ste A","PROVIDER ZIP 5 CD":87120,"PROVIDER ZIP 4 CD":4297,"PROVIDER PHONE NUM":5057926886,"PROVIDER PHONE EXT":"","PROGRAM YEAR":2011},"geometry":{"type":"Point","coordinates":[-106.716253,35.142951]}},{"type":"Feature","id":"5132dd74a288f42e6735905e","properties":{"_id":"5132dd74a288f42e6735905e","PROVIDER NPI":1720154743,"PROVIDER NAME":"Smith, Martin","PROVIDER STATE":"New Mexico","PROVIDER CITY":"Farmington","PROVIDER  ADDRESS":"1707 East 20th Street","PROVIDER ZIP 5 CD":87401,"PROVIDER ZIP 4 CD":4309,"PROVIDER PHONE NUM":5053275086,"PROVIDER PHONE EXT":"","PROGRAM YEAR":2011},"geometry":{"type":"Point","coordinates":[-108.185745,36.74817]}},{"type":"Feature","id":"5132dd74a288f42e6735905f","properties":{"_id":"5132dd74a288f42e6735905f","PROVIDER NPI":1144236753,"PROVIDER NAME":"Snyder, Tiffany","PROVIDER STATE":"New Mexico","PROVIDER CITY":"Albuquerque","PROVIDER  ADDRESS":"801 VASSAR DRIVE NE","PROVIDER ZIP 5 CD":87106,"PROVIDER ZIP 4 CD":2725,"PROVIDER PHONE NUM":5052484052,"PROVIDER PHONE EXT":"","PROGRAM YEAR":2011},"geometry":{"type":"Point","coordinates":[-106.614301,35.088339]}},{"type":"Feature","id":"5132dd74a288f42e67359060","properties":{"_id":"5132dd74a288f42e67359060","PROVIDER NPI":1992706352,"PROVIDER NAME":"Spence, Michael","PROVIDER STATE":"New Mexico","PROVIDER CITY":"Ruidoso","PROVIDER  ADDRESS":"121 El Paso Rd","PROVIDER ZIP 5 CD":88345,"PROVIDER ZIP 4 CD":6033,"PROVIDER PHONE NUM":5752574061,"PROVIDER PHONE EXT":"","PROGRAM YEAR":2011},"geometry":{"type":"Point","coordinates":[-105.630272,33.320113]}},{"type":"Feature","id":"5132dd74a288f42e67359061","properties":{"_id":"5132dd74a288f42e67359061","PROVIDER NPI":1477546463,"PROVIDER NAME":"Spruce, Haruhauani","PROVIDER STATE":"New Mexico","PROVIDER CITY":"T Or C","PROVIDER  ADDRESS":"455 S Foch St","PROVIDER ZIP 5 CD":87901,"PROVIDER ZIP 4 CD":"","PROVIDER PHONE NUM":5758944000,"PROVIDER PHONE EXT":"","PROGRAM YEAR":2011},"geometry":{"type":"Point","coordinates":[-107.254282,33.12813]}},{"type":"Feature","id":"5132dd74a288f42e67359062","properties":{"_id":"5132dd74a288f42e67359062","PROVIDER NPI":1255402798,"PROVIDER NAME":"Steier, James","PROVIDER STATE":"New Mexico","PROVIDER CITY":"Albuquerque","PROVIDER  ADDRESS":"4901 Lang Ave NE","PROVIDER ZIP 5 CD":87109,"PROVIDER ZIP 4 CD":"","PROVIDER PHONE NUM":5058221309,"PROVIDER PHONE EXT":"","PROGRAM YEAR":2011},"geometry":{"type":"Point","coordinates":[-106.59281,35.172447]}},{"type":"Feature","id":"5132dd74a288f42e67359063","properties":{"_id":"5132dd74a288f42e67359063","PROVIDER NPI":1801854864,"PROVIDER NAME":"Steinberg, Marc","PROVIDER STATE":"New Mexico","PROVIDER CITY":"Taos","PROVIDER  ADDRESS":"630 Paseo Del Pueblo Sur, Suite 150","PROVIDER ZIP 5 CD":87571,"PROVIDER ZIP 4 CD":"","PROVIDER PHONE NUM":5057515711,"PROVIDER PHONE EXT":"","PROGRAM YEAR":2011},"geometry":{"type":"Point","coordinates":[-105.572272,36.530994]}},{"type":"Feature","id":"5132dd74a288f42e67359064","properties":{"_id":"5132dd74a288f42e67359064","PROVIDER NPI":1831270719,"PROVIDER NAME":"Stinar, Donald","PROVIDER STATE":"New Mexico","PROVIDER CITY":"Silver City","PROVIDER  ADDRESS":"2584 N Silver Street, Bldg B","PROVIDER ZIP 5 CD":88061,"PROVIDER ZIP 4 CD":7151,"PROVIDER PHONE NUM":5753880184,"PROVIDER PHONE EXT":"","PROGRAM YEAR":2011},"geometry":{"type":"Point","coordinates":[-108.192313,32.778393]}},{"type":"Feature","id":"5132dd74a288f42e67359065","properties":{"_id":"5132dd74a288f42e67359065","PROVIDER NPI":1326004706,"PROVIDER NAME":"Stoik, Vaida","PROVIDER STATE":"New Mexico","PROVIDER CITY":"Santa Fe","PROVIDER  ADDRESS":"1650 Hospital Dr, Suite 200","PROVIDER ZIP 5 CD":87505,"PROVIDER ZIP 4 CD":4769,"PROVIDER PHONE NUM":5059824276,"PROVIDER PHONE EXT":"","PROGRAM YEAR":2011},"geometry":{"type":"Point","coordinates":[-105.948516,35.659838]}},{"type":"Feature","id":"5132dd74a288f42e67359066","properties":{"_id":"5132dd74a288f42e67359066","PROVIDER NPI":1558367888,"PROVIDER NAME":"Sunde, Scott","PROVIDER STATE":"New Mexico","PROVIDER CITY":"Albuquerque","PROVIDER  ADDRESS":"801 Vassar Drive NE","PROVIDER ZIP 5 CD":87106,"PROVIDER ZIP 4 CD":2725,"PROVIDER PHONE NUM":5052484052,"PROVIDER PHONE EXT":"","PROGRAM YEAR":2011},"geometry":{"type":"Point","coordinates":[-106.614301,35.088339]}},{"type":"Feature","id":"5132dd74a288f42e67359067","properties":{"_id":"5132dd74a288f42e67359067","PROVIDER NPI":1396895835,"PROVIDER NAME":"Thomason, Thomas","PROVIDER STATE":"New Mexico","PROVIDER CITY":"Santa Fe","PROVIDER  ADDRESS":"1620 Hospital Dr","PROVIDER ZIP 5 CD":87505,"PROVIDER ZIP 4 CD":4743,"PROVIDER PHONE NUM":5059824848,"PROVIDER PHONE EXT":"","PROGRAM YEAR":2011},"geometry":{"type":"Point","coordinates":[-105.948529,35.659967]}},{"type":"Feature","id":"5132dd74a288f42e67359068","properties":{"_id":"5132dd74a288f42e67359068","PROVIDER NPI":1447256805,"PROVIDER NAME":"Tso, Wilbur","PROVIDER STATE":"New Mexico","PROVIDER CITY":"Farmington","PROVIDER  ADDRESS":"211 N Auburn Ave","PROVIDER ZIP 5 CD":87401,"PROVIDER ZIP 4 CD":8411,"PROVIDER PHONE NUM":5053279876,"PROVIDER PHONE EXT":"","PROGRAM YEAR":2011},"geometry":{"type":"Point","coordinates":[-108.210704,36.730445]}},{"type":"Feature","id":"5132dd74a288f42e67359069","properties":{"_id":"5132dd74a288f42e67359069","PROVIDER NPI":1740387760,"PROVIDER NAME":"Voinescu, Catalina","PROVIDER STATE":"New Mexico","PROVIDER CITY":"Santa Fe","PROVIDER  ADDRESS":"1650 Hospital Dr, Suite 200","PROVIDER ZIP 5 CD":87505,"PROVIDER ZIP 4 CD":4769,"PROVIDER PHONE NUM":5059824276,"PROVIDER PHONE EXT":"","PROGRAM YEAR":2011},"geometry":{"type":"Point","coordinates":[-105.948516,35.659838]}},{"type":"Feature","id":"5132dd74a288f42e6735906a","properties":{"_id":"5132dd74a288f42e6735906a","PROVIDER NPI":1891753836,"PROVIDER NAME":"Warren, Ellen","PROVIDER STATE":"New Mexico","PROVIDER CITY":"Taos","PROVIDER  ADDRESS":"630 Paseo Del Pueblo Sur, Suite 150","PROVIDER ZIP 5 CD":87571,"PROVIDER ZIP 4 CD":"","PROVIDER PHONE NUM":5057515711,"PROVIDER PHONE EXT":"","PROGRAM YEAR":2011},"geometry":{"type":"Point","coordinates":[-105.572272,36.530994]}},{"type":"Feature","id":"5132dd74a288f42e6735906b","properties":{"_id":"5132dd74a288f42e6735906b","PROVIDER NPI":1396845327,"PROVIDER NAME":"Waters, Jack","PROVIDER STATE":"New Mexico","PROVIDER CITY":"Clovis","PROVIDER  ADDRESS":"1833 W 21st St","PROVIDER ZIP 5 CD":88101,"PROVIDER ZIP 4 CD":4023,"PROVIDER PHONE NUM":5757638888,"PROVIDER PHONE EXT":"","PROGRAM YEAR":2011},"geometry":{"type":"Point","coordinates":[-103.201538,34.419312]}},{"type":"Feature","id":"5132dd74a288f42e6735906c","properties":{"_id":"5132dd74a288f42e6735906c","PROVIDER NPI":1497769947,"PROVIDER NAME":"Weinstein, Richard","PROVIDER STATE":"New Mexico","PROVIDER CITY":"Albuquerque","PROVIDER  ADDRESS":"1925-D Juan Tabo NE","PROVIDER ZIP 5 CD":87112,"PROVIDER ZIP 4 CD":"","PROVIDER PHONE NUM":5052936290,"PROVIDER PHONE EXT":"","PROGRAM YEAR":2011},"geometry":{"type":"Point","coordinates":[-106.515522,35.103028]}},{"type":"Feature","id":"5132dd74a288f42e6735906d","properties":{"_id":"5132dd74a288f42e6735906d","PROVIDER NPI":1760427892,"PROVIDER NAME":"White, Robert","PROVIDER STATE":"New Mexico","PROVIDER CITY":"Taos","PROVIDER  ADDRESS":"1399 Weimer Road, SUITE 200","PROVIDER ZIP 5 CD":87571,"PROVIDER ZIP 4 CD":"","PROVIDER PHONE NUM":5057582224,"PROVIDER PHONE EXT":"","PROGRAM YEAR":2011},"geometry":{"type":"Point","coordinates":[-105.573888,36.36625]}},{"type":"Feature","id":"5132dd74a288f42e6735906e","properties":{"_id":"5132dd74a288f42e6735906e","PROVIDER NPI":1114942257,"PROVIDER NAME":"Wilkey, David","PROVIDER STATE":"New Mexico","PROVIDER CITY":"Farmington","PROVIDER  ADDRESS":"2300 E 30th St, Bldg D-102","PROVIDER ZIP 5 CD":87401,"PROVIDER ZIP 4 CD":8990,"PROVIDER PHONE NUM":5053274429,"PROVIDER PHONE EXT":"","PROGRAM YEAR":2011},"geometry":{"type":"Point","coordinates":[-108.174327,36.757051]}},{"type":"Feature","id":"5132dd74a288f42e6735906f","properties":{"_id":"5132dd74a288f42e6735906f","PROVIDER NPI":1558592337,"PROVIDER NAME":"Williamson, Jonathan","PROVIDER STATE":"New Mexico","PROVIDER CITY":"Albuquerque","PROVIDER  ADDRESS":"5111 Juan Tabo Blvd NE","PROVIDER ZIP 5 CD":87111,"PROVIDER ZIP 4 CD":"","PROVIDER PHONE NUM":5058801000,"PROVIDER PHONE EXT":"","PROGRAM YEAR":2011},"geometry":{"type":"Point","coordinates":[-106.516296,35.139108]}},{"type":"Feature","id":"5132dd74a288f42e67359070","properties":{"_id":"5132dd74a288f42e67359070","PROVIDER NPI":1013994961,"PROVIDER NAME":"Willinghurst, Lori","PROVIDER STATE":"New Mexico","PROVIDER CITY":"Albuquerque","PROVIDER  ADDRESS":"801 Vassar Dr NE","PROVIDER ZIP 5 CD":87106,"PROVIDER ZIP 4 CD":2725,"PROVIDER PHONE NUM":5052487610,"PROVIDER PHONE EXT":"","PROGRAM YEAR":2011},"geometry":{"type":"Point","coordinates":[-106.614301,35.088339]}},{"type":"Feature","id":"5132dd74a288f42e67359071","properties":{"_id":"5132dd74a288f42e67359071","PROVIDER NPI":1215917323,"PROVIDER NAME":"Willmon, Thomas","PROVIDER STATE":"New Mexico","PROVIDER CITY":"Clovis","PROVIDER  ADDRESS":"1217 Pile St, PO Box 700","PROVIDER ZIP 5 CD":88101,"PROVIDER ZIP 4 CD":5944,"PROVIDER PHONE NUM":5757635522,"PROVIDER PHONE EXT":"","PROGRAM YEAR":2011},"geometry":{"type":"Point","coordinates":[-103.294978,34.497241]}},{"type":"Feature","id":"5132dd74a288f42e67359072","properties":{"_id":"5132dd74a288f42e67359072","PROVIDER NPI":1477552958,"PROVIDER NAME":"Adams, Gabrielle","PROVIDER STATE":"New Mexico","PROVIDER CITY":"Albuquerque","PROVIDER  ADDRESS":"7788 Jefferson St NE","PROVIDER ZIP 5 CD":87109,"PROVIDER ZIP 4 CD":4342,"PROVIDER PHONE NUM":5059991600,"PROVIDER PHONE EXT":"","PROGRAM YEAR":2012},"geometry":{"type":"Point","coordinates":[-106.588821,35.168522]}},{"type":"Feature","id":"5132dd74a288f42e67359073","properties":{"_id":"5132dd74a288f42e67359073","PROVIDER NPI":1174749014,"PROVIDER NAME":"Agosta, Jennifer","PROVIDER STATE":"New Mexico","PROVIDER CITY":"Silver City","PROVIDER  ADDRESS":"1600 E 32nd St","PROVIDER ZIP 5 CD":88061,"PROVIDER ZIP 4 CD":7287,"PROVIDER PHONE NUM":5755382981,"PROVIDER PHONE EXT":"","PROGRAM YEAR":2012},"geometry":{"type":"Point","coordinates":[-108.261058,32.795458]}},{"type":"Feature","id":"5132dd74a288f42e67359074","properties":{"_id":"5132dd74a288f42e67359074","PROVIDER NPI":1083810311,"PROVIDER NAME":"Allen, Rebekah","PROVIDER STATE":"New Mexico","PROVIDER CITY":"Albuquerque","PROVIDER  ADDRESS":"5757 Harper Dr NE","PROVIDER ZIP 5 CD":87109,"PROVIDER ZIP 4 CD":3566,"PROVIDER PHONE NUM":5058885757,"PROVIDER PHONE EXT":"","PROGRAM YEAR":2012},"geometry":{"type":"Point","coordinates":[-106.586099,35.153189]}},{"type":"Feature","id":"5132dd74a288f42e67359075","properties":{"_id":"5132dd74a288f42e67359075","PROVIDER NPI":1043282395,"PROVIDER NAME":"Alqassem, Nasser","PROVIDER STATE":"New Mexico","PROVIDER CITY":"Alamogordo","PROVIDER  ADDRESS":"1101 9th St, Ste A","PROVIDER ZIP 5 CD":88310,"PROVIDER ZIP 4 CD":"","PROVIDER PHONE NUM":5054378411,"PROVIDER PHONE EXT":"","PROGRAM YEAR":2012},"geometry":{"type":"Point","coordinates":[-105.877869,33.644799]}},{"type":"Feature","id":"5132dd74a288f42e67359076","properties":{"_id":"5132dd74a288f42e67359076","PROVIDER NPI":1235101940,"PROVIDER NAME":"Anderson, John","PROVIDER STATE":"New Mexico","PROVIDER CITY":"Alamogordo","PROVIDER  ADDRESS":"2301 Indian Wells Rd, Suite A","PROVIDER ZIP 5 CD":88310,"PROVIDER ZIP 4 CD":4607,"PROVIDER PHONE NUM":5754340639,"PROVIDER PHONE EXT":110,"PROGRAM YEAR":2012},"geometry":{"type":"Point","coordinates":[-105.956478,32.915141]}},{"type":"Feature","id":"5132dd74a288f42e67359077","properties":{"_id":"5132dd74a288f42e67359077","PROVIDER NPI":1225035967,"PROVIDER NAME":"Apple, Neal","PROVIDER STATE":"New Mexico","PROVIDER CITY":"Las Cruces","PROVIDER  ADDRESS":"2810 N Telshor Blvd","PROVIDER ZIP 5 CD":88011,"PROVIDER ZIP 4 CD":"","PROVIDER PHONE NUM":5755232020,"PROVIDER PHONE EXT":"","PROGRAM YEAR":2012},"geometry":{"type":"Point","coordinates":[-106.763732,32.350536]}},{"type":"Feature","id":"5132dd74a288f42e67359078","properties":{"_id":"5132dd74a288f42e67359078","PROVIDER NPI":1437143195,"PROVIDER NAME":"BAY, MICHAEL","PROVIDER STATE":"New Mexico","PROVIDER CITY":"Albuquerque","PROVIDER  ADDRESS":"7788 Jefferson St NE","PROVIDER ZIP 5 CD":87109,"PROVIDER ZIP 4 CD":4342,"PROVIDER PHONE NUM":5059991600,"PROVIDER PHONE EXT":"","PROGRAM YEAR":2012},"geometry":{"type":"Point","coordinates":[-106.588821,35.168522]}},{"type":"Feature","id":"5132dd74a288f42e67359079","properties":{"_id":"5132dd74a288f42e67359079","PROVIDER NPI":1467414615,"PROVIDER NAME":"Bey, Lovie","PROVIDER STATE":"New Mexico","PROVIDER CITY":"Albuquerque","PROVIDER  ADDRESS":"1001 Coal Ave SE","PROVIDER ZIP 5 CD":87106,"PROVIDER ZIP 4 CD":5205,"PROVIDER PHONE NUM":5059385858,"PROVIDER PHONE EXT":"","PROGRAM YEAR":2012},"geometry":{"type":"Point","coordinates":[-106.636488,35.078639]}},{"type":"Feature","id":"5132dd74a288f42e6735907a","properties":{"_id":"5132dd74a288f42e6735907a","PROVIDER NPI":1174776868,"PROVIDER NAME":"Bieniarz, Mark","PROVIDER STATE":"New Mexico","PROVIDER CITY":"Albuquerque","PROVIDER  ADDRESS":"502 Elm St NE","PROVIDER ZIP 5 CD":87102,"PROVIDER ZIP 4 CD":2512,"PROVIDER PHONE NUM":5058411000,"PROVIDER PHONE EXT":"","PROGRAM YEAR":2012},"geometry":{"type":"Point","coordinates":[-106.637722,35.087447]}},{"type":"Feature","id":"5132dd74a288f42e6735907b","properties":{"_id":"5132dd74a288f42e6735907b","PROVIDER NPI":1063410116,"PROVIDER NAME":"Bieri, Mark","PROVIDER STATE":"New Mexico","PROVIDER CITY":"Las Cruces","PROVIDER  ADDRESS":"2545 S Don Roser Dr","PROVIDER ZIP 5 CD":88011,"PROVIDER ZIP 4 CD":9107,"PROVIDER PHONE NUM":5755227880,"PROVIDER PHONE EXT":"","PROGRAM YEAR":2012},"geometry":{"type":"Point","coordinates":[-106.73929,32.292639]}},{"type":"Feature","id":"5132dd74a288f42e6735907c","properties":{"_id":"5132dd74a288f42e6735907c","PROVIDER NPI":1548268428,"PROVIDER NAME":"Bigelow, Daryl","PROVIDER STATE":"New Mexico","PROVIDER CITY":"Rio Rancho","PROVIDER  ADDRESS":"1740 Grande Blvd SE, Suite B","PROVIDER ZIP 5 CD":87124,"PROVIDER ZIP 4 CD":1799,"PROVIDER PHONE NUM":5058923434,"PROVIDER PHONE EXT":"","PROGRAM YEAR":2012},"geometry":{"type":"Point","coordinates":[-106.710707,35.254208]}},{"type":"Feature","id":"5132dd74a288f42e6735907d","properties":{"_id":"5132dd74a288f42e6735907d","PROVIDER NPI":1376545848,"PROVIDER NAME":"Boehringer, Christine","PROVIDER STATE":"New Mexico","PROVIDER CITY":"Albuquerque","PROVIDER  ADDRESS":"500 Walter St NE, Ste 104","PROVIDER ZIP 5 CD":87102,"PROVIDER ZIP 4 CD":2534,"PROVIDER PHONE NUM":5058483730,"PROVIDER PHONE EXT":"","PROGRAM YEAR":2012},"geometry":{"type":"Point","coordinates":[-106.640314,35.086459]}},{"type":"Feature","id":"5132dd74a288f42e6735907e","properties":{"_id":"5132dd74a288f42e6735907e","PROVIDER NPI":1861436495,"PROVIDER NAME":"Botwin, Mark","PROVIDER STATE":"New Mexico","PROVIDER CITY":"Santa Fe","PROVIDER  ADDRESS":"444 Saint Michaels Dr","PROVIDER ZIP 5 CD":87505,"PROVIDER ZIP 4 CD":7602,"PROVIDER PHONE NUM":5059544442,"PROVIDER PHONE EXT":"","PROGRAM YEAR":2012},"geometry":{"type":"Point","coordinates":[-105.944589,35.656961]}},{"type":"Feature","id":"5132dd74a288f42e6735907f","properties":{"_id":"5132dd74a288f42e6735907f","PROVIDER NPI":1962402081,"PROVIDER NAME":"Bratton, Angela","PROVIDER STATE":"New Mexico","PROVIDER CITY":"Los Alamos","PROVIDER  ADDRESS":"1623 Central Ave","PROVIDER ZIP 5 CD":87544,"PROVIDER ZIP 4 CD":3018,"PROVIDER PHONE NUM":5056625444,"PROVIDER PHONE EXT":"","PROGRAM YEAR":2012},"geometry":{"type":"Point","coordinates":[-106.300094,35.881397]}},{"type":"Feature","id":"5132dd74a288f42e67359080","properties":{"_id":"5132dd74a288f42e67359080","PROVIDER NPI":1164424214,"PROVIDER NAME":"Bujoi, Mihaela","PROVIDER STATE":"New Mexico","PROVIDER CITY":"Albuquerque","PROVIDER  ADDRESS":"502 Elm St NE","PROVIDER ZIP 5 CD":87102,"PROVIDER ZIP 4 CD":2512,"PROVIDER PHONE NUM":5058411000,"PROVIDER PHONE EXT":"","PROGRAM YEAR":2012},"geometry":{"type":"Point","coordinates":[-106.637722,35.087447]}},{"type":"Feature","id":"5132dd74a288f42e67359081","properties":{"_id":"5132dd74a288f42e67359081","PROVIDER NPI":1134128416,"PROVIDER NAME":"Burdon, John","PROVIDER STATE":"New Mexico","PROVIDER CITY":"Albuquerque","PROVIDER  ADDRESS":"7788 Jefferson St NE","PROVIDER ZIP 5 CD":87109,"PROVIDER ZIP 4 CD":4342,"PROVIDER PHONE NUM":5059991600,"PROVIDER PHONE EXT":"","PROGRAM YEAR":2012},"geometry":{"type":"Point","coordinates":[-106.588821,35.168522]}},{"type":"Feature","id":"5132dd74a288f42e67359082","properties":{"_id":"5132dd74a288f42e67359082","PROVIDER NPI":1154571412,"PROVIDER NAME":"Byrne, Erin","PROVIDER STATE":"New Mexico","PROVIDER CITY":"Las Vegas","PROVIDER  ADDRESS":"248 Mills Ave","PROVIDER ZIP 5 CD":87701,"PROVIDER ZIP 4 CD":4125,"PROVIDER PHONE NUM":5054268866,"PROVIDER PHONE EXT":"","PROGRAM YEAR":2012},"geometry":{"type":"Point","coordinates":[-105.22989,35.601599]}},{"type":"Feature","id":"5132dd74a288f42e67359083","properties":{"_id":"5132dd74a288f42e67359083","PROVIDER NPI":1407966369,"PROVIDER NAME":"Calkins, David","PROVIDER STATE":"New Mexico","PROVIDER CITY":"Alamogordo","PROVIDER  ADDRESS":"2301 Indian Wells Rd Ste A","PROVIDER ZIP 5 CD":88310,"PROVIDER ZIP 4 CD":4611,"PROVIDER PHONE NUM":5754340639,"PROVIDER PHONE EXT":110,"PROGRAM YEAR":2012},"geometry":{"type":"Point","coordinates":[-105.934628,32.915242]}},{"type":"Feature","id":"5132dd74a288f42e67359084","properties":{"_id":"5132dd74a288f42e67359084","PROVIDER NPI":1881650547,"PROVIDER NAME":"Cano-Howes, Melinda","PROVIDER STATE":"New Mexico","PROVIDER CITY":"Los Lunas","PROVIDER  ADDRESS":"1603 Main Street, SW, Suite B","PROVIDER ZIP 5 CD":87031,"PROVIDER ZIP 4 CD":"","PROVIDER PHONE NUM":5058656100,"PROVIDER PHONE EXT":"","PROGRAM YEAR":2012},"geometry":{"type":"Point","coordinates":[-106.753673,34.813745]}},{"type":"Feature","id":"5132dd74a288f42e67359085","properties":{"_id":"5132dd74a288f42e67359085","PROVIDER NPI":1528172871,"PROVIDER NAME":"Carpenter, Samuel","PROVIDER STATE":"New Mexico","PROVIDER CITY":"Farmington","PROVIDER  ADDRESS":"304 S Lake St., Ste 104","PROVIDER ZIP 5 CD":87401,"PROVIDER ZIP 4 CD":5659,"PROVIDER PHONE NUM":5053273338,"PROVIDER PHONE EXT":"","PROGRAM YEAR":2012},"geometry":{"type":"Point","coordinates":[-108.20927,36.727167]}},{"type":"Feature","id":"5132dd74a288f42e67359086","properties":{"_id":"5132dd74a288f42e67359086","PROVIDER NPI":1568411916,"PROVIDER NAME":"Carr, Michelle","PROVIDER STATE":"New Mexico","PROVIDER CITY":"Los Alamos","PROVIDER  ADDRESS":"3917 West Rd, Suite A","PROVIDER ZIP 5 CD":87544,"PROVIDER ZIP 4 CD":2275,"PROVIDER PHONE NUM":5056618900,"PROVIDER PHONE EXT":"","PROGRAM YEAR":2012},"geometry":{"type":"Point","coordinates":[-105.377951,36.360605]}},{"type":"Feature","id":"5132dd74a288f42e67359087","properties":{"_id":"5132dd74a288f42e67359087","PROVIDER NPI":1417061391,"PROVIDER NAME":"Caskey, John","PROVIDER STATE":"New Mexico","PROVIDER CITY":"Santa Fe","PROVIDER  ADDRESS":"1421 Luisa St, Unit I","PROVIDER ZIP 5 CD":87505,"PROVIDER ZIP 4 CD":4073,"PROVIDER PHONE NUM":5059828338,"PROVIDER PHONE EXT":"","PROGRAM YEAR":2012},"geometry":{"type":"Point","coordinates":[-105.950868,35.669623]}},{"type":"Feature","id":"5132dd74a288f42e67359088","properties":{"_id":"5132dd74a288f42e67359088","PROVIDER NPI":1013947639,"PROVIDER NAME":"Cavanaugh, Brendan","PROVIDER STATE":"New Mexico","PROVIDER CITY":"Albuquerque","PROVIDER  ADDRESS":"502 Elm St NE","PROVIDER ZIP 5 CD":87102,"PROVIDER ZIP 4 CD":2512,"PROVIDER PHONE NUM":5058411000,"PROVIDER PHONE EXT":"","PROGRAM YEAR":2012},"geometry":{"type":"Point","coordinates":[-106.637722,35.087447]}},{"type":"Feature","id":"5132dd74a288f42e67359089","properties":{"_id":"5132dd74a288f42e67359089","PROVIDER NPI":1982664884,"PROVIDER NAME":"Cerna, Felix","PROVIDER STATE":"New Mexico","PROVIDER CITY":"Albuquerque","PROVIDER  ADDRESS":"500 Walter NE, Suite 104","PROVIDER ZIP 5 CD":87102,"PROVIDER ZIP 4 CD":"","PROVIDER PHONE NUM":5058483730,"PROVIDER PHONE EXT":"","PROGRAM YEAR":2012},"geometry":{"type":"Point","coordinates":[-106.640314,35.086459]}},{"type":"Feature","id":"5132dd74a288f42e6735908a","properties":{"_id":"5132dd74a288f42e6735908a","PROVIDER NPI":1154482529,"PROVIDER NAME":"Chen, Christine","PROVIDER STATE":"New Mexico","PROVIDER CITY":"Albuquerque","PROVIDER  ADDRESS":"3901 GEORGIA STREET NE, SUITE C-1","PROVIDER ZIP 5 CD":87110,"PROVIDER ZIP 4 CD":4729,"PROVIDER PHONE NUM":5058844545,"PROVIDER PHONE EXT":"","PROGRAM YEAR":2012},"geometry":{"type":"Point","coordinates":[-106.598832,35.100059]}},{"type":"Feature","id":"5132dd74a288f42e6735908b","properties":{"_id":"5132dd74a288f42e6735908b","PROVIDER NPI":1154321156,"PROVIDER NAME":"Chiang, Charles","PROVIDER STATE":"New Mexico","PROVIDER CITY":"Gallup","PROVIDER  ADDRESS":"231 Nizhoni Blvd","PROVIDER ZIP 5 CD":87301,"PROVIDER ZIP 4 CD":5792,"PROVIDER PHONE NUM":5057222268,"PROVIDER PHONE EXT":"","PROGRAM YEAR":2012},"geometry":{"type":"Point","coordinates":[-108.734119,35.508361]}},{"type":"Feature","id":"5132dd74a288f42e6735908c","properties":{"_id":"5132dd74a288f42e6735908c","PROVIDER NPI":1821083932,"PROVIDER NAME":"Chiu, Mark","PROVIDER STATE":"New Mexico","PROVIDER CITY":"Albuquerque","PROVIDER  ADDRESS":"806 Dr Martin Luther King Jr Ave NE","PROVIDER ZIP 5 CD":87102,"PROVIDER ZIP 4 CD":3657,"PROVIDER PHONE NUM":5058426575,"PROVIDER PHONE EXT":"","PROGRAM YEAR":2012},"geometry":{"type":"Point","coordinates":[-106.638088,35.085333]}},{"type":"Feature","id":"5132dd74a288f42e6735908d","properties":{"_id":"5132dd74a288f42e6735908d","PROVIDER NPI":1316907355,"PROVIDER NAME":"Chongsiriwatana, Krisna","PROVIDER STATE":"New Mexico","PROVIDER CITY":"Albuquerque","PROVIDER  ADDRESS":"500 Walter NE, Suite 104","PROVIDER ZIP 5 CD":87102,"PROVIDER ZIP 4 CD":"","PROVIDER PHONE NUM":5058483730,"PROVIDER PHONE EXT":"","PROGRAM YEAR":2012},"geometry":{"type":"Point","coordinates":[-106.640314,35.086459]}},{"type":"Feature","id":"5132dd74a288f42e6735908e","properties":{"_id":"5132dd74a288f42e6735908e","PROVIDER NPI":1679536080,"PROVIDER NAME":"Church, David","PROVIDER STATE":"New Mexico","PROVIDER CITY":"Los Alamos","PROVIDER  ADDRESS":"3917 West Rd, Suite A","PROVIDER ZIP 5 CD":87544,"PROVIDER ZIP 4 CD":2275,"PROVIDER PHONE NUM":5056618900,"PROVIDER PHONE EXT":"","PROGRAM YEAR":2012},"geometry":{"type":"Point","coordinates":[-105.377951,36.360605]}},{"type":"Feature","id":"5132dd74a288f42e6735908f","properties":{"_id":"5132dd74a288f42e6735908f","PROVIDER NPI":1053542530,"PROVIDER NAME":"Cyr, Kelly","PROVIDER STATE":"New Mexico","PROVIDER CITY":"Santa Fe","PROVIDER  ADDRESS":"2947 Rodeo Park Dr E","PROVIDER ZIP 5 CD":87505,"PROVIDER ZIP 4 CD":6303,"PROVIDER PHONE NUM":5058284923,"PROVIDER PHONE EXT":"","PROGRAM YEAR":2012},"geometry":{"type":"Point","coordinates":[-105.959048,35.637519]}},{"type":"Feature","id":"5132dd74a288f42e67359090","properties":{"_id":"5132dd74a288f42e67359090","PROVIDER NPI":1770547515,"PROVIDER NAME":"Daly, Paul","PROVIDER STATE":"New Mexico","PROVIDER CITY":"Los Alamos","PROVIDER  ADDRESS":"3917 West Road Suite A","PROVIDER ZIP 5 CD":87544,"PROVIDER ZIP 4 CD":2275,"PROVIDER PHONE NUM":5056618900,"PROVIDER PHONE EXT":"","PROGRAM YEAR":2012},"geometry":{"type":"Point","coordinates":[-105.71316,36.995871]}},{"type":"Feature","id":"5132dd74a288f42e67359091","properties":{"_id":"5132dd74a288f42e67359091","PROVIDER NPI":1164473641,"PROVIDER NAME":"Davenport-Reed, Laura","PROVIDER STATE":"New Mexico","PROVIDER CITY":"Silver City","PROVIDER  ADDRESS":"1600 E 32nd St","PROVIDER ZIP 5 CD":88061,"PROVIDER ZIP 4 CD":7287,"PROVIDER PHONE NUM":5055382981,"PROVIDER PHONE EXT":"","PROGRAM YEAR":2012},"geometry":{"type":"Point","coordinates":[-108.261058,32.795458]}},{"type":"Feature","id":"5132dd74a288f42e67359092","properties":{"_id":"5132dd74a288f42e67359092","PROVIDER NPI":1295720621,"PROVIDER NAME":"DiMonaco, Michael","PROVIDER STATE":"New Mexico","PROVIDER CITY":"Albuquerque","PROVIDER  ADDRESS":"5757 Harper Drive NE","PROVIDER ZIP 5 CD":87109,"PROVIDER ZIP 4 CD":"","PROVIDER PHONE NUM":5058885757,"PROVIDER PHONE EXT":"","PROGRAM YEAR":2012},"geometry":{"type":"Point","coordinates":[-106.586099,35.153189]}},{"type":"Feature","id":"5132dd74a288f42e67359093","properties":{"_id":"5132dd74a288f42e67359093","PROVIDER NPI":1861464844,"PROVIDER NAME":"Dodson, Douglas","PROVIDER STATE":"New Mexico","PROVIDER CITY":"Alamogordo","PROVIDER  ADDRESS":"2301 Indian Wells Rd, SUITE A","PROVIDER ZIP 5 CD":88310,"PROVIDER ZIP 4 CD":4607,"PROVIDER PHONE NUM":5754340639,"PROVIDER PHONE EXT":110,"PROGRAM YEAR":2012},"geometry":{"type":"Point","coordinates":[-105.956478,32.915141]}},{"type":"Feature","id":"5132dd74a288f42e67359094","properties":{"_id":"5132dd74a288f42e67359094","PROVIDER NPI":1669573549,"PROVIDER NAME":"DOWNEY, ROSS","PROVIDER STATE":"New Mexico","PROVIDER CITY":"Albuquerque","PROVIDER  ADDRESS":"502 Elm St NE","PROVIDER ZIP 5 CD":87102,"PROVIDER ZIP 4 CD":2512,"PROVIDER PHONE NUM":5058411000,"PROVIDER PHONE EXT":"","PROGRAM YEAR":2012},"geometry":{"type":"Point","coordinates":[-106.637722,35.087447]}},{"type":"Feature","id":"5132dd74a288f42e67359095","properties":{"_id":"5132dd74a288f42e67359095","PROVIDER NPI":1083672083,"PROVIDER NAME":"Drury, Angela","PROVIDER STATE":"New Mexico","PROVIDER CITY":"Albuq","PROVIDER  ADDRESS":"101 Hospital Lp NE, Ste 214","PROVIDER ZIP 5 CD":87109,"PROVIDER ZIP 4 CD":2128,"PROVIDER PHONE NUM":5058836600,"PROVIDER PHONE EXT":"","PROGRAM YEAR":2012},"geometry":{"type":"Point","coordinates":[-106.593241,35.132802]}},{"type":"Feature","id":"5132dd74a288f42e67359096","properties":{"_id":"5132dd74a288f42e67359096","PROVIDER NPI":1558356980,"PROVIDER NAME":"Dudeck, Kirsten","PROVIDER STATE":"New Mexico","PROVIDER CITY":"Albuquerque","PROVIDER  ADDRESS":"5200 Eubank Blvd NE, Suite A-4","PROVIDER ZIP 5 CD":87111,"PROVIDER ZIP 4 CD":1759,"PROVIDER PHONE NUM":5052984419,"PROVIDER PHONE EXT":"","PROGRAM YEAR":2012},"geometry":{"type":"Point","coordinates":[-106.533379,35.137923]}},{"type":"Feature","id":"5132dd74a288f42e67359097","properties":{"_id":"5132dd74a288f42e67359097","PROVIDER NPI":1972714806,"PROVIDER NAME":"Duran, Jesus","PROVIDER STATE":"New Mexico","PROVIDER CITY":"Las Cruces","PROVIDER  ADDRESS":"2450 S Telshor Blvd","PROVIDER ZIP 5 CD":88011,"PROVIDER ZIP 4 CD":5069,"PROVIDER PHONE NUM":5755325455,"PROVIDER PHONE EXT":"","PROGRAM YEAR":2012},"geometry":{"type":"Point","coordinates":[-106.735032,32.292391]}},{"type":"Feature","id":"5132dd74a288f42e67359098","properties":{"_id":"5132dd74a288f42e67359098","PROVIDER NPI":1801883533,"PROVIDER NAME":"Flores, John","PROVIDER STATE":"New Mexico","PROVIDER CITY":"Silver City","PROVIDER  ADDRESS":"1600 E. 32nd Street","PROVIDER ZIP 5 CD":88061,"PROVIDER ZIP 4 CD":7287,"PROVIDER PHONE NUM":5755382981,"PROVIDER PHONE EXT":"","PROGRAM YEAR":2012},"geometry":{"type":"Point","coordinates":[-108.261058,32.795458]}},{"type":"Feature","id":"5132dd74a288f42e67359099","properties":{"_id":"5132dd74a288f42e67359099","PROVIDER NPI":1093829400,"PROVIDER NAME":"FONSECA, JESUS","PROVIDER STATE":"New Mexico","PROVIDER CITY":"Hobbs","PROVIDER  ADDRESS":"5419 N Lovington Hwy Ste 10","PROVIDER ZIP 5 CD":88240,"PROVIDER ZIP 4 CD":9135,"PROVIDER PHONE NUM":5053928943,"PROVIDER PHONE EXT":"","PROGRAM YEAR":2012},"geometry":{"type":"Point","coordinates":[-103.180748,32.760525]}},{"type":"Feature","id":"5132dd74a288f42e6735909a","properties":{"_id":"5132dd74a288f42e6735909a","PROVIDER NPI":1528062304,"PROVIDER NAME":"Frankis, Mary","PROVIDER STATE":"New Mexico","PROVIDER CITY":"Albuquerque","PROVIDER  ADDRESS":"502 Elm St NE","PROVIDER ZIP 5 CD":87102,"PROVIDER ZIP 4 CD":2512,"PROVIDER PHONE NUM":5058411000,"PROVIDER PHONE EXT":"","PROGRAM YEAR":2012},"geometry":{"type":"Point","coordinates":[-106.637722,35.087447]}},{"type":"Feature","id":"5132dd74a288f42e6735909b","properties":{"_id":"5132dd74a288f42e6735909b","PROVIDER NPI":1821060534,"PROVIDER NAME":"Freeh, Eric","PROVIDER STATE":"New Mexico","PROVIDER CITY":"Alamogordo","PROVIDER  ADDRESS":"2301 Indian Wells Rd, SUITE A","PROVIDER ZIP 5 CD":88310,"PROVIDER ZIP 4 CD":4607,"PROVIDER PHONE NUM":5754340639,"PROVIDER PHONE EXT":110,"PROGRAM YEAR":2012},"geometry":{"type":"Point","coordinates":[-105.956478,32.915141]}},{"type":"Feature","id":"5132dd74a288f42e6735909c","properties":{"_id":"5132dd74a288f42e6735909c","PROVIDER NPI":1386745206,"PROVIDER NAME":"Friedrichs, Carl","PROVIDER STATE":"New Mexico","PROVIDER CITY":"Santa Fe","PROVIDER  ADDRESS":"2055 S Pacheco, Suite 600","PROVIDER ZIP 5 CD":87505,"PROVIDER ZIP 4 CD":"","PROVIDER PHONE NUM":5054730390,"PROVIDER PHONE EXT":"","PROGRAM YEAR":2012},"geometry":{"type":"Point","coordinates":[-105.958927,35.657272]}},{"type":"Feature","id":"5132dd74a288f42e6735909d","properties":{"_id":"5132dd74a288f42e6735909d","PROVIDER NPI":1134225493,"PROVIDER NAME":"Garimella, Madhavi","PROVIDER STATE":"New Mexico","PROVIDER CITY":"Los Alamos","PROVIDER  ADDRESS":"3917 West Rd, Suite A","PROVIDER ZIP 5 CD":87544,"PROVIDER ZIP 4 CD":2275,"PROVIDER PHONE NUM":5056618900,"PROVIDER PHONE EXT":"","PROGRAM YEAR":2012},"geometry":{"type":"Point","coordinates":[-105.377951,36.360605]}},{"type":"Feature","id":"5132dd74a288f42e6735909e","properties":{"_id":"5132dd74a288f42e6735909e","PROVIDER NPI":1689667792,"PROVIDER NAME":"Gillis, Douglas","PROVIDER STATE":"New Mexico","PROVIDER CITY":"Las Cruces","PROVIDER  ADDRESS":"780 S Walnut St, Suite 3","PROVIDER ZIP 5 CD":88001,"PROVIDER ZIP 4 CD":1425,"PROVIDER PHONE NUM":5755253980,"PROVIDER PHONE EXT":"","PROGRAM YEAR":2012},"geometry":{"type":"Point","coordinates":[-106.783602,32.262367]}},{"type":"Feature","id":"5132dd74a288f42e6735909f","properties":{"_id":"5132dd74a288f42e6735909f","PROVIDER NPI":1093778425,"PROVIDER NAME":"Goddard, Laurence","PROVIDER STATE":"New Mexico","PROVIDER CITY":"Los Alamos","PROVIDER  ADDRESS":"3917 West Rd, Suite A","PROVIDER ZIP 5 CD":87544,"PROVIDER ZIP 4 CD":2275,"PROVIDER PHONE NUM":5056618900,"PROVIDER PHONE EXT":"","PROGRAM YEAR":2012},"geometry":{"type":"Point","coordinates":[-105.377951,36.360605]}},{"type":"Feature","id":"5132dd74a288f42e673590a0","properties":{"_id":"5132dd74a288f42e673590a0","PROVIDER NPI":1194724484,"PROVIDER NAME":"Gogel, Howard","PROVIDER STATE":"New Mexico","PROVIDER CITY":"Albuquerque","PROVIDER  ADDRESS":"7788 Jefferson St NE","PROVIDER ZIP 5 CD":87109,"PROVIDER ZIP 4 CD":4342,"PROVIDER PHONE NUM":5059991600,"PROVIDER PHONE EXT":"","PROGRAM YEAR":2012},"geometry":{"type":"Point","coordinates":[-106.588821,35.168522]}},{"type":"Feature","id":"5132dd74a288f42e673590a1","properties":{"_id":"5132dd74a288f42e673590a1","PROVIDER NPI":1710071196,"PROVIDER NAME":"Goodluck, Kevin","PROVIDER STATE":"New Mexico","PROVIDER CITY":"Albuquerque","PROVIDER  ADDRESS":"4801 McMahon Blvd, Suite 235","PROVIDER ZIP 5 CD":87114,"PROVIDER ZIP 4 CD":2318,"PROVIDER PHONE NUM":5057922636,"PROVIDER PHONE EXT":"","PROGRAM YEAR":2012},"geometry":{"type":"Point","coordinates":[-106.653272,35.191497]}},{"type":"Feature","id":"5132dd74a288f42e673590a2","properties":{"_id":"5132dd74a288f42e673590a2","PROVIDER NPI":1497721948,"PROVIDER NAME":"Gormley, Thomas","PROVIDER STATE":"New Mexico","PROVIDER CITY":"Las Cruces","PROVIDER  ADDRESS":"2545 Don Roser Drive","PROVIDER ZIP 5 CD":88011,"PROVIDER ZIP 4 CD":5091,"PROVIDER PHONE NUM":5755227880,"PROVIDER PHONE EXT":"","PROGRAM YEAR":2012},"geometry":{"type":"Point","coordinates":[-106.73929,32.292639]}},{"type":"Feature","id":"5132dd74a288f42e673590a3","properties":{"_id":"5132dd74a288f42e673590a3","PROVIDER NPI":1669432431,"PROVIDER NAME":"gorvetzian, Joseph","PROVIDER STATE":"New Mexico","PROVIDER CITY":"Albuquerque","PROVIDER  ADDRESS":"500 Walter NE, Suite 104","PROVIDER ZIP 5 CD":87102,"PROVIDER ZIP 4 CD":"","PROVIDER PHONE NUM":5058483730,"PROVIDER PHONE EXT":"","PROGRAM YEAR":2012},"geometry":{"type":"Point","coordinates":[-106.640314,35.086459]}},{"type":"Feature","id":"5132dd74a288f42e673590a4","properties":{"_id":"5132dd74a288f42e673590a4","PROVIDER NPI":1700966736,"PROVIDER NAME":"Hamm, Diana","PROVIDER STATE":"New Mexico","PROVIDER CITY":"Hobbs","PROVIDER  ADDRESS":"1811 N Dal Paso St","PROVIDER ZIP 5 CD":88240,"PROVIDER ZIP 4 CD":3042,"PROVIDER PHONE NUM":5753973611,"PROVIDER PHONE EXT":"","PROGRAM YEAR":2012},"geometry":{"type":"Point","coordinates":[-103.127695,32.719894]}},{"type":"Feature","id":"5132dd74a288f42e673590a5","properties":{"_id":"5132dd74a288f42e673590a5","PROVIDER NPI":1699855668,"PROVIDER NAME":"Hamm, Wayne","PROVIDER STATE":"New Mexico","PROVIDER CITY":"Carlsbad","PROVIDER  ADDRESS":"201 W Fox","PROVIDER ZIP 5 CD":88220,"PROVIDER ZIP 4 CD":"","PROVIDER PHONE NUM":5758853937,"PROVIDER PHONE EXT":"","PROGRAM YEAR":2012},"geometry":{"type":"Point","coordinates":[-104.227693,32.419137]}},{"type":"Feature","id":"5132dd74a288f42e673590a6","properties":{"_id":"5132dd74a288f42e673590a6","PROVIDER NPI":1598788697,"PROVIDER NAME":"Harris, Sally","PROVIDER STATE":"New Mexico","PROVIDER CITY":"Albuquerque","PROVIDER  ADDRESS":"101 Hospital Loop NE, Suite 111","PROVIDER ZIP 5 CD":87109,"PROVIDER ZIP 4 CD":2129,"PROVIDER PHONE NUM":5058844406,"PROVIDER PHONE EXT":"","PROGRAM YEAR":2012},"geometry":{"type":"Point","coordinates":[-106.593241,35.132802]}},{"type":"Feature","id":"5132dd74a288f42e673590a7","properties":{"_id":"5132dd74a288f42e673590a7","PROVIDER NPI":1720093677,"PROVIDER NAME":"Hawkins, Trevor","PROVIDER STATE":"New Mexico","PROVIDER CITY":"Santa Fe","PROVIDER  ADDRESS":"649 Harkle Rd Ste E","PROVIDER ZIP 5 CD":87505,"PROVIDER ZIP 4 CD":4765,"PROVIDER PHONE NUM":5059898200,"PROVIDER PHONE EXT":1001,"PROGRAM YEAR":2012},"geometry":{"type":"Point","coordinates":[-105.950761,35.659316]}},{"type":"Feature","id":"5132dd74a288f42e673590a8","properties":{"_id":"5132dd74a288f42e673590a8","PROVIDER NPI":1649299942,"PROVIDER NAME":"Heredia, Gilberto","PROVIDER STATE":"New Mexico","PROVIDER CITY":"Alamogordo","PROVIDER  ADDRESS":"2010 Pecan Dr","PROVIDER ZIP 5 CD":88310,"PROVIDER ZIP 4 CD":4746,"PROVIDER PHONE NUM":5754349737,"PROVIDER PHONE EXT":110,"PROGRAM YEAR":2012},"geometry":{"type":"Point","coordinates":[-105.942749,32.913993]}},{"type":"Feature","id":"5132dd74a288f42e673590a9","properties":{"_id":"5132dd74a288f42e673590a9","PROVIDER NPI":1346263126,"PROVIDER NAME":"Hernandez, Edward","PROVIDER STATE":"New Mexico","PROVIDER CITY":"Las Cruces","PROVIDER  ADDRESS":"2810 N Telshor Blvd","PROVIDER ZIP 5 CD":88011,"PROVIDER ZIP 4 CD":8230,"PROVIDER PHONE NUM":5755232020,"PROVIDER PHONE EXT":"","PROGRAM YEAR":2012},"geometry":{"type":"Point","coordinates":[-106.763732,32.350536]}},{"type":"Feature","id":"5132dd74a288f42e673590aa","properties":{"_id":"5132dd74a288f42e673590aa","PROVIDER NPI":1427147735,"PROVIDER NAME":"Hesser, Brian","PROVIDER STATE":"New Mexico","PROVIDER CITY":"Las Cruces","PROVIDER  ADDRESS":"3850 E Lohman Ave Ste 100","PROVIDER ZIP 5 CD":88011,"PROVIDER ZIP 4 CD":8273,"PROVIDER PHONE NUM":5755210793,"PROVIDER PHONE EXT":"","PROGRAM YEAR":2012},"geometry":{"type":"Point","coordinates":[-106.735877,32.318444]}},{"type":"Feature","id":"5132dd74a288f42e673590ab","properties":{"_id":"5132dd74a288f42e673590ab","PROVIDER NPI":1073607453,"PROVIDER NAME":"Hillis, Timothy","PROVIDER STATE":"New Mexico","PROVIDER CITY":"Clovis","PROVIDER  ADDRESS":"2200 N Main Street, Suite 31","PROVIDER ZIP 5 CD":88101,"PROVIDER ZIP 4 CD":3558,"PROVIDER PHONE NUM":5757634057,"PROVIDER PHONE EXT":"","PROGRAM YEAR":2012},"geometry":{"type":"Point","coordinates":[-103.316216,34.821498]}},{"type":"Feature","id":"5132dd74a288f42e673590ac","properties":{"_id":"5132dd74a288f42e673590ac","PROVIDER NPI":1972567154,"PROVIDER NAME":"Himmel, Kenneth","PROVIDER STATE":"New Mexico","PROVIDER CITY":"Albuquerque","PROVIDER  ADDRESS":"5757 Harper Drive NE","PROVIDER ZIP 5 CD":87109,"PROVIDER ZIP 4 CD":"","PROVIDER PHONE NUM":5058885757,"PROVIDER PHONE EXT":"","PROGRAM YEAR":2012},"geometry":{"type":"Point","coordinates":[-106.586099,35.153189]}},{"type":"Feature","id":"5132dd74a288f42e673590ad","properties":{"_id":"5132dd74a288f42e673590ad","PROVIDER NPI":1609875996,"PROVIDER NAME":"Jakiche, Antoine","PROVIDER STATE":"New Mexico","PROVIDER CITY":"Albuquerque","PROVIDER  ADDRESS":"7788 Jefferson St NE","PROVIDER ZIP 5 CD":87109,"PROVIDER ZIP 4 CD":4342,"PROVIDER PHONE NUM":5059991600,"PROVIDER PHONE EXT":"","PROGRAM YEAR":2012},"geometry":{"type":"Point","coordinates":[-106.588821,35.168522]}},{"type":"Feature","id":"5132dd74a288f42e673590ae","properties":{"_id":"5132dd74a288f42e673590ae","PROVIDER NPI":1205826179,"PROVIDER NAME":"Johnson, Timothy","PROVIDER STATE":"New Mexico","PROVIDER CITY":"Los Alamos","PROVIDER  ADDRESS":"1623 Central Ave","PROVIDER ZIP 5 CD":87544,"PROVIDER ZIP 4 CD":3018,"PROVIDER PHONE NUM":5056625444,"PROVIDER PHONE EXT":"","PROGRAM YEAR":2012},"geometry":{"type":"Point","coordinates":[-106.300094,35.881397]}},{"type":"Feature","id":"5132dd74a288f42e673590af","properties":{"_id":"5132dd74a288f42e673590af","PROVIDER NPI":1518178763,"PROVIDER NAME":"JONES, JONATHAN","PROVIDER STATE":"New Mexico","PROVIDER CITY":"Farmington","PROVIDER  ADDRESS":"4801 N Butler Ave Ste 5000","PROVIDER ZIP 5 CD":87401,"PROVIDER ZIP 4 CD":815,"PROVIDER PHONE NUM":5053267246,"PROVIDER PHONE EXT":"","PROGRAM YEAR":2012},"geometry":{"type":"Point","coordinates":[-108.188985,36.762996]}},{"type":"Feature","id":"5132dd74a288f42e673590b0","properties":{"_id":"5132dd74a288f42e673590b0","PROVIDER NPI":1710912829,"PROVIDER NAME":"Kim, Charles","PROVIDER STATE":"New Mexico","PROVIDER CITY":"Albuquerque","PROVIDER  ADDRESS":"502 Elm St NE","PROVIDER ZIP 5 CD":87102,"PROVIDER ZIP 4 CD":2512,"PROVIDER PHONE NUM":5058411000,"PROVIDER PHONE EXT":"","PROGRAM YEAR":2012},"geometry":{"type":"Point","coordinates":[-106.637722,35.087447]}},{"type":"Feature","id":"5132dd74a288f42e673590b1","properties":{"_id":"5132dd74a288f42e673590b1","PROVIDER NPI":1285623363,"PROVIDER NAME":"Klein, Timothy","PROVIDER STATE":"New Mexico","PROVIDER CITY":"Edgewood","PROVIDER  ADDRESS":"1851 Old Hwy 66","PROVIDER ZIP 5 CD":87015,"PROVIDER ZIP 4 CD":"","PROVIDER PHONE NUM":5052862396,"PROVIDER PHONE EXT":"","PROGRAM YEAR":2012},"geometry":{"type":"Point","coordinates":[-106.12066,35.03271]}},{"type":"Feature","id":"5132dd74a288f42e673590b2","properties":{"_id":"5132dd74a288f42e673590b2","PROVIDER NPI":1518922202,"PROVIDER NAME":"Kleva, Julie","PROVIDER STATE":"New Mexico","PROVIDER CITY":"Farmington","PROVIDER  ADDRESS":"622 W Maple St, Suite E","PROVIDER ZIP 5 CD":87401,"PROVIDER ZIP 4 CD":6590,"PROVIDER PHONE NUM":5053254003,"PROVIDER PHONE EXT":106,"PROGRAM YEAR":2012},"geometry":{"type":"Point","coordinates":[-108.171615,36.723258]}},{"type":"Feature","id":"5132dd74a288f42e673590b3","properties":{"_id":"5132dd74a288f42e673590b3","PROVIDER NPI":1285638536,"PROVIDER NAME":"Kolosseus, Robert","PROVIDER STATE":"New Mexico","PROVIDER CITY":"Las Cruces","PROVIDER  ADDRESS":"2545 Don Roser Drive","PROVIDER ZIP 5 CD":88011,"PROVIDER ZIP 4 CD":9107,"PROVIDER PHONE NUM":5755227880,"PROVIDER PHONE EXT":"","PROGRAM YEAR":2012},"geometry":{"type":"Point","coordinates":[-106.73929,32.292639]}},{"type":"Feature","id":"5132dd74a288f42e673590b4","properties":{"_id":"5132dd74a288f42e673590b4","PROVIDER NPI":1720043151,"PROVIDER NAME":"Kuang, Wayne","PROVIDER STATE":"New Mexico","PROVIDER CITY":"Albuquerque","PROVIDER  ADDRESS":"610 Broadway Blvd NE","PROVIDER ZIP 5 CD":87102,"PROVIDER ZIP 4 CD":2372,"PROVIDER PHONE NUM":5052423991,"PROVIDER PHONE EXT":"","PROGRAM YEAR":2012},"geometry":{"type":"Point","coordinates":[-106.643399,35.09038]}},{"type":"Feature","id":"5132dd74a288f42e673590b5","properties":{"_id":"5132dd74a288f42e673590b5","PROVIDER NPI":1508821745,"PROVIDER NAME":"Kumar, Muskula","PROVIDER STATE":"New Mexico","PROVIDER CITY":"Silver City","PROVIDER  ADDRESS":"1600 E 32nd St","PROVIDER ZIP 5 CD":88061,"PROVIDER ZIP 4 CD":7287,"PROVIDER PHONE NUM":5755382981,"PROVIDER PHONE EXT":"","PROGRAM YEAR":2012},"geometry":{"type":"Point","coordinates":[-108.261058,32.795458]}},{"type":"Feature","id":"5132dd74a288f42e673590b6","properties":{"_id":"5132dd74a288f42e673590b6","PROVIDER NPI":1306839071,"PROVIDER NAME":"Kunz, Geoffrey","PROVIDER STATE":"New Mexico","PROVIDER CITY":"Albuquerque","PROVIDER  ADDRESS":"502 Elm St NE","PROVIDER ZIP 5 CD":87102,"PROVIDER ZIP 4 CD":2512,"PROVIDER PHONE NUM":5058411000,"PROVIDER PHONE EXT":"","PROGRAM YEAR":2012},"geometry":{"type":"Point","coordinates":[-106.637722,35.087447]}},{"type":"Feature","id":"5132dd74a288f42e673590b7","properties":{"_id":"5132dd74a288f42e673590b7","PROVIDER NPI":1053352146,"PROVIDER NAME":"Lauer, Richard","PROVIDER STATE":"New Mexico","PROVIDER CITY":"Albuquerque","PROVIDER  ADDRESS":"1201 Camino de Salud NE, MSC 07 4025","PROVIDER ZIP 5 CD":87102,"PROVIDER ZIP 4 CD":4517,"PROVIDER PHONE NUM":5052724946,"PROVIDER PHONE EXT":"","PROGRAM YEAR":2012},"geometry":{"type":"Point","coordinates":[-106.654115,35.096494]}},{"type":"Feature","id":"5132dd74a288f42e673590b8","properties":{"_id":"5132dd74a288f42e673590b8","PROVIDER NPI":1366594855,"PROVIDER NAME":"Lee, Fa-Chyi","PROVIDER STATE":"New Mexico","PROVIDER CITY":"Albuquerque","PROVIDER  ADDRESS":"1201 Camino De Salud NE, MSC 07 4025","PROVIDER ZIP 5 CD":87102,"PROVIDER ZIP 4 CD":4517,"PROVIDER PHONE NUM":5052724946,"PROVIDER PHONE EXT":"","PROGRAM YEAR":2012},"geometry":{"type":"Point","coordinates":[-106.654115,35.096494]}},{"type":"Feature","id":"5132dd74a288f42e673590b9","properties":{"_id":"5132dd74a288f42e673590b9","PROVIDER NPI":1588620447,"PROVIDER NAME":"Leeson, William","PROVIDER STATE":"New Mexico","PROVIDER CITY":"Santa Fe","PROVIDER  ADDRESS":"1486 S Saint Francis Dr","PROVIDER ZIP 5 CD":87505,"PROVIDER ZIP 4 CD":4038,"PROVIDER PHONE NUM":5059836774,"PROVIDER PHONE EXT":"","PROGRAM YEAR":2012},"geometry":{"type":"Point","coordinates":[-105.956269,35.664507]}},{"type":"Feature","id":"5132dd74a288f42e673590ba","properties":{"_id":"5132dd74a288f42e673590ba","PROVIDER NPI":1376533240,"PROVIDER NAME":"Lesher, Mark","PROVIDER STATE":"New Mexico","PROVIDER CITY":"Albuquerque","PROVIDER  ADDRESS":"5757 Harper Drive NE","PROVIDER ZIP 5 CD":87109,"PROVIDER ZIP 4 CD":"","PROVIDER PHONE NUM":5058885757,"PROVIDER PHONE EXT":"","PROGRAM YEAR":2012},"geometry":{"type":"Point","coordinates":[-106.586099,35.153189]}},{"type":"Feature","id":"5132dd74a288f42e673590bb","properties":{"_id":"5132dd74a288f42e673590bb","PROVIDER NPI":1801886783,"PROVIDER NAME":"Levy, Renny","PROVIDER STATE":"New Mexico","PROVIDER CITY":"Santa Fe","PROVIDER  ADDRESS":"2947 Rodeo Park Dr E","PROVIDER ZIP 5 CD":87505,"PROVIDER ZIP 4 CD":6303,"PROVIDER PHONE NUM":5059836613,"PROVIDER PHONE EXT":"","PROGRAM YEAR":2012},"geometry":{"type":"Point","coordinates":[-105.959048,35.637519]}},{"type":"Feature","id":"5132dd74a288f42e673590bc","properties":{"_id":"5132dd74a288f42e673590bc","PROVIDER NPI":1043273543,"PROVIDER NAME":"Linnebur, Ann","PROVIDER STATE":"New Mexico","PROVIDER CITY":"Los Alamos","PROVIDER  ADDRESS":"3917 West Rd, Suite A","PROVIDER ZIP 5 CD":87544,"PROVIDER ZIP 4 CD":2275,"PROVIDER PHONE NUM":5056618900,"PROVIDER PHONE EXT":"","PROGRAM YEAR":2012},"geometry":{"type":"Point","coordinates":[-105.377951,36.360605]}},{"type":"Feature","id":"5132dd74a288f42e673590bd","properties":{"_id":"5132dd74a288f42e673590bd","PROVIDER NPI":1679572697,"PROVIDER NAME":"Lynn, Robert","PROVIDER STATE":"New Mexico","PROVIDER CITY":"Albuquerque","PROVIDER  ADDRESS":"7788 Jefferson St NE","PROVIDER ZIP 5 CD":87109,"PROVIDER ZIP 4 CD":4342,"PROVIDER PHONE NUM":5059991600,"PROVIDER PHONE EXT":"","PROGRAM YEAR":2012},"geometry":{"type":"Point","coordinates":[-106.588821,35.168522]}},{"type":"Feature","id":"5132dd74a288f42e673590be","properties":{"_id":"5132dd74a288f42e673590be","PROVIDER NPI":1720159890,"PROVIDER NAME":"Mansfield, William","PROVIDER STATE":"New Mexico","PROVIDER CITY":"Santa Fe","PROVIDER  ADDRESS":"2085 S Pacheco St, Suite A","PROVIDER ZIP 5 CD":87505,"PROVIDER ZIP 4 CD":6103,"PROVIDER PHONE NUM":5059848012,"PROVIDER PHONE EXT":"","PROGRAM YEAR":2012},"geometry":{"type":"Point","coordinates":[-105.95856,35.656162]}},{"type":"Feature","id":"5132dd74a288f42e673590bf","properties":{"_id":"5132dd74a288f42e673590bf","PROVIDER NPI":1194726240,"PROVIDER NAME":"MARSH, BARBARA","PROVIDER STATE":"New Mexico","PROVIDER CITY":"Albuquerque","PROVIDER  ADDRESS":"5757 Harper Drive NE","PROVIDER ZIP 5 CD":87109,"PROVIDER ZIP 4 CD":"","PROVIDER PHONE NUM":5058885757,"PROVIDER PHONE EXT":"","PROGRAM YEAR":2012},"geometry":{"type":"Point","coordinates":[-106.586099,35.153189]}},{"type":"Feature","id":"5132dd74a288f42e673590c0","properties":{"_id":"5132dd74a288f42e673590c0","PROVIDER NPI":1598753782,"PROVIDER NAME":"Martinez, Julie","PROVIDER STATE":"New Mexico","PROVIDER CITY":"Santa Fe","PROVIDER  ADDRESS":"2055 S Pacheco, Suite 600","PROVIDER ZIP 5 CD":87505,"PROVIDER ZIP 4 CD":3997,"PROVIDER PHONE NUM":5054730390,"PROVIDER PHONE EXT":"","PROGRAM YEAR":2012},"geometry":{"type":"Point","coordinates":[-105.958927,35.657272]}},{"type":"Feature","id":"5132dd74a288f42e673590c1","properties":{"_id":"5132dd74a288f42e673590c1","PROVIDER NPI":1265431563,"PROVIDER NAME":"Mason, Andrew","PROVIDER STATE":"New Mexico","PROVIDER CITY":"Albuquerque","PROVIDER  ADDRESS":"7788 Jefferson St NE","PROVIDER ZIP 5 CD":87109,"PROVIDER ZIP 4 CD":4342,"PROVIDER PHONE NUM":5059991600,"PROVIDER PHONE EXT":"","PROGRAM YEAR":2012},"geometry":{"type":"Point","coordinates":[-106.588821,35.168522]}},{"type":"Feature","id":"5132dd74a288f42e673590c2","properties":{"_id":"5132dd74a288f42e673590c2","PROVIDER NPI":1821025545,"PROVIDER NAME":"Mazer, Sean","PROVIDER STATE":"New Mexico","PROVIDER CITY":"Albuquerque","PROVIDER  ADDRESS":"502 Elm St NE","PROVIDER ZIP 5 CD":87102,"PROVIDER ZIP 4 CD":2512,"PROVIDER PHONE NUM":5058411000,"PROVIDER PHONE EXT":"","PROGRAM YEAR":2012},"geometry":{"type":"Point","coordinates":[-106.637722,35.087447]}},{"type":"Feature","id":"5132dd74a288f42e673590c3","properties":{"_id":"5132dd74a288f42e673590c3","PROVIDER NPI":1861631293,"PROVIDER NAME":"McGraw, Brandi","PROVIDER STATE":"New Mexico","PROVIDER CITY":"Gallup","PROVIDER  ADDRESS":"311 E Nizhoni Blvd","PROVIDER ZIP 5 CD":87301,"PROVIDER ZIP 4 CD":5871,"PROVIDER PHONE NUM":5057222268,"PROVIDER PHONE EXT":"","PROGRAM YEAR":2012},"geometry":{"type":"Point","coordinates":[-108.733483,35.508368]}},{"type":"Feature","id":"5132dd74a288f42e673590c4","properties":{"_id":"5132dd74a288f42e673590c4","PROVIDER NPI":1316932742,"PROVIDER NAME":"Melendez, Robert","PROVIDER STATE":"New Mexico","PROVIDER CITY":"Rio Rancho","PROVIDER  ADDRESS":"1740 Grande Blvd SE, Suite B","PROVIDER ZIP 5 CD":87124,"PROVIDER ZIP 4 CD":1799,"PROVIDER PHONE NUM":5058923434,"PROVIDER PHONE EXT":"","PROGRAM YEAR":2012},"geometry":{"type":"Point","coordinates":[-106.710707,35.254208]}},{"type":"Feature","id":"5132dd74a288f42e673590c5","properties":{"_id":"5132dd74a288f42e673590c5","PROVIDER NPI":1609827799,"PROVIDER NAME":"Meyerowitz, Colicia","PROVIDER STATE":"New Mexico","PROVIDER CITY":"Silver City","PROVIDER  ADDRESS":"1600 E 32nd St","PROVIDER ZIP 5 CD":88061,"PROVIDER ZIP 4 CD":7287,"PROVIDER PHONE NUM":5755382981,"PROVIDER PHONE EXT":"","PROGRAM YEAR":2012},"geometry":{"type":"Point","coordinates":[-108.261058,32.795458]}},{"type":"Feature","id":"5132dd74a288f42e673590c6","properties":{"_id":"5132dd74a288f42e673590c6","PROVIDER NPI":1598764805,"PROVIDER NAME":"Mojtahed, Hossein","PROVIDER STATE":"New Mexico","PROVIDER CITY":"Albuquerque","PROVIDER  ADDRESS":"7788 Jefferson St NE","PROVIDER ZIP 5 CD":87109,"PROVIDER ZIP 4 CD":4342,"PROVIDER PHONE NUM":5059991600,"PROVIDER PHONE EXT":"","PROGRAM YEAR":2012},"geometry":{"type":"Point","coordinates":[-106.588821,35.168522]}},{"type":"Feature","id":"5132dd74a288f42e673590c7","properties":{"_id":"5132dd74a288f42e673590c7","PROVIDER NPI":1861427841,"PROVIDER NAME":"Morris, Cara","PROVIDER STATE":"New Mexico","PROVIDER CITY":"Albuquerque","PROVIDER  ADDRESS":"5757 Harper Drive NE","PROVIDER ZIP 5 CD":87109,"PROVIDER ZIP 4 CD":"","PROVIDER PHONE NUM":5058885757,"PROVIDER PHONE EXT":"","PROGRAM YEAR":2012},"geometry":{"type":"Point","coordinates":[-106.586099,35.153189]}},{"type":"Feature","id":"5132dd74a288f42e673590c8","properties":{"_id":"5132dd74a288f42e673590c8","PROVIDER NPI":1235172412,"PROVIDER NAME":"Morrison, Jr., John","PROVIDER STATE":"New Mexico","PROVIDER CITY":"Taos","PROVIDER  ADDRESS":"1399 Weimer Rd, Suite 300","PROVIDER ZIP 5 CD":87571,"PROVIDER ZIP 4 CD":6340,"PROVIDER PHONE NUM":5057580621,"PROVIDER PHONE EXT":"","PROGRAM YEAR":2012},"geometry":{"type":"Point","coordinates":[-105.573888,36.36625]}},{"type":"Feature","id":"5132dd74a288f42e673590c9","properties":{"_id":"5132dd74a288f42e673590c9","PROVIDER NPI":1205826203,"PROVIDER NAME":"Ogawa, Gregory","PROVIDER STATE":"New Mexico","PROVIDER CITY":"Albuquerque","PROVIDER  ADDRESS":"5757 Harper Drive NE","PROVIDER ZIP 5 CD":87109,"PROVIDER ZIP 4 CD":"","PROVIDER PHONE NUM":5058885757,"PROVIDER PHONE EXT":"","PROGRAM YEAR":2012},"geometry":{"type":"Point","coordinates":[-106.586099,35.153189]}},{"type":"Feature","id":"5132dd74a288f42e673590ca","properties":{"_id":"5132dd74a288f42e673590ca","PROVIDER NPI":1659375558,"PROVIDER NAME":"Orchard, Robert","PROVIDER STATE":"New Mexico","PROVIDER CITY":"Albuquerque","PROVIDER  ADDRESS":"502 Elm St NE","PROVIDER ZIP 5 CD":87102,"PROVIDER ZIP 4 CD":2512,"PROVIDER PHONE NUM":5058411000,"PROVIDER PHONE EXT":"","PROGRAM YEAR":2012},"geometry":{"type":"Point","coordinates":[-106.637722,35.087447]}},{"type":"Feature","id":"5132dd74a288f42e673590cb","properties":{"_id":"5132dd74a288f42e673590cb","PROVIDER NPI":1811935208,"PROVIDER NAME":"Palestine, Michael","PROVIDER STATE":"New Mexico","PROVIDER CITY":"Santa Fe","PROVIDER  ADDRESS":"649 Harkle Rd Ste E","PROVIDER ZIP 5 CD":87505,"PROVIDER ZIP 4 CD":4765,"PROVIDER PHONE NUM":5059898200,"PROVIDER PHONE EXT":"","PROGRAM YEAR":2012},"geometry":{"type":"Point","coordinates":[-105.950761,35.659316]}},{"type":"Feature","id":"5132dd74a288f42e673590cc","properties":{"_id":"5132dd74a288f42e673590cc","PROVIDER NPI":1861531857,"PROVIDER NAME":"Parker-Ray, Nikki","PROVIDER STATE":"New Mexico","PROVIDER CITY":"Albuquerque","PROVIDER  ADDRESS":"7788 Jefferson St NE","PROVIDER ZIP 5 CD":87109,"PROVIDER ZIP 4 CD":4342,"PROVIDER PHONE NUM":5059991600,"PROVIDER PHONE EXT":"","PROGRAM YEAR":2012},"geometry":{"type":"Point","coordinates":[-106.588821,35.168522]}},{"type":"Feature","id":"5132dd74a288f42e673590cd","properties":{"_id":"5132dd74a288f42e673590cd","PROVIDER NPI":1598804593,"PROVIDER NAME":"Peralta, Mel","PROVIDER STATE":"New Mexico","PROVIDER CITY":"Albuquerque","PROVIDER  ADDRESS":"4824 McMahon Blvd NW, Suite 109","PROVIDER ZIP 5 CD":87114,"PROVIDER ZIP 4 CD":5412,"PROVIDER PHONE NUM":5057921137,"PROVIDER PHONE EXT":"","PROGRAM YEAR":2012},"geometry":{"type":"Point","coordinates":[-106.653239,35.191761]}},{"type":"Feature","id":"5132dd74a288f42e673590ce","properties":{"_id":"5132dd74a288f42e673590ce","PROVIDER NPI":1366525438,"PROVIDER NAME":"Powell, Kendra","PROVIDER STATE":"New Mexico","PROVIDER CITY":"Artesia","PROVIDER  ADDRESS":"1002 W. Main","PROVIDER ZIP 5 CD":88210,"PROVIDER ZIP 4 CD":"","PROVIDER PHONE NUM":5753973611,"PROVIDER PHONE EXT":"","PROGRAM YEAR":2012},"geometry":{"type":"Point","coordinates":[-104.408479,32.842269]}},{"type":"Feature","id":"5132dd74a288f42e673590cf","properties":{"_id":"5132dd74a288f42e673590cf","PROVIDER NPI":1679535827,"PROVIDER NAME":"Purdy, Malcolm","PROVIDER STATE":"New Mexico","PROVIDER CITY":"Albuquerque","PROVIDER  ADDRESS":"1001 Coal Ave SE","PROVIDER ZIP 5 CD":87106,"PROVIDER ZIP 4 CD":5205,"PROVIDER PHONE NUM":5059385858,"PROVIDER PHONE EXT":"","PROGRAM YEAR":2012},"geometry":{"type":"Point","coordinates":[-106.636488,35.078639]}},{"type":"Feature","id":"5132dd74a288f42e673590d0","properties":{"_id":"5132dd74a288f42e673590d0","PROVIDER NPI":1134140379,"PROVIDER NAME":"Rabinowitz, Ian","PROVIDER STATE":"New Mexico","PROVIDER CITY":"Albuquerque","PROVIDER  ADDRESS":"1201 Camino De Salud NE, MSC 07 4025","PROVIDER ZIP 5 CD":87102,"PROVIDER ZIP 4 CD":4517,"PROVIDER PHONE NUM":5052724946,"PROVIDER PHONE EXT":"","PROGRAM YEAR":2012},"geometry":{"type":"Point","coordinates":[-106.654115,35.096494]}},{"type":"Feature","id":"5132dd74a288f42e673590d1","properties":{"_id":"5132dd74a288f42e673590d1","PROVIDER NPI":1467568485,"PROVIDER NAME":"Ramaiya, Kamalesh","PROVIDER STATE":"New Mexico","PROVIDER CITY":"Albuquerque","PROVIDER  ADDRESS":"5757 Harper Dr NE","PROVIDER ZIP 5 CD":87109,"PROVIDER ZIP 4 CD":3566,"PROVIDER PHONE NUM":5058885757,"PROVIDER PHONE EXT":"","PROGRAM YEAR":2012},"geometry":{"type":"Point","coordinates":[-106.586099,35.153189]}},{"type":"Feature","id":"5132dd74a288f42e673590d2","properties":{"_id":"5132dd74a288f42e673590d2","PROVIDER NPI":1326056201,"PROVIDER NAME":"Ramasamy, Senthilkumar","PROVIDER STATE":"New Mexico","PROVIDER CITY":"Rio Rancho","PROVIDER  ADDRESS":"1101 Golf Course Rd SE, Suite 203","PROVIDER ZIP 5 CD":87124,"PROVIDER ZIP 4 CD":4728,"PROVIDER PHONE NUM":5052341616,"PROVIDER PHONE EXT":"","PROGRAM YEAR":2012},"geometry":{"type":"Point","coordinates":[-106.629201,35.288719]}},{"type":"Feature","id":"5132dd74a288f42e673590d3","properties":{"_id":"5132dd74a288f42e673590d3","PROVIDER NPI":1598769499,"PROVIDER NAME":"Ramo, Barry","PROVIDER STATE":"New Mexico","PROVIDER CITY":"Albuquerque","PROVIDER  ADDRESS":"502 Elm St NE","PROVIDER ZIP 5 CD":87102,"PROVIDER ZIP 4 CD":2512,"PROVIDER PHONE NUM":5058411000,"PROVIDER PHONE EXT":"","PROGRAM YEAR":2012},"geometry":{"type":"Point","coordinates":[-106.637722,35.087447]}},{"type":"Feature","id":"5132dd74a288f42e673590d4","properties":{"_id":"5132dd74a288f42e673590d4","PROVIDER NPI":1679535298,"PROVIDER NAME":"Ray, Thaddeus","PROVIDER STATE":"New Mexico","PROVIDER CITY":"Farmington","PROVIDER  ADDRESS":"4801 N Butler Ave, Suite 5000","PROVIDER ZIP 5 CD":87401,"PROVIDER ZIP 4 CD":6002,"PROVIDER PHONE NUM":5053267246,"PROVIDER PHONE EXT":"","PROGRAM YEAR":2012},"geometry":{"type":"Point","coordinates":[-108.198302,36.708101]}},{"type":"Feature","id":"5132dd74a288f42e673590d5","properties":{"_id":"5132dd74a288f42e673590d5","PROVIDER NPI":1265422265,"PROVIDER NAME":"Reidy, Kristin","PROVIDER STATE":"New Mexico","PROVIDER CITY":"Santa Fe","PROVIDER  ADDRESS":"2947 Rodeo Park Dr E","PROVIDER ZIP 5 CD":87505,"PROVIDER ZIP 4 CD":6303,"PROVIDER PHONE NUM":5059836613,"PROVIDER PHONE EXT":"","PROGRAM YEAR":2012},"geometry":{"type":"Point","coordinates":[-105.959048,35.637519]}},{"type":"Feature","id":"5132dd74a288f42e673590d6","properties":{"_id":"5132dd74a288f42e673590d6","PROVIDER NPI":1245226455,"PROVIDER NAME":"Reidy, Robert","PROVIDER STATE":"New Mexico","PROVIDER CITY":"Albuquerque","PROVIDER  ADDRESS":"806 Dr Martin Luther King Jr Ave NE","PROVIDER ZIP 5 CD":87102,"PROVIDER ZIP 4 CD":3657,"PROVIDER PHONE NUM":5058426575,"PROVIDER PHONE EXT":"","PROGRAM YEAR":2012},"geometry":{"type":"Point","coordinates":[-106.638088,35.085333]}},{"type":"Feature","id":"5132dd74a288f42e673590d7","properties":{"_id":"5132dd74a288f42e673590d7","PROVIDER NPI":1629040662,"PROVIDER NAME":"Rickman, Allan","PROVIDER STATE":"New Mexico","PROVIDER CITY":"Alamogordo","PROVIDER  ADDRESS":"2301 Indian Wells Rd, Suite A","PROVIDER ZIP 5 CD":88310,"PROVIDER ZIP 4 CD":4607,"PROVIDER PHONE NUM":5754340639,"PROVIDER PHONE EXT":110,"PROGRAM YEAR":2012},"geometry":{"type":"Point","coordinates":[-105.956478,32.915141]}},{"type":"Feature","id":"5132dd74a288f42e673590d8","properties":{"_id":"5132dd74a288f42e673590d8","PROVIDER NPI":1356569867,"PROVIDER NAME":"Ritsema, Molly","PROVIDER STATE":"New Mexico","PROVIDER CITY":"Albuquerque","PROVIDER  ADDRESS":"5757 Harper Dr NE","PROVIDER ZIP 5 CD":87109,"PROVIDER ZIP 4 CD":3566,"PROVIDER PHONE NUM":5058885757,"PROVIDER PHONE EXT":"","PROGRAM YEAR":2012},"geometry":{"type":"Point","coordinates":[-106.586099,35.153189]}},{"type":"Feature","id":"5132dd74a288f42e673590d9","properties":{"_id":"5132dd74a288f42e673590d9","PROVIDER NPI":1881684678,"PROVIDER NAME":"Ritz, Nicholas","PROVIDER STATE":"New Mexico","PROVIDER CITY":"Albuquerque","PROVIDER  ADDRESS":"5200 Eubank Blvd NE, Suite A-4","PROVIDER ZIP 5 CD":87111,"PROVIDER ZIP 4 CD":1759,"PROVIDER PHONE NUM":5052984419,"PROVIDER PHONE EXT":"","PROGRAM YEAR":2012},"geometry":{"type":"Point","coordinates":[-106.533379,35.137923]}},{"type":"Feature","id":"5132dd74a288f42e673590da","properties":{"_id":"5132dd74a288f42e673590da","PROVIDER NPI":1750342887,"PROVIDER NAME":"Rivera, Camille","PROVIDER STATE":"New Mexico","PROVIDER CITY":"Farmington","PROVIDER  ADDRESS":"4760 N Butler Ave Ste B1","PROVIDER ZIP 5 CD":87401,"PROVIDER ZIP 4 CD":826,"PROVIDER PHONE NUM":5055920592,"PROVIDER PHONE EXT":"","PROGRAM YEAR":2012},"geometry":{"type":"Point","coordinates":[-108.188985,36.762996]}},{"type":"Feature","id":"5132dd74a288f42e673590db","properties":{"_id":"5132dd74a288f42e673590db","PROVIDER NPI":1922068832,"PROVIDER NAME":"Roberts, Thomas","PROVIDER STATE":"New Mexico","PROVIDER CITY":"Albuquerque","PROVIDER  ADDRESS":"500 Walter NE, Suite 104","PROVIDER ZIP 5 CD":87102,"PROVIDER ZIP 4 CD":"","PROVIDER PHONE NUM":5058483730,"PROVIDER PHONE EXT":"","PROGRAM YEAR":2012},"geometry":{"type":"Point","coordinates":[-106.640314,35.086459]}},{"type":"Feature","id":"5132dd74a288f42e673590dc","properties":{"_id":"5132dd74a288f42e673590dc","PROVIDER NPI":1154493690,"PROVIDER NAME":"Robles, Lisa","PROVIDER STATE":"New Mexico","PROVIDER CITY":"Santa Fe","PROVIDER  ADDRESS":"1850 Old Pecos Trl Ste A","PROVIDER ZIP 5 CD":87505,"PROVIDER ZIP 4 CD":4760,"PROVIDER PHONE NUM":5059882117,"PROVIDER PHONE EXT":"","PROGRAM YEAR":2012},"geometry":{"type":"Point","coordinates":[-105.939621,35.656731]}},