[{"type":"Feature","id":"5132dd82a288f42e673628c2","properties":{"_id":"5132dd82a288f42e673628c2","PROVIDER NPI":1285831602,"PROVIDER NAME":"Abbott, Chad","PROVIDER STATE":"Washington","PROVIDER CITY":"Issaquah","PROVIDER  ADDRESS":"751 NE Blakely DR., Suite 5010","PROVIDER ZIP 5 CD":98029,"PROVIDER ZIP 4 CD":"","PROVIDER PHONE NUM":4253137159,"PROVIDER PHONE EXT":"","PROGRAM YEAR":2011},"geometry":{"type":"Point","coordinates":[-121.787067,47.490852]}},{"type":"Feature","id":"5132dd82a288f42e673628c3","properties":{"_id":"5132dd82a288f42e673628c3","PROVIDER NPI":1760453534,"PROVIDER NAME":"Abbott, Dale","PROVIDER STATE":"Washington","PROVIDER CITY":"Burlington","PROVIDER  ADDRESS":"835 East Fairhaven Avenue, PO Box 329","PROVIDER ZIP 5 CD":98233,"PROVIDER ZIP 4 CD":329,"PROVIDER PHONE NUM":3607550641,"PROVIDER PHONE EXT":"","PROGRAM YEAR":2011},"geometry":{"type":"Point","coordinates":[-122.32544,48.47566]}},{"type":"Feature","id":"5132dd82a288f42e673628c4","properties":{"_id":"5132dd82a288f42e673628c4","PROVIDER NPI":1336121029,"PROVIDER NAME":"Abson, Paul","PROVIDER STATE":"Washington","PROVIDER CITY":"Everett","PROVIDER  ADDRESS":"3901 Hoyt Ave","PROVIDER ZIP 5 CD":98201,"PROVIDER ZIP 4 CD":4918,"PROVIDER PHONE NUM":4253395460,"PROVIDER PHONE EXT":3700,"PROGRAM YEAR":2011},"geometry":{"type":"Point","coordinates":[-122.209475,47.965962]}},{"type":"Feature","id":"5132dd82a288f42e673628c5","properties":{"_id":"5132dd82a288f42e673628c5","PROVIDER NPI":1104891175,"PROVIDER NAME":"Adams, Jeffery","PROVIDER STATE":"Washington","PROVIDER CITY":"Everett","PROVIDER  ADDRESS":"3927 Rucker Ave","PROVIDER ZIP 5 CD":98201,"PROVIDER ZIP 4 CD":4833,"PROVIDER PHONE NUM":4253395441,"PROVIDER PHONE EXT":"","PROGRAM YEAR":2011},"geometry":{"type":"Point","coordinates":[-122.210821,47.965594]}},{"type":"Feature","id":"5132dd82a288f42e673628c6","properties":{"_id":"5132dd82a288f42e673628c6","PROVIDER NPI":1841305323,"PROVIDER NAME":"Agnani, Sujata","PROVIDER STATE":"Washington","PROVIDER CITY":"Everett","PROVIDER  ADDRESS":"3901 Hoyt Ave","PROVIDER ZIP 5 CD":98201,"PROVIDER ZIP 4 CD":4918,"PROVIDER PHONE NUM":4253395411,"PROVIDER PHONE EXT":"","PROGRAM YEAR":2011},"geometry":{"type":"Point","coordinates":[-122.209475,47.965962]}},{"type":"Feature","id":"5132dd82a288f42e673628c7","properties":{"_id":"5132dd82a288f42e673628c7","PROVIDER NPI":1851397830,"PROVIDER NAME":"Aguilu, Steven","PROVIDER STATE":"Washington","PROVIDER CITY":"Wenatchee","PROVIDER  ADDRESS":"1215 S Miller St, Central Washington Hospital Family Physicians","PROVIDER ZIP 5 CD":98801,"PROVIDER ZIP 4 CD":3201,"PROVIDER PHONE NUM":5096656087,"PROVIDER PHONE EXT":"","PROGRAM YEAR":2011},"geometry":{"type":"Point","coordinates":[-120.324544,47.406364]}},{"type":"Feature","id":"5132dd82a288f42e673628c8","properties":{"_id":"5132dd82a288f42e673628c8","PROVIDER NPI":1790747863,"PROVIDER NAME":"Ahl, Kathrin","PROVIDER STATE":"Washington","PROVIDER CITY":"Seattle","PROVIDER  ADDRESS":"1229 Madison St, Suite 900","PROVIDER ZIP 5 CD":98104,"PROVIDER ZIP 4 CD":3586,"PROVIDER PHONE NUM":2062926233,"PROVIDER PHONE EXT":"","PROGRAM YEAR":2011},"geometry":{"type":"Point","coordinates":[-122.323777,47.60987]}},{"type":"Feature","id":"5132dd82a288f42e673628c9","properties":{"_id":"5132dd82a288f42e673628c9","PROVIDER NPI":1922058031,"PROVIDER NAME":"Ahlstrom, Karen","PROVIDER STATE":"Washington","PROVIDER CITY":"Spokane","PROVIDER  ADDRESS":"217 W Cataldo","PROVIDER ZIP 5 CD":99201,"PROVIDER ZIP 4 CD":2217,"PROVIDER PHONE NUM":5096242326,"PROVIDER PHONE EXT":"","PROGRAM YEAR":2011},"geometry":{"type":"Point","coordinates":[-117.416344,47.66607]}},{"type":"Feature","id":"5132dd82a288f42e673628ca","properties":{"_id":"5132dd82a288f42e673628ca","PROVIDER NPI":1689646705,"PROVIDER NAME":"Ahmad, Rana","PROVIDER STATE":"Washington","PROVIDER CITY":"Spokane","PROVIDER  ADDRESS":"105 W 8th Ave, Ste 7010","PROVIDER ZIP 5 CD":99204,"PROVIDER ZIP 4 CD":2312,"PROVIDER PHONE NUM":5097476194,"PROVIDER PHONE EXT":"","PROGRAM YEAR":2011},"geometry":{"type":"Point","coordinates":[-117.413808,47.648306]}},{"type":"Feature","id":"5132dd82a288f42e673628cb","properties":{"_id":"5132dd82a288f42e673628cb","PROVIDER NPI":1649280777,"PROVIDER NAME":"Ahmad, Tanvir","PROVIDER STATE":"Washington","PROVIDER CITY":"Yakima","PROVIDER  ADDRESS":"611 N 39th Ave","PROVIDER ZIP 5 CD":98902,"PROVIDER ZIP 4 CD":6348,"PROVIDER PHONE NUM":5092491288,"PROVIDER PHONE EXT":"","PROGRAM YEAR":2011},"geometry":{"type":"Point","coordinates":[-120.560051,46.607306]}},{"type":"Feature","id":"5132dd82a288f42e673628cc","properties":{"_id":"5132dd82a288f42e673628cc","PROVIDER NPI":1043235872,"PROVIDER NAME":"AJUDIA, DHIREN","PROVIDER STATE":"Washington","PROVIDER CITY":"Renton","PROVIDER  ADDRESS":"148 Park Ave N","PROVIDER ZIP 5 CD":98057,"PROVIDER ZIP 4 CD":1719,"PROVIDER PHONE NUM":4252550055,"PROVIDER PHONE EXT":"","PROGRAM YEAR":2011},"geometry":{"type":"Point","coordinates":[-122.202136,47.483775]}},{"type":"Feature","id":"5132dd82a288f42e673628cd","properties":{"_id":"5132dd82a288f42e673628cd","PROVIDER NPI":1124039938,"PROVIDER NAME":"Al Ghanim, Hamed","PROVIDER STATE":"Washington","PROVIDER CITY":"Everett","PROVIDER  ADDRESS":"1818 121st St SE","PROVIDER ZIP 5 CD":98208,"PROVIDER ZIP 4 CD":5985,"PROVIDER PHONE NUM":4253573305,"PROVIDER PHONE EXT":"","PROGRAM YEAR":2011},"geometry":{"type":"Point","coordinates":[-122.20736,47.887585]}},{"type":"Feature","id":"5132dd82a288f42e673628ce","properties":{"_id":"5132dd82a288f42e673628ce","PROVIDER NPI":1679592166,"PROVIDER NAME":"Albrecht, Frederick","PROVIDER STATE":"Washington","PROVIDER CITY":"Bremerton","PROVIDER  ADDRESS":"2771 Hemlock Street, Suite 201","PROVIDER ZIP 5 CD":98310,"PROVIDER ZIP 4 CD":"","PROVIDER PHONE NUM":3603777634,"PROVIDER PHONE EXT":"","PROGRAM YEAR":2011},"geometry":{"type":"Point","coordinates":[-122.627973,47.585153]}},{"type":"Feature","id":"5132dd82a288f42e673628cf","properties":{"_id":"5132dd82a288f42e673628cf","PROVIDER NPI":1598730350,"PROVIDER NAME":"Albro, Peter","PROVIDER STATE":"Washington","PROVIDER CITY":"Seattle","PROVIDER  ADDRESS":"550 17th Ave, Suite 400","PROVIDER ZIP 5 CD":98122,"PROVIDER ZIP 4 CD":5788,"PROVIDER PHONE NUM":2068602302,"PROVIDER PHONE EXT":"","PROGRAM YEAR":2011},"geometry":{"type":"Point","coordinates":[-122.310168,47.606592]}},{"type":"Feature","id":"5132dd82a288f42e673628d0","properties":{"_id":"5132dd82a288f42e673628d0","PROVIDER NPI":1174587950,"PROVIDER NAME":"ALI, HUMERA","PROVIDER STATE":"Washington","PROVIDER CITY":"Seattle","PROVIDER  ADDRESS":"550 17th Ave, Suite 400","PROVIDER ZIP 5 CD":98122,"PROVIDER ZIP 4 CD":5788,"PROVIDER PHONE NUM":2068602302,"PROVIDER PHONE EXT":"","PROGRAM YEAR":2011},"geometry":{"type":"Point","coordinates":[-122.310168,47.606592]}},{"type":"Feature","id":"5132dd82a288f42e673628d1","properties":{"_id":"5132dd82a288f42e673628d1","PROVIDER NPI":1508817404,"PROVIDER NAME":"Allen, Gregory","PROVIDER STATE":"Washington","PROVIDER CITY":"Lacey","PROVIDER  ADDRESS":"4525 3rd Ave SE, Suite 100","PROVIDER ZIP 5 CD":98503,"PROVIDER ZIP 4 CD":1010,"PROVIDER PHONE NUM":3604128960,"PROVIDER PHONE EXT":"","PROGRAM YEAR":2011},"geometry":{"type":"Point","coordinates":[-122.828515,47.045463]}},{"type":"Feature","id":"5132dd82a288f42e673628d2","properties":{"_id":"5132dd82a288f42e673628d2","PROVIDER NPI":1114971686,"PROVIDER NAME":"Altayar, Sabah","PROVIDER STATE":"Washington","PROVIDER CITY":"Richland","PROVIDER  ADDRESS":"310 Torbett St","PROVIDER ZIP 5 CD":99354,"PROVIDER ZIP 4 CD":2604,"PROVIDER PHONE NUM":5099467646,"PROVIDER PHONE EXT":225,"PROGRAM YEAR":2011},"geometry":{"type":"Point","coordinates":[-119.276615,46.292239]}},{"type":"Feature","id":"5132dd82a288f42e673628d3","properties":{"_id":"5132dd82a288f42e673628d3","PROVIDER NPI":1477636405,"PROVIDER NAME":"Althouse, Ralph","PROVIDER STATE":"Washington","PROVIDER CITY":"Edmonds","PROVIDER  ADDRESS":"7320 216th St SW, Ste 210","PROVIDER ZIP 5 CD":98026,"PROVIDER ZIP 4 CD":8006,"PROVIDER PHONE NUM":4257441777,"PROVIDER PHONE EXT":"","PROGRAM YEAR":2011},"geometry":{"type":"Point","coordinates":[-122.33264,47.803177]}},{"type":"Feature","id":"5132dd82a288f42e673628d4","properties":{"_id":"5132dd82a288f42e673628d4","PROVIDER NPI":1073588232,"PROVIDER NAME":"Altmann, Irene","PROVIDER STATE":"Washington","PROVIDER CITY":"Snohomish","PROVIDER  ADDRESS":"401 2nd St","PROVIDER ZIP 5 CD":98290,"PROVIDER ZIP 4 CD":3008,"PROVIDER PHONE NUM":3605638600,"PROVIDER PHONE EXT":"","PROGRAM YEAR":2011},"geometry":{"type":"Point","coordinates":[-122.086132,47.912678]}},{"type":"Feature","id":"5132dd82a288f42e673628d5","properties":{"_id":"5132dd82a288f42e673628d5","PROVIDER NPI":1083748685,"PROVIDER NAME":"amirzadeh, ali","PROVIDER STATE":"Washington","PROVIDER CITY":"Walla Walla","PROVIDER  ADDRESS":"55 West Tietan Street","PROVIDER ZIP 5 CD":99362,"PROVIDER ZIP 4 CD":4445,"PROVIDER PHONE NUM":5095253720,"PROVIDER PHONE EXT":"","PROGRAM YEAR":2011},"geometry":{"type":"Point","coordinates":[-118.330911,46.049384]}},{"type":"Feature","id":"5132dd82a288f42e673628d6","properties":{"_id":"5132dd82a288f42e673628d6","PROVIDER NPI":1114045358,"PROVIDER NAME":"Anast, Jason","PROVIDER STATE":"Washington","PROVIDER CITY":"Vancouver","PROVIDER  ADDRESS":"2525 NE 139th St","PROVIDER ZIP 5 CD":98686,"PROVIDER ZIP 4 CD":2719,"PROVIDER PHONE NUM":3608822778,"PROVIDER PHONE EXT":"","PROGRAM YEAR":2011},"geometry":{"type":"Point","coordinates":[-122.644641,45.721795]}},{"type":"Feature","id":"5132dd82a288f42e673628d7","properties":{"_id":"5132dd82a288f42e673628d7","PROVIDER NPI":1598831406,"PROVIDER NAME":"Andersen, Brad","PROVIDER STATE":"Washington","PROVIDER CITY":"Poulsbo","PROVIDER  ADDRESS":"22180 Olympic College Way NW, Suite 201","PROVIDER ZIP 5 CD":98370,"PROVIDER ZIP 4 CD":"","PROVIDER PHONE NUM":3603943500,"PROVIDER PHONE EXT":"","PROGRAM YEAR":2011},"geometry":{"type":"Point","coordinates":[-122.648194,47.748017]}},{"type":"Feature","id":"5132dd82a288f42e673628d8","properties":{"_id":"5132dd82a288f42e673628d8","PROVIDER NPI":1790861706,"PROVIDER NAME":"Andersen, Teresa","PROVIDER STATE":"Washington","PROVIDER CITY":"Poulsbo","PROVIDER  ADDRESS":"22180 Olympic College Way NW","PROVIDER ZIP 5 CD":98370,"PROVIDER ZIP 4 CD":"","PROVIDER PHONE NUM":3603943500,"PROVIDER PHONE EXT":"","PROGRAM YEAR":2011},"geometry":{"type":"Point","coordinates":[-122.648194,47.748017]}},{"type":"Feature","id":"5132dd82a288f42e673628d9","properties":{"_id":"5132dd82a288f42e673628d9","PROVIDER NPI":1205887056,"PROVIDER NAME":"ANDERSON, CHRISTOPHER","PROVIDER STATE":"Washington","PROVIDER CITY":"Spokane Valley","PROVIDER  ADDRESS":"12410 E Sinto Ave, SUITE 201","PROVIDER ZIP 5 CD":99216,"PROVIDER ZIP 4 CD":2280,"PROVIDER PHONE NUM":5099284334,"PROVIDER PHONE EXT":"","PROGRAM YEAR":2011},"geometry":{"type":"Point","coordinates":[-117.238678,47.669703]}},{"type":"Feature","id":"5132dd82a288f42e673628da","properties":{"_id":"5132dd82a288f42e673628da","PROVIDER NPI":1083726269,"PROVIDER NAME":"Anderson, Keith","PROVIDER STATE":"Washington","PROVIDER CITY":"Centralia","PROVIDER  ADDRESS":"1900 Cooks Hill Rd","PROVIDER ZIP 5 CD":98531,"PROVIDER ZIP 4 CD":9073,"PROVIDER PHONE NUM":3607362889,"PROVIDER PHONE EXT":"","PROGRAM YEAR":2011},"geometry":{"type":"Point","coordinates":[-122.984491,46.71366]}},{"type":"Feature","id":"5132dd82a288f42e673628db","properties":{"_id":"5132dd82a288f42e673628db","PROVIDER NPI":1033293741,"PROVIDER NAME":"Anderson, Ken","PROVIDER STATE":"Washington","PROVIDER CITY":"Seattle","PROVIDER  ADDRESS":"7210 Roosevelt Way NE","PROVIDER ZIP 5 CD":98115,"PROVIDER ZIP 4 CD":5600,"PROVIDER PHONE NUM":2063203400,"PROVIDER PHONE EXT":"","PROGRAM YEAR":2011},"geometry":{"type":"Point","coordinates":[-122.31737,47.680933]}},{"type":"Feature","id":"5132dd82a288f42e673628dc","properties":{"_id":"5132dd82a288f42e673628dc","PROVIDER NPI":1548251085,"PROVIDER NAME":"Anderson, Kurt","PROVIDER STATE":"Washington","PROVIDER CITY":"Spokane","PROVIDER  ADDRESS":"785 E Holland Ave","PROVIDER ZIP 5 CD":99218,"PROVIDER ZIP 4 CD":1257,"PROVIDER PHONE NUM":5094666393,"PROVIDER PHONE EXT":"","PROGRAM YEAR":2011},"geometry":{"type":"Point","coordinates":[-117.39818,47.744015]}},{"type":"Feature","id":"5132dd82a288f42e673628dd","properties":{"_id":"5132dd82a288f42e673628dd","PROVIDER NPI":1053317222,"PROVIDER NAME":"Anderson, Linda","PROVIDER STATE":"Washington","PROVIDER CITY":"Seattle","PROVIDER  ADDRESS":"1145 Broadway","PROVIDER ZIP 5 CD":98122,"PROVIDER ZIP 4 CD":4201,"PROVIDER PHONE NUM":2063291760,"PROVIDER PHONE EXT":"","PROGRAM YEAR":2011},"geometry":{"type":"Point","coordinates":[-122.319939,47.612258]}},{"type":"Feature","id":"5132dd82a288f42e673628de","properties":{"_id":"5132dd82a288f42e673628de","PROVIDER NPI":1376506501,"PROVIDER NAME":"Anderson, Mark","PROVIDER STATE":"Washington","PROVIDER CITY":"Vancouver","PROVIDER  ADDRESS":"501 SE 172nd Ave","PROVIDER ZIP 5 CD":98684,"PROVIDER ZIP 4 CD":9542,"PROVIDER PHONE NUM":3608822778,"PROVIDER PHONE EXT":"","PROGRAM YEAR":2011},"geometry":{"type":"Point","coordinates":[-122.495615,45.617128]}},{"type":"Feature","id":"5132dd82a288f42e673628df","properties":{"_id":"5132dd82a288f42e673628df","PROVIDER NPI":1275508244,"PROVIDER NAME":"Andre, Robert","PROVIDER STATE":"Washington","PROVIDER CITY":"Everett","PROVIDER  ADDRESS":"1330 Rockefeller Ave, Suite 120","PROVIDER ZIP 5 CD":98201,"PROVIDER ZIP 4 CD":1684,"PROVIDER PHONE NUM":4253395424,"PROVIDER PHONE EXT":"","PROGRAM YEAR":2011},"geometry":{"type":"Point","coordinates":[-122.205352,47.999932]}},{"type":"Feature","id":"5132dd82a288f42e673628e0","properties":{"_id":"5132dd82a288f42e673628e0","PROVIDER NPI":1972579308,"PROVIDER NAME":"Andrews, Don","PROVIDER STATE":"Washington","PROVIDER CITY":"Marysville","PROVIDER  ADDRESS":"4420 76th St NE","PROVIDER ZIP 5 CD":98270,"PROVIDER ZIP 4 CD":3726,"PROVIDER PHONE NUM":3606517491,"PROVIDER PHONE EXT":"","PROGRAM YEAR":2011},"geometry":{"type":"Point","coordinates":[-122.171449,48.064774]}},{"type":"Feature","id":"5132dd82a288f42e673628e1","properties":{"_id":"5132dd82a288f42e673628e1","PROVIDER NPI":1306061684,"PROVIDER NAME":"Andrews, Kirsten","PROVIDER STATE":"Washington","PROVIDER CITY":"Seattle","PROVIDER  ADDRESS":"509 Olive Way, Suite 900","PROVIDER ZIP 5 CD":98101,"PROVIDER ZIP 4 CD":1720,"PROVIDER PHONE NUM":2068604700,"PROVIDER PHONE EXT":"","PROGRAM YEAR":2011},"geometry":{"type":"Point","coordinates":[-122.337264,47.612651]}},{"type":"Feature","id":"5132dd82a288f42e673628e2","properties":{"_id":"5132dd82a288f42e673628e2","PROVIDER NPI":1376685412,"PROVIDER NAME":"Andrews, Robert","PROVIDER STATE":"Washington","PROVIDER CITY":"Seattle","PROVIDER  ADDRESS":"1229 Madison St, Suite 900","PROVIDER ZIP 5 CD":98104,"PROVIDER ZIP 4 CD":3586,"PROVIDER PHONE NUM":2062926233,"PROVIDER PHONE EXT":"","PROGRAM YEAR":2011},"geometry":{"type":"Point","coordinates":[-122.323777,47.60987]}},{"type":"Feature","id":"5132dd82a288f42e673628e3","properties":{"_id":"5132dd82a288f42e673628e3","PROVIDER NPI":1902999402,"PROVIDER NAME":"Anholm, Anne","PROVIDER STATE":"Washington","PROVIDER CITY":"Everett","PROVIDER  ADDRESS":"900 Pacific Suite 500","PROVIDER ZIP 5 CD":98201,"PROVIDER ZIP 4 CD":"","PROVIDER PHONE NUM":4253395430,"PROVIDER PHONE EXT":"","PROGRAM YEAR":2011},"geometry":{"type":"Point","coordinates":[-122.218322,47.976494]}},{"type":"Feature","id":"5132dd82a288f42e673628e4","properties":{"_id":"5132dd82a288f42e673628e4","PROVIDER NPI":1568417608,"PROVIDER NAME":"Anonsen, Cynthia","PROVIDER STATE":"Washington","PROVIDER CITY":"Bellevue","PROVIDER  ADDRESS":"1135 116th Ave NE, #500","PROVIDER ZIP 5 CD":98004,"PROVIDER ZIP 4 CD":4623,"PROVIDER PHONE NUM":4254543938,"PROVIDER PHONE EXT":"","PROGRAM YEAR":2011},"geometry":{"type":"Point","coordinates":[-122.185748,47.621854]}},{"type":"Feature","id":"5132dd82a288f42e673628e5","properties":{"_id":"5132dd82a288f42e673628e5","PROVIDER NPI":1013104165,"PROVIDER NAME":"Arthur, John","PROVIDER STATE":"Washington","PROVIDER CITY":"Bremerton","PROVIDER  ADDRESS":"2528 Wheaton Way Ste 101","PROVIDER ZIP 5 CD":98310,"PROVIDER ZIP 4 CD":3305,"PROVIDER PHONE NUM":3604792400,"PROVIDER PHONE EXT":"","PROGRAM YEAR":2011},"geometry":{"type":"Point","coordinates":[-122.626814,47.581997]}},{"type":"Feature","id":"5132dd82a288f42e673628e6","properties":{"_id":"5132dd82a288f42e673628e6","PROVIDER NPI":1740260876,"PROVIDER NAME":"Ashby, William","PROVIDER STATE":"Washington","PROVIDER CITY":"Walla Walla","PROVIDER  ADDRESS":"1103B S 2nd Ave","PROVIDER ZIP 5 CD":99362,"PROVIDER ZIP 4 CD":4118,"PROVIDER PHONE NUM":5095294850,"PROVIDER PHONE EXT":"","PROGRAM YEAR":2011},"geometry":{"type":"Point","coordinates":[-118.330925,46.053157]}},{"type":"Feature","id":"5132dd82a288f42e673628e7","properties":{"_id":"5132dd82a288f42e673628e7","PROVIDER NPI":1922012442,"PROVIDER NAME":"Attaway, Thomas","PROVIDER STATE":"Washington","PROVIDER CITY":"Yakima","PROVIDER  ADDRESS":"3909 Creekside Loop, Suite 130","PROVIDER ZIP 5 CD":98902,"PROVIDER ZIP 4 CD":4880,"PROVIDER PHONE NUM":5092486616,"PROVIDER PHONE EXT":"","PROGRAM YEAR":2011},"geometry":{"type":"Point","coordinates":[-120.533851,46.596673]}},{"type":"Feature","id":"5132dd82a288f42e673628e8","properties":{"_id":"5132dd82a288f42e673628e8","PROVIDER NPI":1427252147,"PROVIDER NAME":"Atteberry, Dave","PROVIDER STATE":"Washington","PROVIDER CITY":"Yakima","PROVIDER  ADDRESS":"111 S 11th Ave, Suite 223","PROVIDER ZIP 5 CD":98902,"PROVIDER ZIP 4 CD":3242,"PROVIDER PHONE NUM":5095733530,"PROVIDER PHONE EXT":"","PROGRAM YEAR":2011},"geometry":{"type":"Point","coordinates":[-120.523584,46.596648]}},{"type":"Feature","id":"5132dd82a288f42e673628e9","properties":{"_id":"5132dd82a288f42e673628e9","PROVIDER NPI":1407927403,"PROVIDER NAME":"Austin, Kristen","PROVIDER STATE":"Washington","PROVIDER CITY":"Issaquah","PROVIDER  ADDRESS":"751 NE Blakely Dr.","PROVIDER ZIP 5 CD":98029,"PROVIDER ZIP 4 CD":"","PROVIDER PHONE NUM":4253137080,"PROVIDER PHONE EXT":"","PROGRAM YEAR":2011},"geometry":{"type":"Point","coordinates":[-122.384324,47.800225]}},{"type":"Feature","id":"5132dd82a288f42e673628ea","properties":{"_id":"5132dd82a288f42e673628ea","PROVIDER NPI":1689640351,"PROVIDER NAME":"Baciewicz, Peter","PROVIDER STATE":"Washington","PROVIDER CITY":"Seattle","PROVIDER  ADDRESS":"550 17th Ave, Suite 400","PROVIDER ZIP 5 CD":98122,"PROVIDER ZIP 4 CD":5788,"PROVIDER PHONE NUM":2068602302,"PROVIDER PHONE EXT":"","PROGRAM YEAR":2011},"geometry":{"type":"Point","coordinates":[-122.310168,47.606592]}},{"type":"Feature","id":"5132dd82a288f42e673628eb","properties":{"_id":"5132dd82a288f42e673628eb","PROVIDER NPI":1629275060,"PROVIDER NAME":"Backer, Martin","PROVIDER STATE":"Washington","PROVIDER CITY":"Yakima","PROVIDER  ADDRESS":"402 S 12th Ave","PROVIDER ZIP 5 CD":98902,"PROVIDER ZIP 4 CD":3115,"PROVIDER PHONE NUM":5092483263,"PROVIDER PHONE EXT":"","PROGRAM YEAR":2011},"geometry":{"type":"Point","coordinates":[-120.525101,46.593873]}},{"type":"Feature","id":"5132dd82a288f42e673628ec","properties":{"_id":"5132dd82a288f42e673628ec","PROVIDER NPI":1073559043,"PROVIDER NAME":"Badorek, Belinda","PROVIDER STATE":"Washington","PROVIDER CITY":"Kennewick","PROVIDER  ADDRESS":"6515 W Clearwater Ave, Ste 340","PROVIDER ZIP 5 CD":99336,"PROVIDER ZIP 4 CD":1790,"PROVIDER PHONE NUM":5097372020,"PROVIDER PHONE EXT":"","PROGRAM YEAR":2011},"geometry":{"type":"Point","coordinates":[-119.207726,46.211804]}},{"type":"Feature","id":"5132dd82a288f42e673628ed","properties":{"_id":"5132dd82a288f42e673628ed","PROVIDER NPI":1164522397,"PROVIDER NAME":"Bailey, Robert","PROVIDER STATE":"Washington","PROVIDER CITY":"Everett","PROVIDER  ADDRESS":"3927 Rucker Ave","PROVIDER ZIP 5 CD":98201,"PROVIDER ZIP 4 CD":4833,"PROVIDER PHONE NUM":4253395422,"PROVIDER PHONE EXT":"","PROGRAM YEAR":2011},"geometry":{"type":"Point","coordinates":[-122.210821,47.965594]}},{"type":"Feature","id":"5132dd82a288f42e673628ee","properties":{"_id":"5132dd82a288f42e673628ee","PROVIDER NPI":1467424333,"PROVIDER NAME":"Baker, David","PROVIDER STATE":"Washington","PROVIDER CITY":"Bellingham","PROVIDER  ADDRESS":"710 Birchwood Ave, Suite 101","PROVIDER ZIP 5 CD":98225,"PROVIDER ZIP 4 CD":1720,"PROVIDER PHONE NUM":3606760922,"PROVIDER PHONE EXT":"","PROGRAM YEAR":2011},"geometry":{"type":"Point","coordinates":[-122.482647,48.777224]}},{"type":"Feature","id":"5132dd82a288f42e673628ef","properties":{"_id":"5132dd82a288f42e673628ef","PROVIDER NPI":1386630820,"PROVIDER NAME":"Baker-Hall, Victoria","PROVIDER STATE":"Washington","PROVIDER CITY":"Sultan","PROVIDER  ADDRESS":"615 W Stevens Ave","PROVIDER ZIP 5 CD":98294,"PROVIDER ZIP 4 CD":9458,"PROVIDER PHONE NUM":3607930201,"PROVIDER PHONE EXT":220,"PROGRAM YEAR":2011},"geometry":{"type":"Point","coordinates":[-121.829176,47.858508]}},{"type":"Feature","id":"5132dd82a288f42e673628f0","properties":{"_id":"5132dd82a288f42e673628f0","PROVIDER NPI":1285683516,"PROVIDER NAME":"BALDWIN, KITTREDGE","PROVIDER STATE":"Washington","PROVIDER CITY":"Bremerton","PROVIDER  ADDRESS":"2512 Wheaton Way","PROVIDER ZIP 5 CD":98310,"PROVIDER ZIP 4 CD":3399,"PROVIDER PHONE NUM":3607823700,"PROVIDER PHONE EXT":"","PROGRAM YEAR":2011},"geometry":{"type":"Point","coordinates":[-122.626817,47.581742]}},{"type":"Feature","id":"5132dd82a288f42e673628f1","properties":{"_id":"5132dd82a288f42e673628f1","PROVIDER NPI":1649224577,"PROVIDER NAME":"Baliga, Shweta","PROVIDER STATE":"Washington","PROVIDER CITY":"Puyallup","PROVIDER  ADDRESS":"16515 Meridian E, Suite 104A","PROVIDER ZIP 5 CD":98375,"PROVIDER ZIP 4 CD":6251,"PROVIDER PHONE NUM":2536973030,"PROVIDER PHONE EXT":"","PROGRAM YEAR":2011},"geometry":{"type":"Point","coordinates":[-122.293345,47.105691]}},{"type":"Feature","id":"5132dd82a288f42e673628f2","properties":{"_id":"5132dd82a288f42e673628f2","PROVIDER NPI":1275507485,"PROVIDER NAME":"Ball, Eric","PROVIDER STATE":"Washington","PROVIDER CITY":"Walla Walla","PROVIDER  ADDRESS":"55 W Tietan St","PROVIDER ZIP 5 CD":99362,"PROVIDER ZIP 4 CD":4445,"PROVIDER PHONE NUM":5095253720,"PROVIDER PHONE EXT":1401,"PROGRAM YEAR":2011},"geometry":{"type":"Point","coordinates":[-118.330911,46.049384]}},{"type":"Feature","id":"5132dd82a288f42e673628f3","properties":{"_id":"5132dd82a288f42e673628f3","PROVIDER NPI":1780762252,"PROVIDER NAME":"Banfield, Matthew","PROVIDER STATE":"Washington","PROVIDER CITY":"Everett","PROVIDER  ADDRESS":"900 Pacific Ave","PROVIDER ZIP 5 CD":98201,"PROVIDER ZIP 4 CD":4168,"PROVIDER PHONE NUM":4253395430,"PROVIDER PHONE EXT":"","PROGRAM YEAR":2011},"geometry":{"type":"Point","coordinates":[-122.218322,47.976494]}},{"type":"Feature","id":"5132dd82a288f42e673628f4","properties":{"_id":"5132dd82a288f42e673628f4","PROVIDER NPI":1972515211,"PROVIDER NAME":"Bang, Dae Hee","PROVIDER STATE":"Washington","PROVIDER CITY":"Seattle","PROVIDER  ADDRESS":"1229 Madison St, Suite 900","PROVIDER ZIP 5 CD":98104,"PROVIDER ZIP 4 CD":3586,"PROVIDER PHONE NUM":2062926233,"PROVIDER PHONE EXT":"","PROGRAM YEAR":2011},"geometry":{"type":"Point","coordinates":[-122.323777,47.60987]}},{"type":"Feature","id":"5132dd82a288f42e673628f5","properties":{"_id":"5132dd82a288f42e673628f5","PROVIDER NPI":1497948467,"PROVIDER NAME":"Bangalore Krishnaiah, Poornima","PROVIDER STATE":"Washington","PROVIDER CITY":"Auburn","PROVIDER  ADDRESS":"735 12th st SE","PROVIDER ZIP 5 CD":98002,"PROVIDER ZIP 4 CD":4400,"PROVIDER PHONE NUM":2538767990,"PROVIDER PHONE EXT":"","PROGRAM YEAR":2011},"geometry":{"type":"Point","coordinates":[-122.218864,47.297364]}},{"type":"Feature","id":"5132dd82a288f42e673628f6","properties":{"_id":"5132dd82a288f42e673628f6","PROVIDER NPI":1801871074,"PROVIDER NAME":"Banionis, Arunas","PROVIDER STATE":"Washington","PROVIDER CITY":"Bremerton","PROVIDER  ADDRESS":"2512 Wheaton Way","PROVIDER ZIP 5 CD":98310,"PROVIDER ZIP 4 CD":3399,"PROVIDER PHONE NUM":3607823700,"PROVIDER PHONE EXT":"","PROGRAM YEAR":2011},"geometry":{"type":"Point","coordinates":[-122.626817,47.581742]}},{"type":"Feature","id":"5132dd82a288f42e673628f7","properties":{"_id":"5132dd82a288f42e673628f7","PROVIDER NPI":1316035355,"PROVIDER NAME":"Banjanin, Milan","PROVIDER STATE":"Washington","PROVIDER CITY":"Bellingham","PROVIDER  ADDRESS":"3130 Ellis St","PROVIDER ZIP 5 CD":98225,"PROVIDER ZIP 4 CD":1904,"PROVIDER PHONE NUM":3607344404,"PROVIDER PHONE EXT":"","PROGRAM YEAR":2011},"geometry":{"type":"Point","coordinates":[-122.472074,48.772371]}},{"type":"Feature","id":"5132dd82a288f42e673628f8","properties":{"_id":"5132dd82a288f42e673628f8","PROVIDER NPI":1912933375,"PROVIDER NAME":"BANZER, JOHN","PROVIDER STATE":"Washington","PROVIDER CITY":"Silverdale","PROVIDER  ADDRESS":"2011 NW Myhre Pl","PROVIDER ZIP 5 CD":98383,"PROVIDER ZIP 4 CD":8561,"PROVIDER PHONE NUM":3608301601,"PROVIDER PHONE EXT":"","PROGRAM YEAR":2011},"geometry":{"type":"Point","coordinates":[-122.676854,47.65104]}},{"type":"Feature","id":"5132dd82a288f42e673628f9","properties":{"_id":"5132dd82a288f42e673628f9","PROVIDER NPI":1780794834,"PROVIDER NAME":"Barlam, Ilona","PROVIDER STATE":"Washington","PROVIDER CITY":"Redmond","PROVIDER  ADDRESS":"2001 152nd AVE NE","PROVIDER ZIP 5 CD":98052,"PROVIDER ZIP 4 CD":5521,"PROVIDER PHONE NUM":4256438901,"PROVIDER PHONE EXT":"","PROGRAM YEAR":2011},"geometry":{"type":"Point","coordinates":[-122.137712,47.6302]}},{"type":"Feature","id":"5132dd82a288f42e673628fa","properties":{"_id":"5132dd82a288f42e673628fa","PROVIDER NPI":1942310008,"PROVIDER NAME":"Barlam, Serge","PROVIDER STATE":"Washington","PROVIDER CITY":"Redmond","PROVIDER  ADDRESS":"2001 152nd AVE NE","PROVIDER ZIP 5 CD":98052,"PROVIDER ZIP 4 CD":5521,"PROVIDER PHONE NUM":4256438901,"PROVIDER PHONE EXT":"","PROGRAM YEAR":2011},"geometry":{"type":"Point","coordinates":[-122.137712,47.6302]}},{"type":"Feature","id":"5132dd82a288f42e673628fb","properties":{"_id":"5132dd82a288f42e673628fb","PROVIDER NPI":1518042340,"PROVIDER NAME":"Barnes, Penelope","PROVIDER STATE":"Washington","PROVIDER CITY":"Seattle","PROVIDER  ADDRESS":"University Of Washington Medical Ctr, 1959 NE Pacific St","PROVIDER ZIP 5 CD":98195,"PROVIDER ZIP 4 CD":6166,"PROVIDER PHONE NUM":2065987600,"PROVIDER PHONE EXT":"","PROGRAM YEAR":2011},"geometry":{"type":"Point","coordinates":[-122.312465,47.652982]}},{"type":"Feature","id":"5132dd82a288f42e673628fc","properties":{"_id":"5132dd82a288f42e673628fc","PROVIDER NPI":1568464154,"PROVIDER NAME":"Barnhart, Glenn","PROVIDER STATE":"Washington","PROVIDER CITY":"Seattle","PROVIDER  ADDRESS":"1600 E Jefferson St, Ste 110","PROVIDER ZIP 5 CD":98122,"PROVIDER ZIP 4 CD":5698,"PROVIDER PHONE NUM":2063207300,"PROVIDER PHONE EXT":"","PROGRAM YEAR":2011},"geometry":{"type":"Point","coordinates":[-122.311556,47.606178]}},{"type":"Feature","id":"5132dd82a288f42e673628fd","properties":{"_id":"5132dd82a288f42e673628fd","PROVIDER NPI":1730263443,"PROVIDER NAME":"Barr, Darlene","PROVIDER STATE":"Washington","PROVIDER CITY":"Seattle","PROVIDER  ADDRESS":"801 Broadway, Ste 300","PROVIDER ZIP 5 CD":98122,"PROVIDER ZIP 4 CD":4334,"PROVIDER PHONE NUM":2062153500,"PROVIDER PHONE EXT":"","PROGRAM YEAR":2011},"geometry":{"type":"Point","coordinates":[-122.320758,47.60924]}},{"type":"Feature","id":"5132dd82a288f42e673628fe","properties":{"_id":"5132dd82a288f42e673628fe","PROVIDER NPI":1265539944,"PROVIDER NAME":"Barrow, Craig","PROVIDER STATE":"Washington","PROVIDER CITY":"Spokane","PROVIDER  ADDRESS":"785 E Holland Ave","PROVIDER ZIP 5 CD":99218,"PROVIDER ZIP 4 CD":1257,"PROVIDER PHONE NUM":5094666393,"PROVIDER PHONE EXT":"","PROGRAM YEAR":2011},"geometry":{"type":"Point","coordinates":[-117.39818,47.744015]}},{"type":"Feature","id":"5132dd82a288f42e673628ff","properties":{"_id":"5132dd82a288f42e673628ff","PROVIDER NPI":1295822930,"PROVIDER NAME":"Basamania, Carl","PROVIDER STATE":"Washington","PROVIDER CITY":"Seattle","PROVIDER  ADDRESS":"1145 Broadway","PROVIDER ZIP 5 CD":98122,"PROVIDER ZIP 4 CD":4201,"PROVIDER PHONE NUM":2068602279,"PROVIDER PHONE EXT":"","PROGRAM YEAR":2011},"geometry":{"type":"Point","coordinates":[-122.319939,47.612258]}},{"type":"Feature","id":"5132dd82a288f42e67362900","properties":{"_id":"5132dd82a288f42e67362900","PROVIDER NPI":1700050317,"PROVIDER NAME":"Bassett, Katrina","PROVIDER STATE":"Washington","PROVIDER CITY":"Mill Creek","PROVIDER  ADDRESS":"15906 Mill Creek Blvd, Suite 105","PROVIDER ZIP 5 CD":98012,"PROVIDER ZIP 4 CD":1797,"PROVIDER PHONE NUM":4253852009,"PROVIDER PHONE EXT":111,"PROGRAM YEAR":2011},"geometry":{"type":"Point","coordinates":[-122.214567,47.85791]}},{"type":"Feature","id":"5132dd82a288f42e67362901","properties":{"_id":"5132dd82a288f42e67362901","PROVIDER NPI":1376592162,"PROVIDER NAME":"BATES, JAMES","PROVIDER STATE":"Washington","PROVIDER CITY":"Port Orchard","PROVIDER  ADDRESS":"450 S Kitsap Blvd, BLDG. 1, SUITE 250","PROVIDER ZIP 5 CD":98366,"PROVIDER ZIP 4 CD":3773,"PROVIDER PHONE NUM":3607823000,"PROVIDER PHONE EXT":"","PROGRAM YEAR":2011},"geometry":{"type":"Point","coordinates":[-122.617341,47.543655]}},{"type":"Feature","id":"5132dd82a288f42e67362902","properties":{"_id":"5132dd82a288f42e67362902","PROVIDER NPI":1720007164,"PROVIDER NAME":"Baucke, Robert","PROVIDER STATE":"Washington","PROVIDER CITY":"Tacoma","PROVIDER  ADDRESS":"315 Martin Luther King Jr Way","PROVIDER ZIP 5 CD":98405,"PROVIDER ZIP 4 CD":"","PROVIDER PHONE NUM":2534037726,"PROVIDER PHONE EXT":"","PROGRAM YEAR":2011},"geometry":{"type":"Point","coordinates":[-122.453495,47.2601]}},{"type":"Feature","id":"5132dd82a288f42e67362903","properties":{"_id":"5132dd82a288f42e67362903","PROVIDER NPI":1407029762,"PROVIDER NAME":"Bauer, Jacob","PROVIDER STATE":"Washington","PROVIDER CITY":"Olympia","PROVIDER  ADDRESS":"304 West Bay Dr. NW, Suite 301","PROVIDER ZIP 5 CD":98506,"PROVIDER ZIP 4 CD":"","PROVIDER PHONE NUM":3604138760,"PROVIDER PHONE EXT":"","PROGRAM YEAR":2011},"geometry":{"type":"Point","coordinates":[-122.86503,47.047261]}},{"type":"Feature","id":"5132dd82a288f42e67362904","properties":{"_id":"5132dd82a288f42e67362904","PROVIDER NPI":1851391015,"PROVIDER NAME":"Bauer, John","PROVIDER STATE":"Washington","PROVIDER CITY":"Olympia","PROVIDER  ADDRESS":"304 West Bay Dr. NW, Suite 301","PROVIDER ZIP 5 CD":98502,"PROVIDER ZIP 4 CD":"","PROVIDER PHONE NUM":3604138760,"PROVIDER PHONE EXT":"","PROGRAM YEAR":2011},"geometry":{"type":"Point","coordinates":[-122.913147,47.047179]}},{"type":"Feature","id":"5132dd82a288f42e67362905","properties":{"_id":"5132dd82a288f42e67362905","PROVIDER NPI":1922004910,"PROVIDER NAME":"Bauer, Peter","PROVIDER STATE":"Washington","PROVIDER CITY":"Wenatchee","PROVIDER  ADDRESS":"1215 S Miller St, Central Washington Hospital Family Physicians","PROVIDER ZIP 5 CD":98801,"PROVIDER ZIP 4 CD":3201,"PROVIDER PHONE NUM":5096656087,"PROVIDER PHONE EXT":"","PROGRAM YEAR":2011},"geometry":{"type":"Point","coordinates":[-120.324544,47.406364]}},{"type":"Feature","id":"5132dd82a288f42e67362906","properties":{"_id":"5132dd82a288f42e67362906","PROVIDER NPI":1801862511,"PROVIDER NAME":"Baumgaertel, Susan","PROVIDER STATE":"Washington","PROVIDER CITY":"Seattle","PROVIDER  ADDRESS":"1145 Broadway","PROVIDER ZIP 5 CD":98122,"PROVIDER ZIP 4 CD":4201,"PROVIDER PHONE NUM":2063291760,"PROVIDER PHONE EXT":"","PROGRAM YEAR":2011},"geometry":{"type":"Point","coordinates":[-122.319939,47.612258]}},{"type":"Feature","id":"5132dd82a288f42e67362907","properties":{"_id":"5132dd82a288f42e67362907","PROVIDER NPI":1891733473,"PROVIDER NAME":"Bautista, Jorielle","PROVIDER STATE":"Washington","PROVIDER CITY":"Seattle","PROVIDER  ADDRESS":"1801 NW Market St, Suite 203","PROVIDER ZIP 5 CD":98107,"PROVIDER ZIP 4 CD":3987,"PROVIDER PHONE NUM":2067816079,"PROVIDER PHONE EXT":"","PROGRAM YEAR":2011},"geometry":{"type":"Point","coordinates":[-122.380354,47.66867]}},{"type":"Feature","id":"5132dd82a288f42e67362908","properties":{"_id":"5132dd82a288f42e67362908","PROVIDER NPI":1255303301,"PROVIDER NAME":"Bax, Timothy","PROVIDER STATE":"Washington","PROVIDER CITY":"Spokane","PROVIDER  ADDRESS":"105 W 8th Ave, Suite 7010","PROVIDER ZIP 5 CD":99204,"PROVIDER ZIP 4 CD":2312,"PROVIDER PHONE NUM":5097476194,"PROVIDER PHONE EXT":"","PROGRAM YEAR":2011},"geometry":{"type":"Point","coordinates":[-117.413808,47.648306]}},{"type":"Feature","id":"5132dd82a288f42e67362909","properties":{"_id":"5132dd82a288f42e67362909","PROVIDER NPI":1144296575,"PROVIDER NAME":"Beard, Christopher","PROVIDER STATE":"Washington","PROVIDER CITY":"Marysville","PROVIDER  ADDRESS":"4420 76th St NE","PROVIDER ZIP 5 CD":98270,"PROVIDER ZIP 4 CD":3726,"PROVIDER PHONE NUM":3606517495,"PROVIDER PHONE EXT":"","PROGRAM YEAR":2011},"geometry":{"type":"Point","coordinates":[-122.171449,48.064774]}},{"type":"Feature","id":"5132dd82a288f42e6736290a","properties":{"_id":"5132dd82a288f42e6736290a","PROVIDER NPI":1538157599,"PROVIDER NAME":"Beaubien, Joanne","PROVIDER STATE":"Washington","PROVIDER CITY":"Seattle","PROVIDER  ADDRESS":"5350 Tallman Ave. NW,, Ste. 301","PROVIDER ZIP 5 CD":98107,"PROVIDER ZIP 4 CD":4030,"PROVIDER PHONE NUM":2063203335,"PROVIDER PHONE EXT":"","PROGRAM YEAR":2011},"geometry":{"type":"Point","coordinates":[-122.379687,47.667256]}},{"type":"Feature","id":"5132dd82a288f42e6736290b","properties":{"_id":"5132dd82a288f42e6736290b","PROVIDER NPI":1366455834,"PROVIDER NAME":"Bedford, Brent","PROVIDER STATE":"Washington","PROVIDER CITY":"Ephrata","PROVIDER  ADDRESS":"51 Alder St NW","PROVIDER ZIP 5 CD":98823,"PROVIDER ZIP 4 CD":1663,"PROVIDER PHONE NUM":5097543295,"PROVIDER PHONE EXT":"","PROGRAM YEAR":2011},"geometry":{"type":"Point","coordinates":[-119.549979,47.320696]}},{"type":"Feature","id":"5132dd82a288f42e6736290c","properties":{"_id":"5132dd82a288f42e6736290c","PROVIDER NPI":1538265103,"PROVIDER NAME":"Begert, Ann","PROVIDER STATE":"Washington","PROVIDER CITY":"Edmonds","PROVIDER  ADDRESS":"7315 212th St SW, Suite 101","PROVIDER ZIP 5 CD":98026,"PROVIDER ZIP 4 CD":7610,"PROVIDER PHONE NUM":4257759474,"PROVIDER PHONE EXT":"","PROGRAM YEAR":2011},"geometry":{"type":"Point","coordinates":[-122.331422,47.806969]}},{"type":"Feature","id":"5132dd82a288f42e6736290d","properties":{"_id":"5132dd82a288f42e6736290d","PROVIDER NPI":1598836595,"PROVIDER NAME":"Belcher, D.","PROVIDER STATE":"Washington","PROVIDER CITY":"SEATTLE","PROVIDER  ADDRESS":"7210 Roosevelt Way NE","PROVIDER ZIP 5 CD":98115,"PROVIDER ZIP 4 CD":5600,"PROVIDER PHONE NUM":2063203400,"PROVIDER PHONE EXT":"","PROGRAM YEAR":2011},"geometry":{"type":"Point","coordinates":[-122.31737,47.680933]}},{"type":"Feature","id":"5132dd82a288f42e6736290e","properties":{"_id":"5132dd82a288f42e6736290e","PROVIDER NPI":1083653265,"PROVIDER NAME":"BENSON, DAREN","PROVIDER STATE":"Washington","PROVIDER CITY":"Vancouver","PROVIDER  ADDRESS":"2525 NE 139th St","PROVIDER ZIP 5 CD":98686,"PROVIDER ZIP 4 CD":"","PROVIDER PHONE NUM":3608822778,"PROVIDER PHONE EXT":"","PROGRAM YEAR":2011},"geometry":{"type":"Point","coordinates":[-122.644641,45.721795]}},{"type":"Feature","id":"5132dd82a288f42e6736290f","properties":{"_id":"5132dd82a288f42e6736290f","PROVIDER NPI":1801899182,"PROVIDER NAME":"Benson, Jennifer","PROVIDER STATE":"Washington","PROVIDER CITY":"Mount Vernon","PROVIDER  ADDRESS":"2116 East Section Street","PROVIDER ZIP 5 CD":98274,"PROVIDER ZIP 4 CD":9124,"PROVIDER PHONE NUM":3604281700,"PROVIDER PHONE EXT":"","PROGRAM YEAR":2011},"geometry":{"type":"Point","coordinates":[-122.315317,48.413598]}},{"type":"Feature","id":"5132dd82a288f42e67362910","properties":{"_id":"5132dd82a288f42e67362910","PROVIDER NPI":1346403623,"PROVIDER NAME":"Benveniste, sara","PROVIDER STATE":"Washington","PROVIDER CITY":"Seattle","PROVIDER  ADDRESS":"7210 Roosevelt Way NE","PROVIDER ZIP 5 CD":98115,"PROVIDER ZIP 4 CD":5600,"PROVIDER PHONE NUM":2063203400,"PROVIDER PHONE EXT":"","PROGRAM YEAR":2011},"geometry":{"type":"Point","coordinates":[-122.31737,47.680933]}},{"type":"Feature","id":"5132dd82a288f42e67362911","properties":{"_id":"5132dd82a288f42e67362911","PROVIDER NPI":1649342643,"PROVIDER NAME":"Berg, Rion","PROVIDER STATE":"Washington","PROVIDER CITY":"Seattle","PROVIDER  ADDRESS":"2611 NE 125th St, Ste 130","PROVIDER ZIP 5 CD":98125,"PROVIDER ZIP 4 CD":4373,"PROVIDER PHONE NUM":2063687000,"PROVIDER PHONE EXT":"","PROGRAM YEAR":2011},"geometry":{"type":"Point","coordinates":[-122.30041,47.722853]}},{"type":"Feature","id":"5132dd82a288f42e67362912","properties":{"_id":"5132dd82a288f42e67362912","PROVIDER NPI":1588749691,"PROVIDER NAME":"Berger, Carmen","PROVIDER STATE":"Washington","PROVIDER CITY":"Renton","PROVIDER  ADDRESS":"4011 Talbot Road South, Suite 460","PROVIDER ZIP 5 CD":98055,"PROVIDER ZIP 4 CD":"","PROVIDER PHONE NUM":4252715345,"PROVIDER PHONE EXT":3830,"PROGRAM YEAR":2011},"geometry":{"type":"Point","coordinates":[-122.211927,47.443106]}},{"type":"Feature","id":"5132dd82a288f42e67362913","properties":{"_id":"5132dd82a288f42e67362913","PROVIDER NPI":1710053665,"PROVIDER NAME":"Bergum, Mary","PROVIDER STATE":"Washington","PROVIDER CITY":"Spokane","PROVIDER  ADDRESS":"3154 E 29th Ave","PROVIDER ZIP 5 CD":99223,"PROVIDER ZIP 4 CD":4852,"PROVIDER PHONE NUM":5094484870,"PROVIDER PHONE EXT":"","PROGRAM YEAR":2011},"geometry":{"type":"Point","coordinates":[-117.364777,47.628112]}},{"type":"Feature","id":"5132dd82a288f42e67362914","properties":{"_id":"5132dd82a288f42e67362914","PROVIDER NPI":1508826744,"PROVIDER NAME":"Berinstein, Todd","PROVIDER STATE":"Washington","PROVIDER CITY":"Vancouver","PROVIDER  ADDRESS":"2101 NE 139th St, Ste 285","PROVIDER ZIP 5 CD":98686,"PROVIDER ZIP 4 CD":2309,"PROVIDER PHONE NUM":3603263966,"PROVIDER PHONE EXT":"","PROGRAM YEAR":2011},"geometry":{"type":"Point","coordinates":[-122.648371,45.722197]}},{"type":"Feature","id":"5132dd82a288f42e67362915","properties":{"_id":"5132dd82a288f42e67362915","PROVIDER NPI":1881680148,"PROVIDER NAME":"Berliner, Carl","PROVIDER STATE":"Washington","PROVIDER CITY":"Mount Vernon","PROVIDER  ADDRESS":"607 N 4th St","PROVIDER ZIP 5 CD":98273,"PROVIDER ZIP 4 CD":2827,"PROVIDER PHONE NUM":3607553286,"PROVIDER PHONE EXT":"","PROGRAM YEAR":2011},"geometry":{"type":"Point","coordinates":[-122.335394,48.425995]}},{"type":"Feature","id":"5132dd82a288f42e67362916","properties":{"_id":"5132dd82a288f42e67362916","PROVIDER NPI":1548239239,"PROVIDER NAME":"BERNEY, Timothy","PROVIDER STATE":"Washington","PROVIDER CITY":"Aberdeen","PROVIDER  ADDRESS":"1211 Skyview Dr","PROVIDER ZIP 5 CD":98520,"PROVIDER ZIP 4 CD":1099,"PROVIDER PHONE NUM":3605323808,"PROVIDER PHONE EXT":"","PROGRAM YEAR":2011},"geometry":{"type":"Point","coordinates":[-123.84624,46.982632]}},{"type":"Feature","id":"5132dd82a288f42e67362917","properties":{"_id":"5132dd82a288f42e67362917","PROVIDER NPI":1760406888,"PROVIDER NAME":"Bernfeld, Barry","PROVIDER STATE":"Washington","PROVIDER CITY":"Yakima","PROVIDER  ADDRESS":"3003 Tieton Dr, Suite 300","PROVIDER ZIP 5 CD":98902,"PROVIDER ZIP 4 CD":3679,"PROVIDER PHONE NUM":5095753946,"PROVIDER PHONE EXT":"","PROGRAM YEAR":2011},"geometry":{"type":"Point","coordinates":[-120.548722,46.592801]}},{"type":"Feature","id":"5132dd82a288f42e67362918","properties":{"_id":"5132dd82a288f42e67362918","PROVIDER NPI":1376592428,"PROVIDER NAME":"BERNSTEIN, JEFFREY","PROVIDER STATE":"Washington","PROVIDER CITY":"Silverdale","PROVIDER  ADDRESS":"2200 NW Myhre Rd","PROVIDER ZIP 5 CD":98383,"PROVIDER ZIP 4 CD":7681,"PROVIDER PHONE NUM":3608301100,"PROVIDER PHONE EXT":"","PROGRAM YEAR":2011},"geometry":{"type":"Point","coordinates":[-122.676942,47.65772]}},{"type":"Feature","id":"5132dd82a288f42e67362919","properties":{"_id":"5132dd82a288f42e67362919","PROVIDER NPI":1437227162,"PROVIDER NAME":"Bethel, Robert","PROVIDER STATE":"Washington","PROVIDER CITY":"Poulsbo","PROVIDER  ADDRESS":"20730 Bond Rd NE, Ste 205","PROVIDER ZIP 5 CD":98370,"PROVIDER ZIP 4 CD":9000,"PROVIDER PHONE NUM":3607799727,"PROVIDER PHONE EXT":"","PROGRAM YEAR":2011},"geometry":{"type":"Point","coordinates":[-122.547172,47.759087]}},{"type":"Feature","id":"5132dd82a288f42e6736291a","properties":{"_id":"5132dd82a288f42e6736291a","PROVIDER NPI":1255352415,"PROVIDER NAME":"Bethel, Ross","PROVIDER STATE":"Washington","PROVIDER CITY":"Selah","PROVIDER  ADDRESS":"620 N Park Drive","PROVIDER ZIP 5 CD":98942,"PROVIDER ZIP 4 CD":1326,"PROVIDER PHONE NUM":5096975511,"PROVIDER PHONE EXT":"","PROGRAM YEAR":2011},"geometry":{"type":"Point","coordinates":[-120.520674,46.663043]}},{"type":"Feature","id":"5132dd82a288f42e6736291b","properties":{"_id":"5132dd82a288f42e6736291b","PROVIDER NPI":1326144908,"PROVIDER NAME":"Bettis, Robert","PROVIDER STATE":"Washington","PROVIDER CITY":"Edmonds","PROVIDER  ADDRESS":"7315 212th St SW, Suite 101","PROVIDER ZIP 5 CD":98026,"PROVIDER ZIP 4 CD":7610,"PROVIDER PHONE NUM":4257759474,"PROVIDER PHONE EXT":"","PROGRAM YEAR":2011},"geometry":{"type":"Point","coordinates":[-122.331422,47.806969]}},{"type":"Feature","id":"5132dd82a288f42e6736291c","properties":{"_id":"5132dd82a288f42e6736291c","PROVIDER NPI":1538131636,"PROVIDER NAME":"Beyersdorf, Steven","PROVIDER STATE":"Washington","PROVIDER CITY":"Spokane","PROVIDER  ADDRESS":"105 W 8th Ave, Ste 7010","PROVIDER ZIP 5 CD":99204,"PROVIDER ZIP 4 CD":2312,"PROVIDER PHONE NUM":5097476194,"PROVIDER PHONE EXT":"","PROGRAM YEAR":2011},"geometry":{"type":"Point","coordinates":[-117.413808,47.648306]}},{"type":"Feature","id":"5132dd82a288f42e6736291d","properties":{"_id":"5132dd82a288f42e6736291d","PROVIDER NPI":1609987163,"PROVIDER NAME":"Bhandari, Anuja","PROVIDER STATE":"Washington","PROVIDER CITY":"Everett","PROVIDER  ADDRESS":"3901 Hoyt Ave","PROVIDER ZIP 5 CD":98201,"PROVIDER ZIP 4 CD":4918,"PROVIDER PHONE NUM":4253395435,"PROVIDER PHONE EXT":"","PROGRAM YEAR":2011},"geometry":{"type":"Point","coordinates":[-122.209475,47.965962]}},{"type":"Feature","id":"5132dd82a288f42e6736291e","properties":{"_id":"5132dd82a288f42e6736291e","PROVIDER NPI":1427141944,"PROVIDER NAME":"Bikhazi, Paul","PROVIDER STATE":"Washington","PROVIDER CITY":"Everett","PROVIDER  ADDRESS":"3927 Rucker","PROVIDER ZIP 5 CD":98201,"PROVIDER ZIP 4 CD":"","PROVIDER PHONE NUM":4253395441,"PROVIDER PHONE EXT":"","PROGRAM YEAR":2011},"geometry":{"type":"Point","coordinates":[-122.210821,47.965594]}},{"type":"Feature","id":"5132dd82a288f42e6736291f","properties":{"_id":"5132dd82a288f42e6736291f","PROVIDER NPI":1164534350,"PROVIDER NAME":"Birchard, Keith","PROVIDER STATE":"Washington","PROVIDER CITY":"Centralia","PROVIDER  ADDRESS":"1900 Cooks Hill Rd","PROVIDER ZIP 5 CD":98531,"PROVIDER ZIP 4 CD":9073,"PROVIDER PHONE NUM":3607362886,"PROVIDER PHONE EXT":"","PROGRAM YEAR":2011},"geometry":{"type":"Point","coordinates":[-122.984491,46.71366]}},{"type":"Feature","id":"5132dd82a288f42e67362920","properties":{"_id":"5132dd82a288f42e67362920","PROVIDER NPI":1801845268,"PROVIDER NAME":"BIRNBAUM, JACK","PROVIDER STATE":"Washington","PROVIDER CITY":"Bremerton","PROVIDER  ADDRESS":"2512 Wheaton Way","PROVIDER ZIP 5 CD":98310,"PROVIDER ZIP 4 CD":3399,"PROVIDER PHONE NUM":3607823700,"PROVIDER PHONE EXT":"","PROGRAM YEAR":2011},"geometry":{"type":"Point","coordinates":[-122.626817,47.581742]}},{"type":"Feature","id":"5132dd82a288f42e67362921","properties":{"_id":"5132dd82a288f42e67362921","PROVIDER NPI":1144245168,"PROVIDER NAME":"Birse, Stewart","PROVIDER STATE":"Washington","PROVIDER CITY":"Tacoma","PROVIDER  ADDRESS":"315 Martin Luther King Jr Way","PROVIDER ZIP 5 CD":98405,"PROVIDER ZIP 4 CD":"","PROVIDER PHONE NUM":2534037726,"PROVIDER PHONE EXT":"","PROGRAM YEAR":2011},"geometry":{"type":"Point","coordinates":[-122.453495,47.2601]}},{"type":"Feature","id":"5132dd82a288f42e67362922","properties":{"_id":"5132dd82a288f42e67362922","PROVIDER NPI":1174575518,"PROVIDER NAME":"Bishop, Janice","PROVIDER STATE":"Washington","PROVIDER CITY":"Bellevue","PROVIDER  ADDRESS":"12917 SE 38th St.,, Ste. 100","PROVIDER ZIP 5 CD":98006,"PROVIDER ZIP 4 CD":1349,"PROVIDER PHONE NUM":4256414000,"PROVIDER PHONE EXT":"","PROGRAM YEAR":2011},"geometry":{"type":"Point","coordinates":[-122.168171,47.575975]}},{"type":"Feature","id":"5132dd82a288f42e67362923","properties":{"_id":"5132dd82a288f42e67362923","PROVIDER NPI":1578556833,"PROVIDER NAME":"black, elizabeth","PROVIDER STATE":"Washington","PROVIDER CITY":"Clarkston","PROVIDER  ADDRESS":"1271 Highland Avenue, Suite B","PROVIDER ZIP 5 CD":99403,"PROVIDER ZIP 4 CD":2844,"PROVIDER PHONE NUM":5097515500,"PROVIDER PHONE EXT":"","PROGRAM YEAR":2011},"geometry":{"type":"Point","coordinates":[-117.219054,46.423643]}},{"type":"Feature","id":"5132dd82a288f42e67362924","properties":{"_id":"5132dd82a288f42e67362924","PROVIDER NPI":1538137112,"PROVIDER NAME":"Black, Jeffrey","PROVIDER STATE":"Washington","PROVIDER CITY":"Stanwood","PROVIDER  ADDRESS":"7205 265th St NW","PROVIDER ZIP 5 CD":98292,"PROVIDER ZIP 4 CD":6221,"PROVIDER PHONE NUM":3606291505,"PROVIDER PHONE EXT":"","PROGRAM YEAR":2011},"geometry":{"type":"Point","coordinates":[-122.330304,48.237128]}},{"type":"Feature","id":"5132dd82a288f42e67362925","properties":{"_id":"5132dd82a288f42e67362925","PROVIDER NPI":1831167451,"PROVIDER NAME":"Blackwell, Jeffrey","PROVIDER STATE":"Washington","PROVIDER CITY":"Everett","PROVIDER  ADDRESS":"1818 121st St SE","PROVIDER ZIP 5 CD":98208,"PROVIDER ZIP 4 CD":5985,"PROVIDER PHONE NUM":4253573304,"PROVIDER PHONE EXT":"","PROGRAM YEAR":2011},"geometry":{"type":"Point","coordinates":[-122.20736,47.887585]}},{"type":"Feature","id":"5132dd82a288f42e67362926","properties":{"_id":"5132dd82a288f42e67362926","PROVIDER NPI":1063417186,"PROVIDER NAME":"Blessley, Mark","PROVIDER STATE":"Washington","PROVIDER CITY":"Vancouver","PROVIDER  ADDRESS":"3606 Main St, Ste 205","PROVIDER ZIP 5 CD":98663,"PROVIDER ZIP 4 CD":2257,"PROVIDER PHONE NUM":3606937781,"PROVIDER PHONE EXT":"","PROGRAM YEAR":2011},"geometry":{"type":"Point","coordinates":[-122.668245,45.647735]}},{"type":"Feature","id":"5132dd82a288f42e67362927","properties":{"_id":"5132dd82a288f42e67362927","PROVIDER NPI":1376628354,"PROVIDER NAME":"Block, Terence","PROVIDER STATE":"Washington","PROVIDER CITY":"Renton","PROVIDER  ADDRESS":"4011 Talbot Road South, Suite 500","PROVIDER ZIP 5 CD":98055,"PROVIDER ZIP 4 CD":"","PROVIDER PHONE NUM":4252515110,"PROVIDER PHONE EXT":3233,"PROGRAM YEAR":2011},"geometry":{"type":"Point","coordinates":[-122.211927,47.443106]}},{"type":"Feature","id":"5132dd82a288f42e67362928","properties":{"_id":"5132dd82a288f42e67362928","PROVIDER NPI":1538180666,"PROVIDER NAME":"Bocek, Nicola","PROVIDER STATE":"Washington","PROVIDER CITY":"Yakima","PROVIDER  ADDRESS":"504 N 40th Ave","PROVIDER ZIP 5 CD":98908,"PROVIDER ZIP 4 CD":4311,"PROVIDER PHONE NUM":5099669480,"PROVIDER PHONE EXT":"","PROGRAM YEAR":2011},"geometry":{"type":"Point","coordinates":[-120.562125,46.604707]}},{"type":"Feature","id":"5132dd82a288f42e67362929","properties":{"_id":"5132dd82a288f42e67362929","PROVIDER NPI":1396734901,"PROVIDER NAME":"Bodley, Don","PROVIDER STATE":"Washington","PROVIDER CITY":"Mount Vernon","PROVIDER  ADDRESS":"1401 S. LaVenture Road","PROVIDER ZIP 5 CD":98274,"PROVIDER ZIP 4 CD":6033,"PROVIDER PHONE NUM":3604242400,"PROVIDER PHONE EXT":"","PROGRAM YEAR":2011},"geometry":{"type":"Point","coordinates":[-122.313394,48.411903]}},{"type":"Feature","id":"5132dd82a288f42e6736292a","properties":{"_id":"5132dd82a288f42e6736292a","PROVIDER NPI":1831152750,"PROVIDER NAME":"Bolin, Rex","PROVIDER STATE":"Washington","PROVIDER CITY":"Olympia","PROVIDER  ADDRESS":"500 Lilly Rd NE,, Suite 201","PROVIDER ZIP 5 CD":98506,"PROVIDER ZIP 4 CD":5197,"PROVIDER PHONE NUM":3604138272,"PROVIDER PHONE EXT":"","PROGRAM YEAR":2011},"geometry":{"type":"Point","coordinates":[-122.844344,47.053689]}},{"type":"Feature","id":"5132dd82a288f42e6736292b","properties":{"_id":"5132dd82a288f42e6736292b","PROVIDER NPI":1447215967,"PROVIDER NAME":"Bommarito, James","PROVIDER STATE":"Washington","PROVIDER CITY":"Everett","PROVIDER  ADDRESS":"3901 Hoyt Ave","PROVIDER ZIP 5 CD":98201,"PROVIDER ZIP 4 CD":4918,"PROVIDER PHONE NUM":4252590966,"PROVIDER PHONE EXT":"","PROGRAM YEAR":2011},"geometry":{"type":"Point","coordinates":[-122.209475,47.965962]}},{"type":"Feature","id":"5132dd82a288f42e6736292c","properties":{"_id":"5132dd82a288f42e6736292c","PROVIDER NPI":1225113566,"PROVIDER NAME":"Bonsack, Bruce","PROVIDER STATE":"Washington","PROVIDER CITY":"Seattle","PROVIDER  ADDRESS":"3400 California Ave SW, Suite 300","PROVIDER ZIP 5 CD":98116,"PROVIDER ZIP 4 CD":3307,"PROVIDER PHONE NUM":2063203399,"PROVIDER PHONE EXT":"","PROGRAM YEAR":2011},"geometry":{"type":"Point","coordinates":[-122.383617,47.593859]}},{"type":"Feature","id":"5132dd82a288f42e6736292d","properties":{"_id":"5132dd82a288f42e6736292d","PROVIDER NPI":1528139359,"PROVIDER NAME":"Boonpongmanee, Somprak","PROVIDER STATE":"Washington","PROVIDER CITY":"Kennewick","PROVIDER  ADDRESS":"8819 W. Victoria Ave","PROVIDER ZIP 5 CD":99336,"PROVIDER ZIP 4 CD":"","PROVIDER PHONE NUM":5094605500,"PROVIDER PHONE EXT":"","PROGRAM YEAR":2011},"geometry":{"type":"Point","coordinates":[-119.223327,46.227806]}},{"type":"Feature","id":"5132dd82a288f42e6736292e","properties":{"_id":"5132dd82a288f42e6736292e","PROVIDER NPI":1295831873,"PROVIDER NAME":"Borg, Sandra","PROVIDER STATE":"Washington","PROVIDER CITY":"Edmonds","PROVIDER  ADDRESS":"7315 212th St SW, Suite 101","PROVIDER ZIP 5 CD":98026,"PROVIDER ZIP 4 CD":7610,"PROVIDER PHONE NUM":4257759474,"PROVIDER PHONE EXT":"","PROGRAM YEAR":2011},"geometry":{"type":"Point","coordinates":[-122.331422,47.806969]}},{"type":"Feature","id":"5132dd82a288f42e6736292f","properties":{"_id":"5132dd82a288f42e6736292f","PROVIDER NPI":1407819766,"PROVIDER NAME":"Bos, Gary","PROVIDER STATE":"Washington","PROVIDER CITY":"Yakima","PROVIDER  ADDRESS":"3003 Tieton Dr, Ste. 350","PROVIDER ZIP 5 CD":98902,"PROVIDER ZIP 4 CD":3679,"PROVIDER PHONE NUM":5095733989,"PROVIDER PHONE EXT":"","PROGRAM YEAR":2011},"geometry":{"type":"Point","coordinates":[-120.548722,46.592801]}},{"type":"Feature","id":"5132dd82a288f42e67362930","properties":{"_id":"5132dd82a288f42e67362930","PROVIDER NPI":1811912892,"PROVIDER NAME":"Bosak, Peter","PROVIDER STATE":"Washington","PROVIDER CITY":"Tacoma","PROVIDER  ADDRESS":"315 Martin Luther King Jr Way","PROVIDER ZIP 5 CD":98405,"PROVIDER ZIP 4 CD":"","PROVIDER PHONE NUM":2534037726,"PROVIDER PHONE EXT":"","PROGRAM YEAR":2011},"geometry":{"type":"Point","coordinates":[-122.453495,47.2601]}},{"type":"Feature","id":"5132dd82a288f42e67362931","properties":{"_id":"5132dd82a288f42e67362931","PROVIDER NPI":1699896167,"PROVIDER NAME":"Bouterse, Chad","PROVIDER STATE":"Washington","PROVIDER CITY":"Clarkston","PROVIDER  ADDRESS":"500 Port Dr","PROVIDER ZIP 5 CD":99403,"PROVIDER ZIP 4 CD":1835,"PROVIDER PHONE NUM":5097588811,"PROVIDER PHONE EXT":210,"PROGRAM YEAR":2011},"geometry":{"type":"Point","coordinates":[-117.04431,46.42293]}},{"type":"Feature","id":"5132dd82a288f42e67362932","properties":{"_id":"5132dd82a288f42e67362932","PROVIDER NPI":1962574004,"PROVIDER NAME":"Bowers, Cindy","PROVIDER STATE":"Washington","PROVIDER CITY":"Mill Creek","PROVIDER  ADDRESS":"15418 Main St Unit 200","PROVIDER ZIP 5 CD":98012,"PROVIDER ZIP 4 CD":9032,"PROVIDER PHONE NUM":4252258005,"PROVIDER PHONE EXT":"","PROGRAM YEAR":2011},"geometry":{"type":"Point","coordinates":[-122.220258,47.859184]}},{"type":"Feature","id":"5132dd82a288f42e67362933","properties":{"_id":"5132dd82a288f42e67362933","PROVIDER NPI":1659326973,"PROVIDER NAME":"Bowers, James","PROVIDER STATE":"Washington","PROVIDER CITY":"Seattle","PROVIDER  ADDRESS":"1536 N 115th St, Suite 125","PROVIDER ZIP 5 CD":98133,"PROVIDER ZIP 4 CD":8400,"PROVIDER PHONE NUM":2063683090,"PROVIDER PHONE EXT":"","PROGRAM YEAR":2011},"geometry":{"type":"Point","coordinates":[-122.339302,47.712378]}},{"type":"Feature","id":"5132dd82a288f42e67362934","properties":{"_id":"5132dd82a288f42e67362934","PROVIDER NPI":1144339276,"PROVIDER NAME":"BRADLEY, DEWAYNE","PROVIDER STATE":"Washington","PROVIDER CITY":"Seattle","PROVIDER  ADDRESS":"1145 Broadway","PROVIDER ZIP 5 CD":98122,"PROVIDER ZIP 4 CD":4201,"PROVIDER PHONE NUM":2068602242,"PROVIDER PHONE EXT":"","PROGRAM YEAR":2011},"geometry":{"type":"Point","coordinates":[-122.319939,47.612258]}},{"type":"Feature","id":"5132dd82a288f42e67362935","properties":{"_id":"5132dd82a288f42e67362935","PROVIDER NPI":1376515015,"PROVIDER NAME":"BRADLEY, EMILY","PROVIDER STATE":"Washington","PROVIDER CITY":"Seattle","PROVIDER  ADDRESS":"11011 Meridian Ave N, Suite 200","PROVIDER ZIP 5 CD":98133,"PROVIDER ZIP 4 CD":8967,"PROVIDER PHONE NUM":2065255777,"PROVIDER PHONE EXT":"","PROGRAM YEAR":2011},"geometry":{"type":"Point","coordinates":[-122.334438,47.763269]}},{"type":"Feature","id":"5132dd82a288f42e67362936","properties":{"_id":"5132dd82a288f42e67362936","PROVIDER NPI":1528058658,"PROVIDER NAME":"Brar, Harpreet","PROVIDER STATE":"Washington","PROVIDER CITY":"Olympia","PROVIDER  ADDRESS":"500 Lilly Rd NE, Suite 204","PROVIDER ZIP 5 CD":98506,"PROVIDER ZIP 4 CD":5195,"PROVIDER PHONE NUM":3604138191,"PROVIDER PHONE EXT":"","PROGRAM YEAR":2011},"geometry":{"type":"Point","coordinates":[-122.844344,47.053689]}},{"type":"Feature","id":"5132dd82a288f42e67362937","properties":{"_id":"5132dd82a288f42e67362937","PROVIDER NPI":1194746131,"PROVIDER NAME":"Brazg, Ronald","PROVIDER STATE":"Washington","PROVIDER CITY":"Renton","PROVIDER  ADDRESS":"723 SW 10th St, Ste 250","PROVIDER ZIP 5 CD":98057,"PROVIDER ZIP 4 CD":5223,"PROVIDER PHONE NUM":4256564040,"PROVIDER PHONE EXT":"","PROGRAM YEAR":2011},"geometry":{"type":"Point","coordinates":[-122.200503,47.471188]}},{"type":"Feature","id":"5132dd82a288f42e67362938","properties":{"_id":"5132dd82a288f42e67362938","PROVIDER NPI":1619049228,"PROVIDER NAME":"Breazeal, Larry","PROVIDER STATE":"Washington","PROVIDER CITY":"Spokane Valley","PROVIDER  ADDRESS":"509 N Sullivan Rd Ste G","PROVIDER ZIP 5 CD":99037,"PROVIDER ZIP 4 CD":8566,"PROVIDER PHONE NUM":5099222400,"PROVIDER PHONE EXT":"","PROGRAM YEAR":2011},"geometry":{"type":"Point","coordinates":[-117.196539,47.651942]}},{"type":"Feature","id":"5132dd82a288f42e67362939","properties":{"_id":"5132dd82a288f42e67362939","PROVIDER NPI":1487655858,"PROVIDER NAME":"Brennan, William","PROVIDER STATE":"Washington","PROVIDER CITY":"Olympia","PROVIDER  ADDRESS":"500 Lilly Rd NE, Ste 100","PROVIDER ZIP 5 CD":98506,"PROVIDER ZIP 4 CD":5195,"PROVIDER PHONE NUM":3604138525,"PROVIDER PHONE EXT":"","PROGRAM YEAR":2011},"geometry":{"type":"Point","coordinates":[-122.844344,47.053689]}},{"type":"Feature","id":"5132dd82a288f42e6736293a","properties":{"_id":"5132dd82a288f42e6736293a","PROVIDER NPI":1811963424,"PROVIDER NAME":"Bridges, Ann","PROVIDER STATE":"Washington","PROVIDER CITY":"Seattle","PROVIDER  ADDRESS":"1229 Madison St, Suite 1600","PROVIDER ZIP 5 CD":98104,"PROVIDER ZIP 4 CD":3586,"PROVIDER PHONE NUM":2068604541,"PROVIDER PHONE EXT":"","PROGRAM YEAR":2011},"geometry":{"type":"Point","coordinates":[-122.323777,47.60987]}},{"type":"Feature","id":"5132dd82a288f42e6736293b","properties":{"_id":"5132dd82a288f42e6736293b","PROVIDER NPI":1457591166,"PROVIDER NAME":"Brittain, Shawn","PROVIDER STATE":"Washington","PROVIDER CITY":"Vancouver","PROVIDER  ADDRESS":"7017 NE Hwy 99, Ste 202","PROVIDER ZIP 5 CD":98665,"PROVIDER ZIP 4 CD":"","PROVIDER PHONE NUM":3606940760,"PROVIDER PHONE EXT":"","PROGRAM YEAR":2011},"geometry":{"type":"Point","coordinates":[-122.663013,45.673204]}},{"type":"Feature","id":"5132dd82a288f42e6736293c","properties":{"_id":"5132dd82a288f42e6736293c","PROVIDER NPI":1174529804,"PROVIDER NAME":"Broberg, Mark","PROVIDER STATE":"Washington","PROVIDER CITY":"Wenatchee","PROVIDER  ADDRESS":"520 N Chelan Ave, Central Washington Hospital Wenatchee Orthopaedics","PROVIDER ZIP 5 CD":98801,"PROVIDER ZIP 4 CD":6697,"PROVIDER PHONE NUM":5096622211,"PROVIDER PHONE EXT":"","PROGRAM YEAR":2011},"geometry":{"type":"Point","coordinates":[-120.319059,47.429991]}},{"type":"Feature","id":"5132dd82a288f42e6736293d","properties":{"_id":"5132dd82a288f42e6736293d","PROVIDER NPI":1518935402,"PROVIDER NAME":"Bross, Gerald","PROVIDER STATE":"Washington","PROVIDER CITY":"Mukilteo","PROVIDER  ADDRESS":"4410 106th St SW","PROVIDER ZIP 5 CD":98275,"PROVIDER ZIP 4 CD":4700,"PROVIDER PHONE NUM":4254936013,"PROVIDER PHONE EXT":"","PROGRAM YEAR":2011},"geometry":{"type":"Point","coordinates":[-122.293053,47.902221]}},{"type":"Feature","id":"5132dd82a288f42e6736293e","properties":{"_id":"5132dd82a288f42e6736293e","PROVIDER NPI":1972566818,"PROVIDER NAME":"BROTTEM, JOHN","PROVIDER STATE":"Washington","PROVIDER CITY":"Olympia","PROVIDER  ADDRESS":"500 Lilly Rd NE, Suite 201","PROVIDER ZIP 5 CD":98506,"PROVIDER ZIP 4 CD":5197,"PROVIDER PHONE NUM":3604138272,"PROVIDER PHONE EXT":"","PROGRAM YEAR":2011},"geometry":{"type":"Point","coordinates":[-122.844344,47.053689]}},{"type":"Feature","id":"5132dd82a288f42e6736293f","properties":{"_id":"5132dd82a288f42e6736293f","PROVIDER NPI":1922055300,"PROVIDER NAME":"Brown, Barron","PROVIDER STATE":"Washington","PROVIDER CITY":"Marysville","PROVIDER  ADDRESS":"4420 76th St NE","PROVIDER ZIP 5 CD":98270,"PROVIDER ZIP 4 CD":3726,"PROVIDER PHONE NUM":4252590966,"PROVIDER PHONE EXT":"","PROGRAM YEAR":2011},"geometry":{"type":"Point","coordinates":[-122.171449,48.064774]}},{"type":"Feature","id":"5132dd82a288f42e67362940","properties":{"_id":"5132dd82a288f42e67362940","PROVIDER NPI":1043203771,"PROVIDER NAME":"Brown, Daniel","PROVIDER STATE":"Washington","PROVIDER CITY":"Olympia","PROVIDER  ADDRESS":"402 Black Hills Ln SW, Suite A","PROVIDER ZIP 5 CD":98502,"PROVIDER ZIP 4 CD":8145,"PROVIDER PHONE NUM":3609439400,"PROVIDER PHONE EXT":"","PROGRAM YEAR":2011},"geometry":{"type":"Point","coordinates":[-122.949891,47.046314]}},{"type":"Feature","id":"5132dd82a288f42e67362941","properties":{"_id":"5132dd82a288f42e67362941","PROVIDER NPI":1952377335,"PROVIDER NAME":"Brown, Katherine","PROVIDER STATE":"Washington","PROVIDER CITY":"Seattle","PROVIDER  ADDRESS":"509 Olive Way, Suite 900","PROVIDER ZIP 5 CD":98101,"PROVIDER ZIP 4 CD":1720,"PROVIDER PHONE NUM":2068604700,"PROVIDER PHONE EXT":"","PROGRAM YEAR":2011},"geometry":{"type":"Point","coordinates":[-122.337264,47.612651]}},{"type":"Feature","id":"5132dd82a288f42e67362942","properties":{"_id":"5132dd82a288f42e67362942","PROVIDER NPI":1083628499,"PROVIDER NAME":"Brown, Lori","PROVIDER STATE":"Washington","PROVIDER CITY":"Walla Walla","PROVIDER  ADDRESS":"380 Chase St","PROVIDER ZIP 5 CD":99362,"PROVIDER ZIP 4 CD":"","PROVIDER PHONE NUM":5095258110,"PROVIDER PHONE EXT":"","PROGRAM YEAR":2011},"geometry":{"type":"Point","coordinates":[-118.340571,46.0602]}},{"type":"Feature","id":"5132dd82a288f42e67362943","properties":{"_id":"5132dd82a288f42e67362943","PROVIDER NPI":1164548244,"PROVIDER NAME":"Brown, Michael","PROVIDER STATE":"Washington","PROVIDER CITY":"Des Moines","PROVIDER  ADDRESS":"22024 Marine View Dr S, Ste 100","PROVIDER ZIP 5 CD":98198,"PROVIDER ZIP 4 CD":6220,"PROVIDER PHONE NUM":2068788600,"PROVIDER PHONE EXT":"","PROGRAM YEAR":2011},"geometry":{"type":"Point","coordinates":[-122.323183,47.383071]}},{"type":"Feature","id":"5132dd82a288f42e67362944","properties":{"_id":"5132dd82a288f42e67362944","PROVIDER NPI":1780608679,"PROVIDER NAME":"Brown, Timothy","PROVIDER STATE":"Washington","PROVIDER CITY":"Yakima","PROVIDER  ADDRESS":"3909 Creekside Loop, Suite 130","PROVIDER ZIP 5 CD":98902,"PROVIDER ZIP 4 CD":4880,"PROVIDER PHONE NUM":5092486616,"PROVIDER PHONE EXT":"","PROGRAM YEAR":2011},"geometry":{"type":"Point","coordinates":[-120.533851,46.596673]}},{"type":"Feature","id":"5132dd82a288f42e67362945","properties":{"_id":"5132dd82a288f42e67362945","PROVIDER NPI":1700883337,"PROVIDER NAME":"Brownlee, Richard","PROVIDER STATE":"Washington","PROVIDER CITY":"Wenatchee","PROVIDER  ADDRESS":"520 N Chelan Ave, Central Washington Hospital Wenatchee Orthopaedics","PROVIDER ZIP 5 CD":98801,"PROVIDER ZIP 4 CD":6697,"PROVIDER PHONE NUM":5096622211,"PROVIDER PHONE EXT":"","PROGRAM YEAR":2011},"geometry":{"type":"Point","coordinates":[-120.319059,47.429991]}},{"type":"Feature","id":"5132dd82a288f42e67362946","properties":{"_id":"5132dd82a288f42e67362946","PROVIDER NPI":1194791624,"PROVIDER NAME":"Brunsvold, Nancy","PROVIDER STATE":"Washington","PROVIDER CITY":"Seattle","PROVIDER  ADDRESS":"1145 Broadway","PROVIDER ZIP 5 CD":98122,"PROVIDER ZIP 4 CD":4201,"PROVIDER PHONE NUM":2063291760,"PROVIDER PHONE EXT":"","PROGRAM YEAR":2011},"geometry":{"type":"Point","coordinates":[-122.319939,47.612258]}},{"type":"Feature","id":"5132dd82a288f42e67362947","properties":{"_id":"5132dd82a288f42e67362947","PROVIDER NPI":1265408488,"PROVIDER NAME":"Bryant, Carrie","PROVIDER STATE":"Washington","PROVIDER CITY":"Marysville","PROVIDER  ADDRESS":"4420 76th St NE","PROVIDER ZIP 5 CD":98270,"PROVIDER ZIP 4 CD":3726,"PROVIDER PHONE NUM":3606517491,"PROVIDER PHONE EXT":"","PROGRAM YEAR":2011},"geometry":{"type":"Point","coordinates":[-122.171449,48.064774]}},{"type":"Feature","id":"5132dd82a288f42e67362948","properties":{"_id":"5132dd82a288f42e67362948","PROVIDER NPI":1518906676,"PROVIDER NAME":"BRYANT, LAMAR","PROVIDER STATE":"Washington","PROVIDER CITY":"Vancouver","PROVIDER  ADDRESS":"2525 NE 139th St","PROVIDER ZIP 5 CD":98686,"PROVIDER ZIP 4 CD":"","PROVIDER PHONE NUM":3608822778,"PROVIDER PHONE EXT":"","PROGRAM YEAR":2011},"geometry":{"type":"Point","coordinates":[-122.644641,45.721795]}},{"type":"Feature","id":"5132dd82a288f42e67362949","properties":{"_id":"5132dd82a288f42e67362949","PROVIDER NPI":1760432868,"PROVIDER NAME":"Bunn, Jeffrey","PROVIDER STATE":"Washington","PROVIDER CITY":"Spokane","PROVIDER  ADDRESS":"217 W Cataldo","PROVIDER ZIP 5 CD":99201,"PROVIDER ZIP 4 CD":2217,"PROVIDER PHONE NUM":5096242326,"PROVIDER PHONE EXT":"","PROGRAM YEAR":2011},"geometry":{"type":"Point","coordinates":[-117.416344,47.66607]}},{"type":"Feature","id":"5132dd82a288f42e6736294a","properties":{"_id":"5132dd82a288f42e6736294a","PROVIDER NPI":1497704381,"PROVIDER NAME":"BUNO, IRENE","PROVIDER STATE":"Washington","PROVIDER CITY":"Silverdale","PROVIDER  ADDRESS":"2011 NW Myhre Pl","PROVIDER ZIP 5 CD":98383,"PROVIDER ZIP 4 CD":8561,"PROVIDER PHONE NUM":3608301600,"PROVIDER PHONE EXT":"","PROGRAM YEAR":2011},"geometry":{"type":"Point","coordinates":[-122.676854,47.65104]}},{"type":"Feature","id":"5132dd82a288f42e6736294b","properties":{"_id":"5132dd82a288f42e6736294b","PROVIDER NPI":1699730051,"PROVIDER NAME":"Buono, Grace","PROVIDER STATE":"Washington","PROVIDER CITY":"Everett","PROVIDER  ADDRESS":"3901 Hoyt Ave","PROVIDER ZIP 5 CD":98201,"PROVIDER ZIP 4 CD":4918,"PROVIDER PHONE NUM":4253395411,"PROVIDER PHONE EXT":"","PROGRAM YEAR":2011},"geometry":{"type":"Point","coordinates":[-122.209475,47.965962]}},{"type":"Feature","id":"5132dd82a288f42e6736294c","properties":{"_id":"5132dd82a288f42e6736294c","PROVIDER NPI":1689698235,"PROVIDER NAME":"Burden, Anthony","PROVIDER STATE":"Washington","PROVIDER CITY":"Bellingham","PROVIDER  ADDRESS":"1345 King St","PROVIDER ZIP 5 CD":98229,"PROVIDER ZIP 4 CD":6223,"PROVIDER PHONE NUM":3606761696,"PROVIDER PHONE EXT":"","PROGRAM YEAR":2011},"geometry":{"type":"Point","coordinates":[-122.463887,48.745732]}},{"type":"Feature","id":"5132dd82a288f42e6736294d","properties":{"_id":"5132dd82a288f42e6736294d","PROVIDER NPI":1861507584,"PROVIDER NAME":"Busch, Joshua","PROVIDER STATE":"Washington","PROVIDER CITY":"Renton","PROVIDER  ADDRESS":"4011 Talbot Rd S, Suite 500","PROVIDER ZIP 5 CD":98055,"PROVIDER ZIP 4 CD":5773,"PROVIDER PHONE NUM":4252515110,"PROVIDER PHONE EXT":3231,"PROGRAM YEAR":2011},"geometry":{"type":"Point","coordinates":[-122.211927,47.443106]}},{"type":"Feature","id":"5132dd82a288f42e6736294e","properties":{"_id":"5132dd82a288f42e6736294e","PROVIDER NPI":1437191889,"PROVIDER NAME":"Busch, Naomi","PROVIDER STATE":"Washington","PROVIDER CITY":"Seattle","PROVIDER  ADDRESS":"6800 E. Green Lake Way N, STE 200","PROVIDER ZIP 5 CD":98115,"PROVIDER ZIP 4 CD":"","PROVIDER PHONE NUM":2065245656,"PROVIDER PHONE EXT":"","PROGRAM YEAR":2011},"geometry":{"type":"Point","coordinates":[-122.326266,47.678902]}},{"type":"Feature","id":"5132dd82a288f42e6736294f","properties":{"_id":"5132dd82a288f42e6736294f","PROVIDER NPI":1700956620,"PROVIDER NAME":"Butler, Jeffrey","PROVIDER STATE":"Washington","PROVIDER CITY":"SPOKANE","PROVIDER  ADDRESS":"105 W 8TH AVE, STE 6080","PROVIDER ZIP 5 CD":99204,"PROVIDER ZIP 4 CD":2313,"PROVIDER PHONE NUM":5098386500,"PROVIDER PHONE EXT":"","PROGRAM YEAR":2011},"geometry":{"type":"Point","coordinates":[-117.413808,47.648306]}},{"type":"Feature","id":"5132dd82a288f42e67362950","properties":{"_id":"5132dd82a288f42e67362950","PROVIDER NPI":1982867339,"PROVIDER NAME":"Cabodi, Jessica","PROVIDER STATE":"Washington","PROVIDER CITY":"Seattle","PROVIDER  ADDRESS":"3216 NE 45th Pl, Suite 200","PROVIDER ZIP 5 CD":98105,"PROVIDER ZIP 4 CD":4093,"PROVIDER PHONE NUM":2063291760,"PROVIDER PHONE EXT":"","PROGRAM YEAR":2011},"geometry":{"type":"Point","coordinates":[-122.292748,47.6614]}},{"type":"Feature","id":"5132dd82a288f42e67362951","properties":{"_id":"5132dd82a288f42e67362951","PROVIDER NPI":1033146261,"PROVIDER NAME":"CAMDEN, ALISSA","PROVIDER STATE":"Washington","PROVIDER CITY":"Wenatchee","PROVIDER  ADDRESS":"933 Red Apple Rd, Ste. D, Central Washington Hospital Women's Healthcare","PROVIDER ZIP 5 CD":98801,"PROVIDER ZIP 4 CD":3370,"PROVIDER PHONE NUM":5096656125,"PROVIDER PHONE EXT":"","PROGRAM YEAR":2011},"geometry":{"type":"Point","coordinates":[-120.322398,47.407965]}},{"type":"Feature","id":"5132dd82a288f42e67362952","properties":{"_id":"5132dd82a288f42e67362952","PROVIDER NPI":1326093774,"PROVIDER NAME":"Cannan, Charles","PROVIDER STATE":"Washington","PROVIDER CITY":"Vancouver","PROVIDER  ADDRESS":"700 NE 87th Ave","PROVIDER ZIP 5 CD":98664,"PROVIDER ZIP 4 CD":1913,"PROVIDER PHONE NUM":3608822778,"PROVIDER PHONE EXT":"","PROGRAM YEAR":2011},"geometry":{"type":"Point","coordinates":[-122.583724,45.627374]}},{"type":"Feature","id":"5132dd82a288f42e67362953","properties":{"_id":"5132dd82a288f42e67362953","PROVIDER NPI":1013012608,"PROVIDER NAME":"Cannon, Christopher","PROVIDER STATE":"Washington","PROVIDER CITY":"Seattle","PROVIDER  ADDRESS":"1145 Broadway","PROVIDER ZIP 5 CD":98122,"PROVIDER ZIP 4 CD":4201,"PROVIDER PHONE NUM":2063291760,"PROVIDER PHONE EXT":"","PROGRAM YEAR":2011},"geometry":{"type":"Point","coordinates":[-122.319939,47.612258]}},{"type":"Feature","id":"5132dd82a288f42e67362954","properties":{"_id":"5132dd82a288f42e67362954","PROVIDER NPI":1023049244,"PROVIDER NAME":"Cantini, Evan","PROVIDER STATE":"Washington","PROVIDER CITY":"Seattle","PROVIDER  ADDRESS":"1530 N 115th St, Suite 305","PROVIDER ZIP 5 CD":98133,"PROVIDER ZIP 4 CD":8411,"PROVIDER PHONE NUM":2063622464,"PROVIDER PHONE EXT":"","PROGRAM YEAR":2011},"geometry":{"type":"Point","coordinates":[-122.339388,47.712378]}},{"type":"Feature","id":"5132dd82a288f42e67362955","properties":{"_id":"5132dd82a288f42e67362955","PROVIDER NPI":1386632487,"PROVIDER NAME":"Canto, Ramon","PROVIDER STATE":"Washington","PROVIDER CITY":"Colville","PROVIDER  ADDRESS":"143 Garden Homes Dr","PROVIDER ZIP 5 CD":99114,"PROVIDER ZIP 4 CD":9229,"PROVIDER PHONE NUM":5096843701,"PROVIDER PHONE EXT":"","PROGRAM YEAR":2011},"geometry":{"type":"Point","coordinates":[-117.884409,48.532979]}},{"type":"Feature","id":"5132dd82a288f42e67362956","properties":{"_id":"5132dd82a288f42e67362956","PROVIDER NPI":1427161744,"PROVIDER NAME":"Capp, Philip","PROVIDER STATE":"Washington","PROVIDER CITY":"Seattle","PROVIDER  ADDRESS":"1600 E Jefferson St, Suite 510","PROVIDER ZIP 5 CD":98122,"PROVIDER ZIP 4 CD":5698,"PROVIDER PHONE NUM":2063204888,"PROVIDER PHONE EXT":"","PROGRAM YEAR":2011},"geometry":{"type":"Point","coordinates":[-122.311556,47.606178]}},{"type":"Feature","id":"5132dd82a288f42e67362957","properties":{"_id":"5132dd82a288f42e67362957","PROVIDER NPI":1366548943,"PROVIDER NAME":"Carey, Ross","PROVIDER STATE":"Washington","PROVIDER CITY":"Edmonds","PROVIDER  ADDRESS":"7315 212th St SW, Suite 101","PROVIDER ZIP 5 CD":98026,"PROVIDER ZIP 4 CD":7610,"PROVIDER PHONE NUM":4257759474,"PROVIDER PHONE EXT":"","PROGRAM YEAR":2011},"geometry":{"type":"Point","coordinates":[-122.331422,47.806969]}},{"type":"Feature","id":"5132dd82a288f42e67362958","properties":{"_id":"5132dd82a288f42e67362958","PROVIDER NPI":1326016825,"PROVIDER NAME":"Carlson, Mark","PROVIDER STATE":"Washington","PROVIDER CITY":"Mukilteo","PROVIDER  ADDRESS":"4410 106th St SW","PROVIDER ZIP 5 CD":98275,"PROVIDER ZIP 4 CD":4700,"PROVIDER PHONE NUM":4254936004,"PROVIDER PHONE EXT":"","PROGRAM YEAR":2011},"geometry":{"type":"Point","coordinates":[-122.293053,47.902221]}},{"type":"Feature","id":"5132dd82a288f42e67362959","properties":{"_id":"5132dd82a288f42e67362959","PROVIDER NPI":1932149176,"PROVIDER NAME":"Carlson, Molly","PROVIDER STATE":"Washington","PROVIDER CITY":"Seattle","PROVIDER  ADDRESS":"509 Olive Way, Suite 900","PROVIDER ZIP 5 CD":98101,"PROVIDER ZIP 4 CD":1720,"PROVIDER PHONE NUM":2068604700,"PROVIDER PHONE EXT":"","PROGRAM YEAR":2011},"geometry":{"type":"Point","coordinates":[-122.337264,47.612651]}},{"type":"Feature","id":"5132dd82a288f42e6736295a","properties":{"_id":"5132dd82a288f42e6736295a","PROVIDER NPI":1366415648,"PROVIDER NAME":"Carlton, Bruce","PROVIDER STATE":"Washington","PROVIDER CITY":"Poulsbo","PROVIDER  ADDRESS":"22180 Olympic College Way, Suite 102","PROVIDER ZIP 5 CD":98370,"PROVIDER ZIP 4 CD":0,"PROVIDER PHONE NUM":3607794444,"PROVIDER PHONE EXT":"","PROGRAM YEAR":2011},"geometry":{"type":"Point","coordinates":[-122.648194,47.748017]}},{"type":"Feature","id":"5132dd82a288f42e6736295b","properties":{"_id":"5132dd82a288f42e6736295b","PROVIDER NPI":1881668887,"PROVIDER NAME":"Carmody, Robert","PROVIDER STATE":"Washington","PROVIDER CITY":"Walla Walla","PROVIDER  ADDRESS":"55 W Tietan St","PROVIDER ZIP 5 CD":99362,"PROVIDER ZIP 4 CD":4445,"PROVIDER PHONE NUM":5095253720,"PROVIDER PHONE EXT":"","PROGRAM YEAR":2011},"geometry":{"type":"Point","coordinates":[-118.330911,46.049384]}},{"type":"Feature","id":"5132dd82a288f42e6736295c","properties":{"_id":"5132dd82a288f42e6736295c","PROVIDER NPI":1083682603,"PROVIDER NAME":"Carter, Alan","PROVIDER STATE":"Washington","PROVIDER CITY":"Everett","PROVIDER  ADDRESS":"1818 121st St SE","PROVIDER ZIP 5 CD":98208,"PROVIDER ZIP 4 CD":5985,"PROVIDER PHONE NUM":4253573304,"PROVIDER PHONE EXT":"","PROGRAM YEAR":2011},"geometry":{"type":"Point","coordinates":[-122.20736,47.887585]}},{"type":"Feature","id":"5132dd82a288f42e6736295d","properties":{"_id":"5132dd82a288f42e6736295d","PROVIDER NPI":1316043904,"PROVIDER NAME":"Carter, Stephen","PROVIDER STATE":"Washington","PROVIDER CITY":"Edmonds","PROVIDER  ADDRESS":"7315 212th St SW, Suite 101","PROVIDER ZIP 5 CD":98026,"PROVIDER ZIP 4 CD":7610,"PROVIDER PHONE NUM":4257759474,"PROVIDER PHONE EXT":"","PROGRAM YEAR":2011},"geometry":{"type":"Point","coordinates":[-122.331422,47.806969]}},{"type":"Feature","id":"5132dd82a288f42e6736295e","properties":{"_id":"5132dd82a288f42e6736295e","PROVIDER NPI":1144275595,"PROVIDER NAME":"CASIMO, MATTHEW","PROVIDER STATE":"Washington","PROVIDER CITY":"Vancouver","PROVIDER  ADDRESS":"700 NE 87th Ave","PROVIDER ZIP 5 CD":98664,"PROVIDER ZIP 4 CD":1913,"PROVIDER PHONE NUM":3608822778,"PROVIDER PHONE EXT":"","PROGRAM YEAR":2011},"geometry":{"type":"Point","coordinates":[-122.583724,45.627374]}},{"type":"Feature","id":"5132dd82a288f42e6736295f","properties":{"_id":"5132dd82a288f42e6736295f","PROVIDER NPI":1063480655,"PROVIDER NAME":"CASTERELLA, PETER","PROVIDER STATE":"Washington","PROVIDER CITY":"Seattle","PROVIDER  ADDRESS":"550 17th Ave, Suite 580","PROVIDER ZIP 5 CD":98122,"PROVIDER ZIP 4 CD":5698,"PROVIDER PHONE NUM":2063205391,"PROVIDER PHONE EXT":"","PROGRAM YEAR":2011},"geometry":{"type":"Point","coordinates":[-122.310168,47.606592]}},{"type":"Feature","id":"5132dd82a288f42e67362960","properties":{"_id":"5132dd82a288f42e67362960","PROVIDER NPI":1730231127,"PROVIDER NAME":"Cates, Edward","PROVIDER STATE":"Washington","PROVIDER CITY":"Lacey","PROVIDER  ADDRESS":"5130 Corporate Center Ct SE","PROVIDER ZIP 5 CD":98503,"PROVIDER ZIP 4 CD":5957,"PROVIDER PHONE NUM":3604138600,"PROVIDER PHONE EXT":8231,"PROGRAM YEAR":2011},"geometry":{"type":"Point","coordinates":[-122.824463,47.001225]}},{"type":"Feature","id":"5132dd82a288f42e67362961","properties":{"_id":"5132dd82a288f42e67362961","PROVIDER NPI":1932101060,"PROVIDER NAME":"Chae, Kyung Ai","PROVIDER STATE":"Washington","PROVIDER CITY":"Mill Creek","PROVIDER  ADDRESS":"15906 Mill Creek Blvd, Suite 105","PROVIDER ZIP 5 CD":98012,"PROVIDER ZIP 4 CD":1797,"PROVIDER PHONE NUM":4253852009,"PROVIDER PHONE EXT":"","PROGRAM YEAR":2011},"geometry":{"type":"Point","coordinates":[-122.214567,47.85791]}},{"type":"Feature","id":"5132dd82a288f42e67362962","properties":{"_id":"5132dd82a288f42e67362962","PROVIDER NPI":1740236306,"PROVIDER NAME":"Chalaka, Sridar","PROVIDER STATE":"Washington","PROVIDER CITY":"Everett","PROVIDER  ADDRESS":"3901 Hoyt Ave","PROVIDER ZIP 5 CD":98201,"PROVIDER ZIP 4 CD":4918,"PROVIDER PHONE NUM":4253395410,"PROVIDER PHONE EXT":"","PROGRAM YEAR":2011},"geometry":{"type":"Point","coordinates":[-122.209475,47.965962]}},{"type":"Feature","id":"5132dd82a288f42e67362963","properties":{"_id":"5132dd82a288f42e67362963","PROVIDER NPI":1972591873,"PROVIDER NAME":"Chan, Christopher","PROVIDER STATE":"Washington","PROVIDER CITY":"Seattle","PROVIDER  ADDRESS":"1600 E. Jefferson St, Suite 510","PROVIDER ZIP 5 CD":98122,"PROVIDER ZIP 4 CD":5698,"PROVIDER PHONE NUM":4258145080,"PROVIDER PHONE EXT":"","PROGRAM YEAR":2011},"geometry":{"type":"Point","coordinates":[-122.311556,47.606178]}},{"type":"Feature","id":"5132dd82a288f42e67362964","properties":{"_id":"5132dd82a288f42e67362964","PROVIDER NPI":1740364462,"PROVIDER NAME":"Chan, Clara","PROVIDER STATE":"Washington","PROVIDER CITY":"Seattle","PROVIDER  ADDRESS":"2211 Queen Anne Ave N","PROVIDER ZIP 5 CD":98109,"PROVIDER ZIP 4 CD":2367,"PROVIDER PHONE NUM":2068618500,"PROVIDER PHONE EXT":"","PROGRAM YEAR":2011},"geometry":{"type":"Point","coordinates":[-122.357003,47.638442]}},{"type":"Feature","id":"5132dd82a288f42e67362965","properties":{"_id":"5132dd82a288f42e67362965","PROVIDER NPI":1194832592,"PROVIDER NAME":"Chan, Vincent","PROVIDER STATE":"Washington","PROVIDER CITY":"Seattle","PROVIDER  ADDRESS":"600 Broadway Ave., Ste. 200","PROVIDER ZIP 5 CD":98122,"PROVIDER ZIP 4 CD":"","PROVIDER PHONE NUM":2062151770,"PROVIDER PHONE EXT":"","PROGRAM YEAR":2011},"geometry":{"type":"Point","coordinates":[-122.320754,47.607217]}},{"type":"Feature","id":"5132dd82a288f42e67362966","properties":{"_id":"5132dd82a288f42e67362966","PROVIDER NPI":1295819910,"PROVIDER NAME":"Chandra, Arti","PROVIDER STATE":"Washington","PROVIDER CITY":"Seattle","PROVIDER  ADDRESS":"1600 E Jefferson St, Suite 510","PROVIDER ZIP 5 CD":98122,"PROVIDER ZIP 4 CD":5698,"PROVIDER PHONE NUM":2063204888,"PROVIDER PHONE EXT":"","PROGRAM YEAR":2011},"geometry":{"type":"Point","coordinates":[-122.311556,47.606178]}},{"type":"Feature","id":"5132dd82a288f42e67362967","properties":{"_id":"5132dd82a288f42e67362967","PROVIDER NPI":1720003114,"PROVIDER NAME":"Chang, David","PROVIDER STATE":"Washington","PROVIDER CITY":"Tacoma","PROVIDER  ADDRESS":"315 Martin Luther King Jr Way","PROVIDER ZIP 5 CD":98405,"PROVIDER ZIP 4 CD":"","PROVIDER PHONE NUM":2534037726,"PROVIDER PHONE EXT":"","PROGRAM YEAR":2011},"geometry":{"type":"Point","coordinates":[-122.453495,47.2601]}},{"type":"Feature","id":"5132dd82a288f42e67362968","properties":{"_id":"5132dd82a288f42e67362968","PROVIDER NPI":1487678769,"PROVIDER NAME":"Chang, David","PROVIDER STATE":"Washington","PROVIDER CITY":"Seattle","PROVIDER  ADDRESS":"1001 Broadway, Suite 215","PROVIDER ZIP 5 CD":98122,"PROVIDER ZIP 4 CD":4397,"PROVIDER PHONE NUM":2068602365,"PROVIDER PHONE EXT":"","PROGRAM YEAR":2011},"geometry":{"type":"Point","coordinates":[-122.319868,47.61154]}},{"type":"Feature","id":"5132dd82a288f42e67362969","properties":{"_id":"5132dd82a288f42e67362969","PROVIDER NPI":1023102118,"PROVIDER NAME":"Chang, Henry","PROVIDER STATE":"Washington","PROVIDER CITY":"Edmonds","PROVIDER  ADDRESS":"21616 76th Ave W, Suite 112","PROVIDER ZIP 5 CD":98026,"PROVIDER ZIP 4 CD":7512,"PROVIDER PHONE NUM":4257756651,"PROVIDER PHONE EXT":"","PROGRAM YEAR":2011},"geometry":{"type":"Point","coordinates":[-122.335777,47.803162]}},{"type":"Feature","id":"5132dd82a288f42e6736296a","properties":{"_id":"5132dd82a288f42e6736296a","PROVIDER NPI":1417968256,"PROVIDER NAME":"Chang, Joseph","PROVIDER STATE":"Washington","PROVIDER CITY":"Renton","PROVIDER  ADDRESS":"4011 Talbot Rd S, Suite 500","PROVIDER ZIP 5 CD":98055,"PROVIDER ZIP 4 CD":5773,"PROVIDER PHONE NUM":4252515110,"PROVIDER PHONE EXT":3338,"PROGRAM YEAR":2011},"geometry":{"type":"Point","coordinates":[-122.211927,47.443106]}},{"type":"Feature","id":"5132dd82a288f42e6736296b","properties":{"_id":"5132dd82a288f42e6736296b","PROVIDER NPI":1821182411,"PROVIDER NAME":"Chang, Kevin","PROVIDER STATE":"Washington","PROVIDER CITY":"Everett","PROVIDER  ADDRESS":"3901 Hoyt Ave","PROVIDER ZIP 5 CD":98201,"PROVIDER ZIP 4 CD":4918,"PROVIDER PHONE NUM":4253395435,"PROVIDER PHONE EXT":"","PROGRAM YEAR":2011},"geometry":{"type":"Point","coordinates":[-122.209475,47.965962]}},{"type":"Feature","id":"5132dd82a288f42e6736296c","properties":{"_id":"5132dd82a288f42e6736296c","PROVIDER NPI":1700825817,"PROVIDER NAME":"CHANG, MING-JEI","PROVIDER STATE":"Washington","PROVIDER CITY":"VANCOUVER","PROVIDER  ADDRESS":"700 NE 87TH AVE","PROVIDER ZIP 5 CD":98664,"PROVIDER ZIP 4 CD":1913,"PROVIDER PHONE NUM":3608822778,"PROVIDER PHONE EXT":"","PROGRAM YEAR":2011},"geometry":{"type":"Point","coordinates":[-122.583724,45.627374]}},{"type":"Feature","id":"5132dd82a288f42e6736296d","properties":{"_id":"5132dd82a288f42e6736296d","PROVIDER NPI":1245246990,"PROVIDER NAME":"Chapin, John","PROVIDER STATE":"Washington","PROVIDER CITY":"Walla Walla","PROVIDER  ADDRESS":"55 West Tietan Street","PROVIDER ZIP 5 CD":99362,"PROVIDER ZIP 4 CD":4445,"PROVIDER PHONE NUM":5095253720,"PROVIDER PHONE EXT":"","PROGRAM YEAR":2011},"geometry":{"type":"Point","coordinates":[-118.330911,46.049384]}},{"type":"Feature","id":"5132dd82a288f42e6736296e","properties":{"_id":"5132dd82a288f42e6736296e","PROVIDER NPI":1275585598,"PROVIDER NAME":"Chapman, Phillip","PROVIDER STATE":"Washington","PROVIDER CITY":"Seattle","PROVIDER  ADDRESS":"1101 Madison St, Suite 1400","PROVIDER ZIP 5 CD":98104,"PROVIDER ZIP 4 CD":1306,"PROVIDER PHONE NUM":2063866266,"PROVIDER PHONE EXT":"","PROGRAM YEAR":2011},"geometry":{"type":"Point","coordinates":[-122.325141,47.609336]}},{"type":"Feature","id":"5132dd82a288f42e6736296f","properties":{"_id":"5132dd82a288f42e6736296f","PROVIDER NPI":1306877543,"PROVIDER NAME":"Chatilo, Alexandr","PROVIDER STATE":"Washington","PROVIDER CITY":"Seattle","PROVIDER  ADDRESS":"1530 N 115th St, Suite 305","PROVIDER ZIP 5 CD":98133,"PROVIDER ZIP 4 CD":8411,"PROVIDER PHONE NUM":2063622464,"PROVIDER PHONE EXT":"","PROGRAM YEAR":2011},"geometry":{"type":"Point","coordinates":[-122.339388,47.712378]}},{"type":"Feature","id":"5132dd82a288f42e67362970","properties":{"_id":"5132dd82a288f42e67362970","PROVIDER NPI":1750336236,"PROVIDER NAME":"Chaudhry, Arvind","PROVIDER STATE":"Washington","PROVIDER CITY":"Spokane","PROVIDER  ADDRESS":"6001 North Mayfair, Medical Oncology Associates PS.","PROVIDER ZIP 5 CD":99208,"PROVIDER ZIP 4 CD":1129,"PROVIDER PHONE NUM":5094622273,"PROVIDER PHONE EXT":"","PROGRAM YEAR":2011},"geometry":{"type":"Point","coordinates":[-117.408619,47.712405]}},{"type":"Feature","id":"5132dd82a288f42e67362971","properties":{"_id":"5132dd82a288f42e67362971","PROVIDER NPI":1083654313,"PROVIDER NAME":"Chen, Ellen","PROVIDER STATE":"Washington","PROVIDER CITY":"Renton","PROVIDER  ADDRESS":"4011 Talbot Rd S, Suite 500","PROVIDER ZIP 5 CD":98055,"PROVIDER ZIP 4 CD":5773,"PROVIDER PHONE NUM":4252515110,"PROVIDER PHONE EXT":3227,"PROGRAM YEAR":2011},"geometry":{"type":"Point","coordinates":[-122.211927,47.443106]}},{"type":"Feature","id":"5132dd82a288f42e67362972","properties":{"_id":"5132dd82a288f42e67362972","PROVIDER NPI":1891734018,"PROVIDER NAME":"CH'EN, FRANCES","PROVIDER STATE":"Washington","PROVIDER CITY":"Vancouver","PROVIDER  ADDRESS":"700 NE 87th Ave","PROVIDER ZIP 5 CD":98664,"PROVIDER ZIP 4 CD":1913,"PROVIDER PHONE NUM":3608822778,"PROVIDER PHONE EXT":"","PROGRAM YEAR":2011},"geometry":{"type":"Point","coordinates":[-122.583724,45.627374]}},{"type":"Feature","id":"5132dd82a288f42e67362973","properties":{"_id":"5132dd82a288f42e67362973","PROVIDER NPI":1497773808,"PROVIDER NAME":"Chen, Gina","PROVIDER STATE":"Washington","PROVIDER CITY":"Seattle","PROVIDER  ADDRESS":"1145 Broadway","PROVIDER ZIP 5 CD":98122,"PROVIDER ZIP 4 CD":4201,"PROVIDER PHONE NUM":2063291760,"PROVIDER PHONE EXT":"","PROGRAM YEAR":2011},"geometry":{"type":"Point","coordinates":[-122.319939,47.612258]}},{"type":"Feature","id":"5132dd82a288f42e67362974","properties":{"_id":"5132dd82a288f42e67362974","PROVIDER NPI":1720038078,"PROVIDER NAME":"CHEN, HERBERT","PROVIDER STATE":"Washington","PROVIDER CITY":"Seattle","PROVIDER  ADDRESS":"1229 Madison St, SUITE 900","PROVIDER ZIP 5 CD":98104,"PROVIDER ZIP 4 CD":3586,"PROVIDER PHONE NUM":2062926233,"PROVIDER PHONE EXT":"","PROGRAM YEAR":2011},"geometry":{"type":"Point","coordinates":[-122.323777,47.60987]}},{"type":"Feature","id":"5132dd82a288f42e67362975","properties":{"_id":"5132dd82a288f42e67362975","PROVIDER NPI":1821017922,"PROVIDER NAME":"Chen, Hilton","PROVIDER STATE":"Washington","PROVIDER CITY":"Tacoma","PROVIDER  ADDRESS":"315 Martin Luther King Jr Way","PROVIDER ZIP 5 CD":98405,"PROVIDER ZIP 4 CD":"","PROVIDER PHONE NUM":2534037726,"PROVIDER PHONE EXT":"","PROGRAM YEAR":2011},"geometry":{"type":"Point","coordinates":[-122.453495,47.2601]}},{"type":"Feature","id":"5132dd82a288f42e67362976","properties":{"_id":"5132dd82a288f42e67362976","PROVIDER NPI":1578647285,"PROVIDER NAME":"Chen, LuAnn","PROVIDER STATE":"Washington","PROVIDER CITY":"Sammamish","PROVIDER  ADDRESS":"22707 SE 29th St","PROVIDER ZIP 5 CD":98075,"PROVIDER ZIP 4 CD":9532,"PROVIDER PHONE NUM":4254552845,"PROVIDER PHONE EXT":"","PROGRAM YEAR":2011},"geometry":{"type":"Point","coordinates":[-122.037105,47.584084]}},{"type":"Feature","id":"5132dd82a288f42e67362977","properties":{"_id":"5132dd82a288f42e67362977","PROVIDER NPI":1407822679,"PROVIDER NAME":"Chen, Mien-Chi","PROVIDER STATE":"Washington","PROVIDER CITY":"Seattle","PROVIDER  ADDRESS":"1145 Broadway","PROVIDER ZIP 5 CD":98122,"PROVIDER ZIP 4 CD":4201,"PROVIDER PHONE NUM":2063291760,"PROVIDER PHONE EXT":"","PROGRAM YEAR":2011},"geometry":{"type":"Point","coordinates":[-122.319939,47.612258]}},{"type":"Feature","id":"5132dd82a288f42e67362978","properties":{"_id":"5132dd82a288f42e67362978","PROVIDER NPI":1932165784,"PROVIDER NAME":"Chen, SanHwan","PROVIDER STATE":"Washington","PROVIDER CITY":"Everett","PROVIDER  ADDRESS":"4004 Colby Ave","PROVIDER ZIP 5 CD":98201,"PROVIDER ZIP 4 CD":6203,"PROVIDER PHONE NUM":4253395417,"PROVIDER PHONE EXT":"","PROGRAM YEAR":2011},"geometry":{"type":"Point","coordinates":[-122.20809,47.964622]}},{"type":"Feature","id":"5132dd82a288f42e67362979","properties":{"_id":"5132dd82a288f42e67362979","PROVIDER NPI":1689662587,"PROVIDER NAME":"Chen, Siting","PROVIDER STATE":"Washington","PROVIDER CITY":"Seattle","PROVIDER  ADDRESS":"1145 Broadway","PROVIDER ZIP 5 CD":98122,"PROVIDER ZIP 4 CD":4201,"PROVIDER PHONE NUM":2063291760,"PROVIDER PHONE EXT":"","PROGRAM YEAR":2011},"geometry":{"type":"Point","coordinates":[-122.319939,47.612258]}},{"type":"Feature","id":"5132dd82a288f42e6736297a","properties":{"_id":"5132dd82a288f42e6736297a","PROVIDER NPI":1447284849,"PROVIDER NAME":"Chen, Stanley","PROVIDER STATE":"Washington","PROVIDER CITY":"Yakima","PROVIDER  ADDRESS":"406 S 30th Ave, Ste. 206","PROVIDER ZIP 5 CD":98902,"PROVIDER ZIP 4 CD":3713,"PROVIDER PHONE NUM":5095743383,"PROVIDER PHONE EXT":"","PROGRAM YEAR":2011},"geometry":{"type":"Point","coordinates":[-120.548819,46.594465]}},{"type":"Feature","id":"5132dd82a288f42e6736297b","properties":{"_id":"5132dd82a288f42e6736297b","PROVIDER NPI":1053350652,"PROVIDER NAME":"CHEN, TIMOTHY","PROVIDER STATE":"Washington","PROVIDER CITY":"Vancouver","PROVIDER  ADDRESS":"2525 NE 139th St","PROVIDER ZIP 5 CD":98686,"PROVIDER ZIP 4 CD":2719,"PROVIDER PHONE NUM":3608822778,"PROVIDER PHONE EXT":"","PROGRAM YEAR":2011},"geometry":{"type":"Point","coordinates":[-122.644641,45.721795]}},{"type":"Feature","id":"5132dd82a288f42e6736297c","properties":{"_id":"5132dd82a288f42e6736297c","PROVIDER NPI":1518974351,"PROVIDER NAME":"Chen, Wynne","PROVIDER STATE":"Washington","PROVIDER CITY":"Renton","PROVIDER  ADDRESS":"4033 Talbot Road South, Suite 500","PROVIDER ZIP 5 CD":98055,"PROVIDER ZIP 4 CD":"","PROVIDER PHONE NUM":4252515110,"PROVIDER PHONE EXT":3414,"PROGRAM YEAR":2011},"geometry":{"type":"Point","coordinates":[-122.211957,47.443029]}},{"type":"Feature","id":"5132dd82a288f42e6736297d","properties":{"_id":"5132dd82a288f42e6736297d","PROVIDER NPI":1497715791,"PROVIDER NAME":"Chen, Yen","PROVIDER STATE":"Washington","PROVIDER CITY":"Silverdale","PROVIDER  ADDRESS":"2200 NW Myhre Rd","PROVIDER ZIP 5 CD":98383,"PROVIDER ZIP 4 CD":7681,"PROVIDER PHONE NUM":3608301100,"PROVIDER PHONE EXT":"","PROGRAM YEAR":2011},"geometry":{"type":"Point","coordinates":[-122.676942,47.65772]}},{"type":"Feature","id":"5132dd82a288f42e6736297e","properties":{"_id":"5132dd82a288f42e6736297e","PROVIDER NPI":1841335171,"PROVIDER NAME":"CHEN, YEN-HUANG","PROVIDER STATE":"Washington","PROVIDER CITY":"Everett","PROVIDER  ADDRESS":"3901 Hoyt Ave","PROVIDER ZIP 5 CD":98201,"PROVIDER ZIP 4 CD":4918,"PROVIDER PHONE NUM":4253395443,"PROVIDER PHONE EXT":"","PROGRAM YEAR":2011},"geometry":{"type":"Point","coordinates":[-122.209475,47.965962]}},{"type":"Feature","id":"5132dd82a288f42e6736297f","properties":{"_id":"5132dd82a288f42e6736297f","PROVIDER NPI":1831197243,"PROVIDER NAME":"Chesley, Chad","PROVIDER STATE":"Washington","PROVIDER CITY":"Longview","PROVIDER  ADDRESS":"625 9th Ave, Suite 120","PROVIDER ZIP 5 CD":98632,"PROVIDER ZIP 4 CD":2464,"PROVIDER PHONE NUM":3604253720,"PROVIDER PHONE EXT":"","PROGRAM YEAR":2011},"geometry":{"type":"Point","coordinates":[-122.934199,46.123556]}},{"type":"Feature","id":"5132dd82a288f42e67362980","properties":{"_id":"5132dd82a288f42e67362980","PROVIDER NPI":1255536405,"PROVIDER NAME":"Chiavarini, Andrea","PROVIDER STATE":"Washington","PROVIDER CITY":"Vancouver","PROVIDER  ADDRESS":"2525 NE 139th St","PROVIDER ZIP 5 CD":98686,"PROVIDER ZIP 4 CD":2719,"PROVIDER PHONE NUM":3608822778,"PROVIDER PHONE EXT":"","PROGRAM YEAR":2011},"geometry":{"type":"Point","coordinates":[-122.644641,45.721795]}},{"type":"Feature","id":"5132dd82a288f42e67362981","properties":{"_id":"5132dd82a288f42e67362981","PROVIDER NPI":1396713350,"PROVIDER NAME":"Chisholm, Dougal","PROVIDER STATE":"Washington","PROVIDER CITY":"Lake Stevens","PROVIDER  ADDRESS":"8910 Vernon Rd","PROVIDER ZIP 5 CD":98258,"PROVIDER ZIP 4 CD":2400,"PROVIDER PHONE NUM":4253573305,"PROVIDER PHONE EXT":"","PROGRAM YEAR":2011},"geometry":{"type":"Point","coordinates":[-122.112333,48.001327]}},{"type":"Feature","id":"5132dd82a288f42e67362982","properties":{"_id":"5132dd82a288f42e67362982","PROVIDER NPI":1902840382,"PROVIDER NAME":"Choi, Jack","PROVIDER STATE":"Washington","PROVIDER CITY":"Seattle","PROVIDER  ADDRESS":"15580 3rd Ave SW, Suite # 101","PROVIDER ZIP 5 CD":98166,"PROVIDER ZIP 4 CD":"","PROVIDER PHONE NUM":2064534215,"PROVIDER PHONE EXT":"","PROGRAM YEAR":2011},"geometry":{"type":"Point","coordinates":[-122.337835,47.46344]}},{"type":"Feature","id":"5132dd82a288f42e67362983","properties":{"_id":"5132dd82a288f42e67362983","PROVIDER NPI":1447335401,"PROVIDER NAME":"Choudhury, Rajib","PROVIDER STATE":"Washington","PROVIDER CITY":"Renton","PROVIDER  ADDRESS":"4011 Talbot Road South, Suite 500","PROVIDER ZIP 5 CD":98055,"PROVIDER ZIP 4 CD":"","PROVIDER PHONE NUM":4252515110,"PROVIDER PHONE EXT":3223,"PROGRAM YEAR":2011},"geometry":{"type":"Point","coordinates":[-122.211927,47.443106]}},{"type":"Feature","id":"5132dd82a288f42e67362984","properties":{"_id":"5132dd82a288f42e67362984","PROVIDER NPI":1902852502,"PROVIDER NAME":"CHOW, ALEXANDER","PROVIDER STATE":"Washington","PROVIDER CITY":"Vancouver","PROVIDER  ADDRESS":"700 NE 87th Ave","PROVIDER ZIP 5 CD":98664,"PROVIDER ZIP 4 CD":1913,"PROVIDER PHONE NUM":3608822778,"PROVIDER PHONE EXT":"","PROGRAM YEAR":2011},"geometry":{"type":"Point","coordinates":[-122.583724,45.627374]}},{"type":"Feature","id":"5132dd82a288f42e67362985","properties":{"_id":"5132dd82a288f42e67362985","PROVIDER NPI":1609935238,"PROVIDER NAME":"Chowdhury, Jasmine","PROVIDER STATE":"Washington","PROVIDER CITY":"Vancouver","PROVIDER  ADDRESS":"700 NE 87th Ave","PROVIDER ZIP 5 CD":98664,"PROVIDER ZIP 4 CD":1913,"PROVIDER PHONE NUM":3608822778,"PROVIDER PHONE EXT":"","PROGRAM YEAR":2011},"geometry":{"type":"Point","coordinates":[-122.583724,45.627374]}},{"type":"Feature","id":"5132dd82a288f42e67362986","properties":{"_id":"5132dd82a288f42e67362986","PROVIDER NPI":1689784464,"PROVIDER NAME":"Chrisman, Jeremy","PROVIDER STATE":"Washington","PROVIDER CITY":"Vancouver","PROVIDER  ADDRESS":"2525 NE 139th St","PROVIDER ZIP 5 CD":98686,"PROVIDER ZIP 4 CD":2719,"PROVIDER PHONE NUM":3608822778,"PROVIDER PHONE EXT":"","PROGRAM YEAR":2011},"geometry":{"type":"Point","coordinates":[-122.644641,45.721795]}},{"type":"Feature","id":"5132dd82a288f42e67362987","properties":{"_id":"5132dd82a288f42e67362987","PROVIDER NPI":1194737072,"PROVIDER NAME":"Christensen, Joshua","PROVIDER STATE":"Washington","PROVIDER CITY":"Olympia","PROVIDER  ADDRESS":"1824 Black Lake Blvd SW, Ste C","PROVIDER ZIP 5 CD":98501,"PROVIDER ZIP 4 CD":"","PROVIDER PHONE NUM":3607050900,"PROVIDER PHONE EXT":"","PROGRAM YEAR":2011},"geometry":{"type":"Point","coordinates":[-122.902577,47.049991]}},{"type":"Feature","id":"5132dd82a288f42e67362988","properties":{"_id":"5132dd82a288f42e67362988","PROVIDER NPI":1932162872,"PROVIDER NAME":"CHRISTENSON, JEFFREY","PROVIDER STATE":"Washington","PROVIDER CITY":"Olympia","PROVIDER  ADDRESS":"500 Lilly Rd NE, Suite 201","PROVIDER ZIP 5 CD":98506,"PROVIDER ZIP 4 CD":5197,"PROVIDER PHONE NUM":3604138272,"PROVIDER PHONE EXT":"","PROGRAM YEAR":2011},"geometry":{"type":"Point","coordinates":[-122.844344,47.053689]}},{"type":"Feature","id":"5132dd82a288f42e67362989","properties":{"_id":"5132dd82a288f42e67362989","PROVIDER NPI":1568496123,"PROVIDER NAME":"CHU, FELIX","PROVIDER STATE":"Washington","PROVIDER CITY":"Seattle","PROVIDER  ADDRESS":"1145 Broadway","PROVIDER ZIP 5 CD":98122,"PROVIDER ZIP 4 CD":4201,"PROVIDER PHONE NUM":2063291760,"PROVIDER PHONE EXT":"","PROGRAM YEAR":2011},"geometry":{"type":"Point","coordinates":[-122.319939,47.612258]}},{"type":"Feature","id":"5132dd82a288f42e6736298a","properties":{"_id":"5132dd82a288f42e6736298a","PROVIDER NPI":1629045463,"PROVIDER NAME":"Chun, Michael","PROVIDER STATE":"Washington","PROVIDER CITY":"Everett","PROVIDER  ADDRESS":"3901 Hoyt Ave","PROVIDER ZIP 5 CD":98201,"PROVIDER ZIP 4 CD":4918,"PROVIDER PHONE NUM":4253395408,"PROVIDER PHONE EXT":"","PROGRAM YEAR":2011},"geometry":{"type":"Point","coordinates":[-122.209475,47.965962]}},{"type":"Feature","id":"5132dd82a288f42e6736298b","properties":{"_id":"5132dd82a288f42e6736298b","PROVIDER NPI":1659484699,"PROVIDER NAME":"Chun, Ty","PROVIDER STATE":"Washington","PROVIDER CITY":"Silverdale","PROVIDER  ADDRESS":"9800 Levin Rd NW, SUITE 204","PROVIDER ZIP 5 CD":98383,"PROVIDER ZIP 4 CD":7856,"PROVIDER PHONE NUM":3606131335,"PROVIDER PHONE EXT":"","PROGRAM YEAR":2011},"geometry":{"type":"Point","coordinates":[-122.684602,47.652447]}},{"type":"Feature","id":"5132dd82a288f42e6736298c","properties":{"_id":"5132dd82a288f42e6736298c","PROVIDER NPI":1770595019,"PROVIDER NAME":"Chunchu, Kavitha","PROVIDER STATE":"Washington","PROVIDER CITY":"Everett","PROVIDER  ADDRESS":"3901 Hoyt Ave","PROVIDER ZIP 5 CD":98201,"PROVIDER ZIP 4 CD":4918,"PROVIDER PHONE NUM":4252590966,"PROVIDER PHONE EXT":"","PROGRAM YEAR":2011},"geometry":{"type":"Point","coordinates":[-122.209475,47.965962]}},{"type":"Feature","id":"5132dd82a288f42e6736298d","properties":{"_id":"5132dd82a288f42e6736298d","PROVIDER NPI":1871543900,"PROVIDER NAME":"CHYMIY, ANDREA","PROVIDER STATE":"Washington","PROVIDER CITY":"Poulsbo","PROVIDER  ADDRESS":"19245 7th Ave NE","PROVIDER ZIP 5 CD":98370,"PROVIDER ZIP 4 CD":7504,"PROVIDER PHONE NUM":3607823500,"PROVIDER PHONE EXT":"","PROGRAM YEAR":2011},"geometry":{"type":"Point","coordinates":[-122.639916,47.739722]}},{"type":"Feature","id":"5132dd82a288f42e6736298e","properties":{"_id":"5132dd82a288f42e6736298e","PROVIDER NPI":1629176524,"PROVIDER NAME":"Ciani, Peter","PROVIDER STATE":"Washington","PROVIDER CITY":"Poulsbo","PROVIDER  ADDRESS":"20730 Bond RD NE, suite 205","PROVIDER ZIP 5 CD":98370,"PROVIDER ZIP 4 CD":9000,"PROVIDER PHONE NUM":3606971957,"PROVIDER PHONE EXT":"","PROGRAM YEAR":2011},"geometry":{"type":"Point","coordinates":[-122.63999,47.756183]}},{"type":"Feature","id":"5132dd82a288f42e6736298f","properties":{"_id":"5132dd82a288f42e6736298f","PROVIDER NPI":1740204825,"PROVIDER NAME":"Clark, Christopher","PROVIDER STATE":"Washington","PROVIDER CITY":"Yakima","PROVIDER  ADDRESS":"3003 Tieton Dr, Suite 320","PROVIDER ZIP 5 CD":98902,"PROVIDER ZIP 4 CD":3679,"PROVIDER PHONE NUM":5094523765,"PROVIDER PHONE EXT":"","PROGRAM YEAR":2011},"geometry":{"type":"Point","coordinates":[-120.548722,46.592801]}},{"type":"Feature","id":"5132dd82a288f42e67362990","properties":{"_id":"5132dd82a288f42e67362990","PROVIDER NPI":1508894858,"PROVIDER NAME":"Clark, Linda","PROVIDER STATE":"Washington","PROVIDER CITY":"Seattle","PROVIDER  ADDRESS":"11011 Meridian Ave N, Suite 200","PROVIDER ZIP 5 CD":98133,"PROVIDER ZIP 4 CD":8967,"PROVIDER PHONE NUM":2065255777,"PROVIDER PHONE EXT":"","PROGRAM YEAR":2011},"geometry":{"type":"Point","coordinates":[-122.334438,47.763269]}},{"type":"Feature","id":"5132dd82a288f42e67362991","properties":{"_id":"5132dd82a288f42e67362991","PROVIDER NPI":1346216561,"PROVIDER NAME":"Clay, Kevin","PROVIDER STATE":"Washington","PROVIDER CITY":"Stanwood","PROVIDER  ADDRESS":"7205 265th St NW","PROVIDER ZIP 5 CD":98292,"PROVIDER ZIP 4 CD":6221,"PROVIDER PHONE NUM":3606291504,"PROVIDER PHONE EXT":"","PROGRAM YEAR":2011},"geometry":{"type":"Point","coordinates":[-122.330304,48.237128]}},{"type":"Feature","id":"5132dd82a288f42e67362992","properties":{"_id":"5132dd82a288f42e67362992","PROVIDER NPI":1487649810,"PROVIDER NAME":"Clayton, Charles","PROVIDER STATE":"Washington","PROVIDER CITY":"Bellevue","PROVIDER  ADDRESS":"13401 Bel Red Rd, Ste A4","PROVIDER ZIP 5 CD":98005,"PROVIDER ZIP 4 CD":2322,"PROVIDER PHONE NUM":4257472020,"PROVIDER PHONE EXT":"","PROGRAM YEAR":2011},"geometry":{"type":"Point","coordinates":[-122.161703,47.622664]}},{"type":"Feature","id":"5132dd82a288f42e67362993","properties":{"_id":"5132dd82a288f42e67362993","PROVIDER NPI":1982695219,"PROVIDER NAME":"Clegg, Tiffin","PROVIDER STATE":"Washington","PROVIDER CITY":"Poulsbo","PROVIDER  ADDRESS":"20730 Bond Rd NE Ste 205","PROVIDER ZIP 5 CD":98370,"PROVIDER ZIP 4 CD":9000,"PROVIDER PHONE NUM":3607799727,"PROVIDER PHONE EXT":"","PROGRAM YEAR":2011},"geometry":{"type":"Point","coordinates":[-122.647025,47.751318]}},{"type":"Feature","id":"5132dd82a288f42e67362994","properties":{"_id":"5132dd82a288f42e67362994","PROVIDER NPI":1861427346,"PROVIDER NAME":"Clemen, James","PROVIDER STATE":"Washington","PROVIDER CITY":"Silverdale","PROVIDER  ADDRESS":"2200 NW Myhre Rd","PROVIDER ZIP 5 CD":98383,"PROVIDER ZIP 4 CD":7681,"PROVIDER PHONE NUM":3608301100,"PROVIDER PHONE EXT":"","PROGRAM YEAR":2011},"geometry":{"type":"Point","coordinates":[-122.676942,47.65772]}},{"type":"Feature","id":"5132dd82a288f42e67362995","properties":{"_id":"5132dd82a288f42e67362995","PROVIDER NPI":1205855087,"PROVIDER NAME":"Cline, David","PROVIDER STATE":"Washington","PROVIDER CITY":"Tacoma","PROVIDER  ADDRESS":"315 Martin Luther King Jr Way","PROVIDER ZIP 5 CD":98405,"PROVIDER ZIP 4 CD":"","PROVIDER PHONE NUM":2534037726,"PROVIDER PHONE EXT":"","PROGRAM YEAR":2011},"geometry":{"type":"Point","coordinates":[-122.453495,47.2601]}},{"type":"Feature","id":"5132dd82a288f42e67362996","properties":{"_id":"5132dd82a288f42e67362996","PROVIDER NPI":1891767943,"PROVIDER NAME":"Clyde, Jon","PROVIDER STATE":"Washington","PROVIDER CITY":"Spokane","PROVIDER  ADDRESS":"105 W 8th Ave, Ste 7010","PROVIDER ZIP 5 CD":99204,"PROVIDER ZIP 4 CD":2312,"PROVIDER PHONE NUM":5097476194,"PROVIDER PHONE EXT":"","PROGRAM YEAR":2011},"geometry":{"type":"Point","coordinates":[-117.413808,47.648306]}},{"type":"Feature","id":"5132dd82a288f42e67362997","properties":{"_id":"5132dd82a288f42e67362997","PROVIDER NPI":1417911165,"PROVIDER NAME":"Codsi, Michael","PROVIDER STATE":"Washington","PROVIDER CITY":"Everett","PROVIDER  ADDRESS":"3927 Rucker Ave","PROVIDER ZIP 5 CD":98201,"PROVIDER ZIP 4 CD":4833,"PROVIDER PHONE NUM":4252583903,"PROVIDER PHONE EXT":"","PROGRAM YEAR":2011},"geometry":{"type":"Point","coordinates":[-122.210821,47.965594]}},{"type":"Feature","id":"5132dd82a288f42e67362998","properties":{"_id":"5132dd82a288f42e67362998","PROVIDER NPI":1225082811,"PROVIDER NAME":"Coker, Martin","PROVIDER STATE":"Washington","PROVIDER CITY":"Richland","PROVIDER  ADDRESS":"310 Torbett St","PROVIDER ZIP 5 CD":99354,"PROVIDER ZIP 4 CD":2604,"PROVIDER PHONE NUM":5099461695,"PROVIDER PHONE EXT":225,"PROGRAM YEAR":2011},"geometry":{"type":"Point","coordinates":[-119.276615,46.292239]}},{"type":"Feature","id":"5132dd82a288f42e67362999","properties":{"_id":"5132dd82a288f42e67362999","PROVIDER NPI":1518933936,"PROVIDER NAME":"Colombo, Mark","PROVIDER STATE":"Washington","PROVIDER CITY":"Stanwood","PROVIDER  ADDRESS":"7205 265th St NW","PROVIDER ZIP 5 CD":98292,"PROVIDER ZIP 4 CD":6221,"PROVIDER PHONE NUM":3606291504,"PROVIDER PHONE EXT":"","PROGRAM YEAR":2011},"geometry":{"type":"Point","coordinates":[-122.330304,48.237128]}},{"type":"Feature","id":"5132dd82a288f42e6736299a","properties":{"_id":"5132dd82a288f42e6736299a","PROVIDER NPI":1831257286,"PROVIDER NAME":"CONDON, JOSEPH","PROVIDER STATE":"Washington","PROVIDER CITY":"Bellevue","PROVIDER  ADDRESS":"13033 Bel Red Rd, Suite 230","PROVIDER ZIP 5 CD":98005,"PROVIDER ZIP 4 CD":2633,"PROVIDER PHONE NUM":4524541560,"PROVIDER PHONE EXT":"","PROGRAM YEAR":2011},"geometry":{"type":"Point","coordinates":[-122.165969,47.62181]}},{"type":"Feature","id":"5132dd82a288f42e6736299b","properties":{"_id":"5132dd82a288f42e6736299b","PROVIDER NPI":1972554046,"PROVIDER NAME":"Connelly, Jan","PROVIDER STATE":"Washington","PROVIDER CITY":"Spokane","PROVIDER  ADDRESS":"217 W Cataldo","PROVIDER ZIP 5 CD":99201,"PROVIDER ZIP 4 CD":2217,"PROVIDER PHONE NUM":5096242326,"PROVIDER PHONE EXT":"","PROGRAM YEAR":2011},"geometry":{"type":"Point","coordinates":[-117.416344,47.66607]}},{"type":"Feature","id":"5132dd82a288f42e6736299c","properties":{"_id":"5132dd82a288f42e6736299c","PROVIDER NPI":1831153964,"PROVIDER NAME":"Contreras, Ruben","PROVIDER STATE":"Washington","PROVIDER CITY":"Everett","PROVIDER  ADDRESS":"3901 Hoyt Ave","PROVIDER ZIP 5 CD":98201,"PROVIDER ZIP 4 CD":4918,"PROVIDER PHONE NUM":4253395456,"PROVIDER PHONE EXT":"","PROGRAM YEAR":2011},"geometry":{"type":"Point","coordinates":[-122.209475,47.965962]}},{"type":"Feature","id":"5132dd82a288f42e6736299d","properties":{"_id":"5132dd82a288f42e6736299d","PROVIDER NPI":1285664805,"PROVIDER NAME":"Conyers, William","PROVIDER STATE":"Washington","PROVIDER CITY":"Everett","PROVIDER  ADDRESS":"3927 Rucker Ave","PROVIDER ZIP 5 CD":98201,"PROVIDER ZIP 4 CD":4833,"PROVIDER PHONE NUM":4253395422,"PROVIDER PHONE EXT":"","PROGRAM YEAR":2011},"geometry":{"type":"Point","coordinates":[-122.210821,47.965594]}},