[{"type":"Feature","id":"5132dd77a288f42e6735b5f5","properties":{"_id":"5132dd77a288f42e6735b5f5","PROVIDER NPI":1912936329,"PROVIDER NAME":"AKKERMAN, DAVE","PROVIDER STATE":"North Dakota","PROVIDER CITY":"Fargo","PROVIDER  ADDRESS":"3902 13th Ave S","PROVIDER ZIP 5 CD":58103,"PROVIDER ZIP 4 CD":3357,"PROVIDER PHONE NUM":7013646600,"PROVIDER PHONE EXT":"","PROGRAM YEAR":2011},"geometry":{"type":"Point","coordinates":[-96.787854,46.861595]}},{"type":"Feature","id":"5132dd77a288f42e6735b5f6","properties":{"_id":"5132dd77a288f42e6735b5f6","PROVIDER NPI":1467585349,"PROVIDER NAME":"Almanaseer, Yassar","PROVIDER STATE":"North Dakota","PROVIDER CITY":"Fargo","PROVIDER  ADDRESS":"3000 32nd Ave S","PROVIDER ZIP 5 CD":58103,"PROVIDER ZIP 4 CD":6132,"PROVIDER PHONE NUM":7013648000,"PROVIDER PHONE EXT":"","PROGRAM YEAR":2011},"geometry":{"type":"Point","coordinates":[-96.826603,46.832703]}},{"type":"Feature","id":"5132dd77a288f42e6735b5f7","properties":{"_id":"5132dd77a288f42e6735b5f7","PROVIDER NPI":1881801959,"PROVIDER NAME":"ARYAL, SUIMA","PROVIDER STATE":"North Dakota","PROVIDER CITY":"Wahpeton","PROVIDER  ADDRESS":"275 11th St S","PROVIDER ZIP 5 CD":58075,"PROVIDER ZIP 4 CD":4655,"PROVIDER PHONE NUM":7016422000,"PROVIDER PHONE EXT":"","PROGRAM YEAR":2011},"geometry":{"type":"Point","coordinates":[-96.615808,46.262354]}},{"type":"Feature","id":"5132dd77a288f42e6735b5f8","properties":{"_id":"5132dd77a288f42e6735b5f8","PROVIDER NPI":1053376079,"PROVIDER NAME":"Beard, David","PROVIDER STATE":"North Dakota","PROVIDER CITY":"Fargo","PROVIDER  ADDRESS":"3000 32nd Ave S","PROVIDER ZIP 5 CD":58103,"PROVIDER ZIP 4 CD":6132,"PROVIDER PHONE NUM":7013648000,"PROVIDER PHONE EXT":"","PROGRAM YEAR":2011},"geometry":{"type":"Point","coordinates":[-96.826603,46.832703]}},{"type":"Feature","id":"5132dd77a288f42e6735b5f9","properties":{"_id":"5132dd77a288f42e6735b5f9","PROVIDER NPI":1942398375,"PROVIDER NAME":"Belizario, Francisco","PROVIDER STATE":"North Dakota","PROVIDER CITY":"Fargo","PROVIDER  ADDRESS":"1702 University Dr S","PROVIDER ZIP 5 CD":58103,"PROVIDER ZIP 4 CD":4940,"PROVIDER PHONE NUM":7013643300,"PROVIDER PHONE EXT":"","PROGRAM YEAR":2011},"geometry":{"type":"Point","coordinates":[-96.798533,46.851839]}},{"type":"Feature","id":"5132dd77a288f42e6735b5fa","properties":{"_id":"5132dd77a288f42e6735b5fa","PROVIDER NPI":1770516478,"PROVIDER NAME":"BELKNAP, BURTON","PROVIDER STATE":"North Dakota","PROVIDER CITY":"Fargo","PROVIDER  ADDRESS":"1702 University Dr S","PROVIDER ZIP 5 CD":58103,"PROVIDER ZIP 4 CD":4940,"PROVIDER PHONE NUM":7013643300,"PROVIDER PHONE EXT":"","PROGRAM YEAR":2011},"geometry":{"type":"Point","coordinates":[-96.798533,46.851839]}},{"type":"Feature","id":"5132dd77a288f42e6735b5fb","properties":{"_id":"5132dd77a288f42e6735b5fb","PROVIDER NPI":1831374446,"PROVIDER NAME":"Berg, Phillip","PROVIDER STATE":"North Dakota","PROVIDER CITY":"Grand Forks","PROVIDER  ADDRESS":"2625 24th Ave S, Suite B","PROVIDER ZIP 5 CD":58201,"PROVIDER ZIP 4 CD":6180,"PROVIDER PHONE NUM":7017467979,"PROVIDER PHONE EXT":"","PROGRAM YEAR":2011},"geometry":{"type":"Point","coordinates":[-97.062378,47.910962]}},{"type":"Feature","id":"5132dd77a288f42e6735b5fc","properties":{"_id":"5132dd77a288f42e6735b5fc","PROVIDER NPI":1861425472,"PROVIDER NAME":"BEXELL-GIERKE, JAN","PROVIDER STATE":"North Dakota","PROVIDER CITY":"Fargo","PROVIDER  ADDRESS":"3000 32nd Ave S","PROVIDER ZIP 5 CD":58103,"PROVIDER ZIP 4 CD":6132,"PROVIDER PHONE NUM":7013648000,"PROVIDER PHONE EXT":"","PROGRAM YEAR":2011},"geometry":{"type":"Point","coordinates":[-96.826603,46.832703]}},{"type":"Feature","id":"5132dd77a288f42e6735b5fd","properties":{"_id":"5132dd77a288f42e6735b5fd","PROVIDER NPI":1710911185,"PROVIDER NAME":"BRIGGS, MICHAEL","PROVIDER STATE":"North Dakota","PROVIDER CITY":"Fargo","PROVIDER  ADDRESS":"3000 32nd Ave S","PROVIDER ZIP 5 CD":58103,"PROVIDER ZIP 4 CD":6132,"PROVIDER PHONE NUM":7013648000,"PROVIDER PHONE EXT":"","PROGRAM YEAR":2011},"geometry":{"type":"Point","coordinates":[-96.826603,46.832703]}},{"type":"Feature","id":"5132dd77a288f42e6735b5fe","properties":{"_id":"5132dd77a288f42e6735b5fe","PROVIDER NPI":1750314449,"PROVIDER NAME":"CABO CHAN, ALBERTO","PROVIDER STATE":"North Dakota","PROVIDER CITY":"Fargo","PROVIDER  ADDRESS":"1702 University Dr S","PROVIDER ZIP 5 CD":58103,"PROVIDER ZIP 4 CD":4940,"PROVIDER PHONE NUM":7013643300,"PROVIDER PHONE EXT":"","PROGRAM YEAR":2011},"geometry":{"type":"Point","coordinates":[-96.798533,46.851839]}},{"type":"Feature","id":"5132dd77a288f42e6735b5ff","properties":{"_id":"5132dd77a288f42e6735b5ff","PROVIDER NPI":1649231192,"PROVIDER NAME":"Carlson, Dori","PROVIDER STATE":"North Dakota","PROVIDER CITY":"Park River","PROVIDER  ADDRESS":"121 Briggs Ave N","PROVIDER ZIP 5 CD":58270,"PROVIDER ZIP 4 CD":714,"PROVIDER PHONE NUM":7012847330,"PROVIDER PHONE EXT":"","PROGRAM YEAR":2011},"geometry":{"type":"Point","coordinates":[-97.743438,48.39842]}},{"type":"Feature","id":"5132dd77a288f42e6735b600","properties":{"_id":"5132dd77a288f42e6735b600","PROVIDER NPI":1497747984,"PROVIDER NAME":"Carter, Michelle","PROVIDER STATE":"North Dakota","PROVIDER CITY":"Grafton","PROVIDER  ADDRESS":"415 Hill Ave","PROVIDER ZIP 5 CD":58237,"PROVIDER ZIP 4 CD":1001,"PROVIDER PHONE NUM":7013521370,"PROVIDER PHONE EXT":"","PROGRAM YEAR":2011},"geometry":{"type":"Point","coordinates":[-97.411188,48.420426]}},{"type":"Feature","id":"5132dd77a288f42e6735b601","properties":{"_id":"5132dd77a288f42e6735b601","PROVIDER NPI":1104033968,"PROVIDER NAME":"Christenson, Shaun","PROVIDER STATE":"North Dakota","PROVIDER CITY":"Fargo","PROVIDER  ADDRESS":"3000 32nd Ave S","PROVIDER ZIP 5 CD":58103,"PROVIDER ZIP 4 CD":6132,"PROVIDER PHONE NUM":7013648000,"PROVIDER PHONE EXT":"","PROGRAM YEAR":2011},"geometry":{"type":"Point","coordinates":[-96.826603,46.832703]}},{"type":"Feature","id":"5132dd77a288f42e6735b602","properties":{"_id":"5132dd77a288f42e6735b602","PROVIDER NPI":1962427351,"PROVIDER NAME":"COOPER, MARK","PROVIDER STATE":"North Dakota","PROVIDER CITY":"Fargo","PROVIDER  ADDRESS":"1702 University Dr S","PROVIDER ZIP 5 CD":58103,"PROVIDER ZIP 4 CD":4940,"PROVIDER PHONE NUM":7013643300,"PROVIDER PHONE EXT":"","PROGRAM YEAR":2011},"geometry":{"type":"Point","coordinates":[-96.798533,46.851839]}},{"type":"Feature","id":"5132dd77a288f42e6735b603","properties":{"_id":"5132dd77a288f42e6735b603","PROVIDER NPI":1437142486,"PROVIDER NAME":"Dallman, John","PROVIDER STATE":"North Dakota","PROVIDER CITY":"Grand Forks","PROVIDER  ADDRESS":"1395 S Columbia Rd, Suite B","PROVIDER ZIP 5 CD":58201,"PROVIDER ZIP 4 CD":4054,"PROVIDER PHONE NUM":7017753215,"PROVIDER PHONE EXT":"","PROGRAM YEAR":2011},"geometry":{"type":"Point","coordinates":[-97.066391,47.907278]}},{"type":"Feature","id":"5132dd77a288f42e6735b604","properties":{"_id":"5132dd77a288f42e6735b604","PROVIDER NPI":1255363693,"PROVIDER NAME":"DEES, BRIAN","PROVIDER STATE":"North Dakota","PROVIDER CITY":"Fargo","PROVIDER  ADDRESS":"3000 32nd Ave S","PROVIDER ZIP 5 CD":58103,"PROVIDER ZIP 4 CD":6132,"PROVIDER PHONE NUM":7013648000,"PROVIDER PHONE EXT":"","PROGRAM YEAR":2011},"geometry":{"type":"Point","coordinates":[-96.826603,46.832703]}},{"type":"Feature","id":"5132dd77a288f42e6735b605","properties":{"_id":"5132dd77a288f42e6735b605","PROVIDER NPI":1780629311,"PROVIDER NAME":"DIEGEL, TANYA","PROVIDER STATE":"North Dakota","PROVIDER CITY":"Valley City","PROVIDER  ADDRESS":"1000 W Main St","PROVIDER ZIP 5 CD":58072,"PROVIDER ZIP 4 CD":3250,"PROVIDER PHONE NUM":7018458060,"PROVIDER PHONE EXT":"","PROGRAM YEAR":2011},"geometry":{"type":"Point","coordinates":[-98.015844,46.922064]}},{"type":"Feature","id":"5132dd77a288f42e6735b606","properties":{"_id":"5132dd77a288f42e6735b606","PROVIDER NPI":1730106329,"PROVIDER NAME":"DOMM, BRUCE","PROVIDER STATE":"North Dakota","PROVIDER CITY":"Casselton","PROVIDER  ADDRESS":"5 Ninth Avenue North","PROVIDER ZIP 5 CD":58102,"PROVIDER ZIP 4 CD":"","PROVIDER PHONE NUM":7013474445,"PROVIDER PHONE EXT":"","PROGRAM YEAR":2011},"geometry":{"type":"Point","coordinates":[-96.776903,46.8859]}},{"type":"Feature","id":"5132dd77a288f42e6735b607","properties":{"_id":"5132dd77a288f42e6735b607","PROVIDER NPI":1275726887,"PROVIDER NAME":"Enderle, Carey","PROVIDER STATE":"North Dakota","PROVIDER CITY":"Devils Lake","PROVIDER  ADDRESS":"404 Hwy 2 East","PROVIDER ZIP 5 CD":58301,"PROVIDER ZIP 4 CD":130,"PROVIDER PHONE NUM":7016624085,"PROVIDER PHONE EXT":"","PROGRAM YEAR":2011},"geometry":{"type":"Point","coordinates":[-98.856601,48.100687]}},{"type":"Feature","id":"5132dd77a288f42e6735b608","properties":{"_id":"5132dd77a288f42e6735b608","PROVIDER NPI":1700043528,"PROVIDER NAME":"FELTY, BENJAMIN","PROVIDER STATE":"North Dakota","PROVIDER CITY":"Jamestown","PROVIDER  ADDRESS":"401 3rd St SE","PROVIDER ZIP 5 CD":58401,"PROVIDER ZIP 4 CD":4247,"PROVIDER PHONE NUM":7012535300,"PROVIDER PHONE EXT":"","PROGRAM YEAR":2011},"geometry":{"type":"Point","coordinates":[-98.703853,46.906349]}},{"type":"Feature","id":"5132dd77a288f42e6735b609","properties":{"_id":"5132dd77a288f42e6735b609","PROVIDER NPI":1184613465,"PROVIDER NAME":"FERNANDEZ, OSCAR","PROVIDER STATE":"North Dakota","PROVIDER CITY":"Lisbon","PROVIDER  ADDRESS":"819 Main St","PROVIDER ZIP 5 CD":58054,"PROVIDER ZIP 4 CD":4244,"PROVIDER PHONE NUM":7016834134,"PROVIDER PHONE EXT":"","PROGRAM YEAR":2011},"geometry":{"type":"Point","coordinates":[-97.681354,46.438316]}},{"type":"Feature","id":"5132dd77a288f42e6735b60a","properties":{"_id":"5132dd77a288f42e6735b60a","PROVIDER NPI":1073544995,"PROVIDER NAME":"FIEBIGER, SIRI","PROVIDER STATE":"North Dakota","PROVIDER CITY":"Fargo","PROVIDER  ADDRESS":"3000 32nd Ave S","PROVIDER ZIP 5 CD":58103,"PROVIDER ZIP 4 CD":6132,"PROVIDER PHONE NUM":7013648000,"PROVIDER PHONE EXT":"","PROGRAM YEAR":2011},"geometry":{"type":"Point","coordinates":[-96.826603,46.832703]}},{"type":"Feature","id":"5132dd77a288f42e6735b60b","properties":{"_id":"5132dd77a288f42e6735b60b","PROVIDER NPI":1003881715,"PROVIDER NAME":"Froehling, Eric","PROVIDER STATE":"North Dakota","PROVIDER CITY":"Wishek","PROVIDER  ADDRESS":"20 N 5 St","PROVIDER ZIP 5 CD":58495,"PROVIDER ZIP 4 CD":125,"PROVIDER PHONE NUM":7014522593,"PROVIDER PHONE EXT":"","PROGRAM YEAR":2011},"geometry":{"type":"Point","coordinates":[-99.559229,46.259258]}},{"type":"Feature","id":"5132dd77a288f42e6735b60c","properties":{"_id":"5132dd77a288f42e6735b60c","PROVIDER NPI":1902873458,"PROVIDER NAME":"GALE, BRIAN","PROVIDER STATE":"North Dakota","PROVIDER CITY":"Bismarck","PROVIDER  ADDRESS":"1733 E Capitol Ave","PROVIDER ZIP 5 CD":58501,"PROVIDER ZIP 4 CD":2150,"PROVIDER PHONE NUM":7012553338,"PROVIDER PHONE EXT":"","PROGRAM YEAR":2011},"geometry":{"type":"Point","coordinates":[-100.765699,46.82881]}},{"type":"Feature","id":"5132dd77a288f42e6735b60d","properties":{"_id":"5132dd77a288f42e6735b60d","PROVIDER NPI":1639115868,"PROVIDER NAME":"Gebur, Joshua","PROVIDER STATE":"North Dakota","PROVIDER CITY":"Fargo","PROVIDER  ADDRESS":"3000 32nd Ave S, Suite 140","PROVIDER ZIP 5 CD":58103,"PROVIDER ZIP 4 CD":6132,"PROVIDER PHONE NUM":7013648000,"PROVIDER PHONE EXT":"","PROGRAM YEAR":2011},"geometry":{"type":"Point","coordinates":[-96.826603,46.832703]}},{"type":"Feature","id":"5132dd77a288f42e6735b60e","properties":{"_id":"5132dd77a288f42e6735b60e","PROVIDER NPI":1326072232,"PROVIDER NAME":"GEFROH ELLISON, STEFANIE","PROVIDER STATE":"North Dakota","PROVIDER CITY":"Fargo","PROVIDER  ADDRESS":"3000 32nd Ave S","PROVIDER ZIP 5 CD":58103,"PROVIDER ZIP 4 CD":6132,"PROVIDER PHONE NUM":7013648000,"PROVIDER PHONE EXT":"","PROGRAM YEAR":2011},"geometry":{"type":"Point","coordinates":[-96.826603,46.832703]}},{"type":"Feature","id":"5132dd77a288f42e6735b60f","properties":{"_id":"5132dd77a288f42e6735b60f","PROVIDER NPI":1699705236,"PROVIDER NAME":"GETZ-KLEIMAN, LINDA","PROVIDER STATE":"North Dakota","PROVIDER CITY":"Fargo","PROVIDER  ADDRESS":"1702 University Dr S","PROVIDER ZIP 5 CD":58103,"PROVIDER ZIP 4 CD":4940,"PROVIDER PHONE NUM":7013643300,"PROVIDER PHONE EXT":"","PROGRAM YEAR":2011},"geometry":{"type":"Point","coordinates":[-96.798533,46.851839]}},{"type":"Feature","id":"5132dd77a288f42e6735b610","properties":{"_id":"5132dd77a288f42e6735b610","PROVIDER NPI":1245242072,"PROVIDER NAME":"Gietzen, Lori","PROVIDER STATE":"North Dakota","PROVIDER CITY":"Bismarck","PROVIDER  ADDRESS":"425 S 7th St","PROVIDER ZIP 5 CD":58504,"PROVIDER ZIP 4 CD":5801,"PROVIDER PHONE NUM":7012588388,"PROVIDER PHONE EXT":"","PROGRAM YEAR":2011},"geometry":{"type":"Point","coordinates":[-100.7816,46.801927]}},{"type":"Feature","id":"5132dd77a288f42e6735b611","properties":{"_id":"5132dd77a288f42e6735b611","PROVIDER NPI":1952331233,"PROVIDER NAME":"GLASNER, GREGORY","PROVIDER STATE":"North Dakota","PROVIDER CITY":"Fargo","PROVIDER  ADDRESS":"3000 32nd Ave S","PROVIDER ZIP 5 CD":58103,"PROVIDER ZIP 4 CD":6132,"PROVIDER PHONE NUM":7013648000,"PROVIDER PHONE EXT":"","PROGRAM YEAR":2011},"geometry":{"type":"Point","coordinates":[-96.826603,46.832703]}},{"type":"Feature","id":"5132dd77a288f42e6735b612","properties":{"_id":"5132dd77a288f42e6735b612","PROVIDER NPI":1124063334,"PROVIDER NAME":"GRIMMETT, GARFIELD","PROVIDER STATE":"North Dakota","PROVIDER CITY":"Fargo","PROVIDER  ADDRESS":"3000 32nd Ave S","PROVIDER ZIP 5 CD":58103,"PROVIDER ZIP 4 CD":6132,"PROVIDER PHONE NUM":7013648000,"PROVIDER PHONE EXT":"","PROGRAM YEAR":2011},"geometry":{"type":"Point","coordinates":[-96.826603,46.832703]}},{"type":"Feature","id":"5132dd77a288f42e6735b613","properties":{"_id":"5132dd77a288f42e6735b613","PROVIDER NPI":1508899139,"PROVIDER NAME":"GUPTA, MAHENDRA","PROVIDER STATE":"North Dakota","PROVIDER CITY":"Fargo","PROVIDER  ADDRESS":"1702 University Dr S","PROVIDER ZIP 5 CD":58103,"PROVIDER ZIP 4 CD":4940,"PROVIDER PHONE NUM":7013643300,"PROVIDER PHONE EXT":"","PROGRAM YEAR":2011},"geometry":{"type":"Point","coordinates":[-96.798533,46.851839]}},{"type":"Feature","id":"5132dd77a288f42e6735b614","properties":{"_id":"5132dd77a288f42e6735b614","PROVIDER NPI":1669483038,"PROVIDER NAME":"gupta, parul","PROVIDER STATE":"North Dakota","PROVIDER CITY":"Fargo","PROVIDER  ADDRESS":"1701 University Dr S","PROVIDER ZIP 5 CD":58103,"PROVIDER ZIP 4 CD":4939,"PROVIDER PHONE NUM":7013643300,"PROVIDER PHONE EXT":"","PROGRAM YEAR":2011},"geometry":{"type":"Point","coordinates":[-96.798533,46.851839]}},{"type":"Feature","id":"5132dd77a288f42e6735b615","properties":{"_id":"5132dd77a288f42e6735b615","PROVIDER NPI":1609856236,"PROVIDER NAME":"Hanstad, Brad","PROVIDER STATE":"North Dakota","PROVIDER CITY":"Dickinson","PROVIDER  ADDRESS":"446 3rd Ave W","PROVIDER ZIP 5 CD":58601,"PROVIDER ZIP 4 CD":4940,"PROVIDER PHONE NUM":7012252020,"PROVIDER PHONE EXT":"","PROGRAM YEAR":2011},"geometry":{"type":"Point","coordinates":[-102.789749,46.883609]}},{"type":"Feature","id":"5132dd77a288f42e6735b616","properties":{"_id":"5132dd77a288f42e6735b616","PROVIDER NPI":1639187636,"PROVIDER NAME":"Hasse, Robert","PROVIDER STATE":"North Dakota","PROVIDER CITY":"West Fargo","PROVIDER  ADDRESS":"205 Sheyenne St","PROVIDER ZIP 5 CD":58078,"PROVIDER ZIP 4 CD":1752,"PROVIDER PHONE NUM":7012822919,"PROVIDER PHONE EXT":"","PROGRAM YEAR":2011},"geometry":{"type":"Point","coordinates":[-96.903957,46.874802]}},{"type":"Feature","id":"5132dd77a288f42e6735b617","properties":{"_id":"5132dd77a288f42e6735b617","PROVIDER NPI":1083643498,"PROVIDER NAME":"HAUGEN, JOEL","PROVIDER STATE":"North Dakota","PROVIDER CITY":"Fargo","PROVIDER  ADDRESS":"3902 13th Ave S","PROVIDER ZIP 5 CD":58103,"PROVIDER ZIP 4 CD":3357,"PROVIDER PHONE NUM":7013646600,"PROVIDER PHONE EXT":"","PROGRAM YEAR":2011},"geometry":{"type":"Point","coordinates":[-96.787854,46.861595]}},{"type":"Feature","id":"5132dd77a288f42e6735b618","properties":{"_id":"5132dd77a288f42e6735b618","PROVIDER NPI":1932160132,"PROVIDER NAME":"Helgeson, Mark","PROVIDER STATE":"North Dakota","PROVIDER CITY":"Park River","PROVIDER  ADDRESS":"121 Briggs Ave N","PROVIDER ZIP 5 CD":58270,"PROVIDER ZIP 4 CD":714,"PROVIDER PHONE NUM":7012847330,"PROVIDER PHONE EXT":"","PROGRAM YEAR":2011},"geometry":{"type":"Point","coordinates":[-97.743438,48.39842]}},{"type":"Feature","id":"5132dd77a288f42e6735b619","properties":{"_id":"5132dd77a288f42e6735b619","PROVIDER NPI":1407954613,"PROVIDER NAME":"Helmers, James","PROVIDER STATE":"North Dakota","PROVIDER CITY":"Mandan","PROVIDER  ADDRESS":"113 3rd Ave NW","PROVIDER ZIP 5 CD":58554,"PROVIDER ZIP 4 CD":3129,"PROVIDER PHONE NUM":7016632020,"PROVIDER PHONE EXT":"","PROGRAM YEAR":2011},"geometry":{"type":"Point","coordinates":[-100.894233,46.825943]}},{"type":"Feature","id":"5132dd77a288f42e6735b61a","properties":{"_id":"5132dd77a288f42e6735b61a","PROVIDER NPI":1740388941,"PROVIDER NAME":"Helmers, John","PROVIDER STATE":"North Dakota","PROVIDER CITY":"Mandan","PROVIDER  ADDRESS":"113 3rd Ave NW","PROVIDER ZIP 5 CD":58554,"PROVIDER ZIP 4 CD":3129,"PROVIDER PHONE NUM":7016632020,"PROVIDER PHONE EXT":"","PROGRAM YEAR":2011},"geometry":{"type":"Point","coordinates":[-100.894233,46.825943]}},{"type":"Feature","id":"5132dd77a288f42e6735b61b","properties":{"_id":"5132dd77a288f42e6735b61b","PROVIDER NPI":1770558249,"PROVIDER NAME":"Hendrickson, Kathy","PROVIDER STATE":"North Dakota","PROVIDER CITY":"Carrington","PROVIDER  ADDRESS":"110 9th Ave S","PROVIDER ZIP 5 CD":58421,"PROVIDER ZIP 4 CD":2020,"PROVIDER PHONE NUM":7016522020,"PROVIDER PHONE EXT":"","PROGRAM YEAR":2011},"geometry":{"type":"Point","coordinates":[-99.124784,47.448452]}},{"type":"Feature","id":"5132dd77a288f42e6735b61c","properties":{"_id":"5132dd77a288f42e6735b61c","PROVIDER NPI":1558685198,"PROVIDER NAME":"HENRY, MICHAEL","PROVIDER STATE":"North Dakota","PROVIDER CITY":"Fargo","PROVIDER  ADDRESS":"3000 32nd Ave S","PROVIDER ZIP 5 CD":58103,"PROVIDER ZIP 4 CD":6132,"PROVIDER PHONE NUM":7013648000,"PROVIDER PHONE EXT":"","PROGRAM YEAR":2011},"geometry":{"type":"Point","coordinates":[-96.826603,46.832703]}},{"type":"Feature","id":"5132dd77a288f42e6735b61d","properties":{"_id":"5132dd77a288f42e6735b61d","PROVIDER NPI":1740215573,"PROVIDER NAME":"HICKS, JOHN","PROVIDER STATE":"North Dakota","PROVIDER CITY":"Fargo","PROVIDER  ADDRESS":"1702 University Dr S","PROVIDER ZIP 5 CD":58103,"PROVIDER ZIP 4 CD":4940,"PROVIDER PHONE NUM":7013643300,"PROVIDER PHONE EXT":"","PROGRAM YEAR":2011},"geometry":{"type":"Point","coordinates":[-96.798533,46.851839]}},{"type":"Feature","id":"5132dd77a288f42e6735b61e","properties":{"_id":"5132dd77a288f42e6735b61e","PROVIDER NPI":1518121615,"PROVIDER NAME":"Hoff, Candace","PROVIDER STATE":"North Dakota","PROVIDER CITY":"Dickinson","PROVIDER  ADDRESS":"341 1st St E","PROVIDER ZIP 5 CD":58601,"PROVIDER ZIP 4 CD":5216,"PROVIDER PHONE NUM":7014839141,"PROVIDER PHONE EXT":"","PROGRAM YEAR":2011},"geometry":{"type":"Point","coordinates":[-102.780561,46.879457]}},{"type":"Feature","id":"5132dd77a288f42e6735b61f","properties":{"_id":"5132dd77a288f42e6735b61f","PROVIDER NPI":1972534642,"PROVIDER NAME":"HOFSOMMER, LEE","PROVIDER STATE":"North Dakota","PROVIDER CITY":"Fargo","PROVIDER  ADDRESS":"1702 University Dr S","PROVIDER ZIP 5 CD":58103,"PROVIDER ZIP 4 CD":4940,"PROVIDER PHONE NUM":7013643300,"PROVIDER PHONE EXT":"","PROGRAM YEAR":2011},"geometry":{"type":"Point","coordinates":[-96.798533,46.851839]}},{"type":"Feature","id":"5132dd77a288f42e6735b620","properties":{"_id":"5132dd77a288f42e6735b620","PROVIDER NPI":1477583664,"PROVIDER NAME":"HOLM, MARY","PROVIDER STATE":"North Dakota","PROVIDER CITY":"Fargo","PROVIDER  ADDRESS":"3000 32nd Ave S","PROVIDER ZIP 5 CD":58103,"PROVIDER ZIP 4 CD":6132,"PROVIDER PHONE NUM":7013648000,"PROVIDER PHONE EXT":"","PROGRAM YEAR":2011},"geometry":{"type":"Point","coordinates":[-96.826603,46.832703]}},{"type":"Feature","id":"5132dd77a288f42e6735b621","properties":{"_id":"5132dd77a288f42e6735b621","PROVIDER NPI":1295770857,"PROVIDER NAME":"HORDVIK, MARIT","PROVIDER STATE":"North Dakota","PROVIDER CITY":"West Fargo","PROVIDER  ADDRESS":"1401 13th Ave E","PROVIDER ZIP 5 CD":58078,"PROVIDER ZIP 4 CD":3468,"PROVIDER PHONE NUM":7013645751,"PROVIDER PHONE EXT":"","PROGRAM YEAR":2011},"geometry":{"type":"Point","coordinates":[-96.877789,46.861957]}},{"type":"Feature","id":"5132dd77a288f42e6735b622","properties":{"_id":"5132dd77a288f42e6735b622","PROVIDER NPI":1689619470,"PROVIDER NAME":"HOWDEN, RICHARD","PROVIDER STATE":"North Dakota","PROVIDER CITY":"West Fargo","PROVIDER  ADDRESS":"1401 13th Ave E","PROVIDER ZIP 5 CD":58078,"PROVIDER ZIP 4 CD":3468,"PROVIDER PHONE NUM":7013645751,"PROVIDER PHONE EXT":"","PROGRAM YEAR":2011},"geometry":{"type":"Point","coordinates":[-96.877789,46.861957]}},{"type":"Feature","id":"5132dd77a288f42e6735b623","properties":{"_id":"5132dd77a288f42e6735b623","PROVIDER NPI":1124043468,"PROVIDER NAME":"JOHNSON, WALTER","PROVIDER STATE":"North Dakota","PROVIDER CITY":"Fargo","PROVIDER  ADDRESS":"1702 University Dr S","PROVIDER ZIP 5 CD":58103,"PROVIDER ZIP 4 CD":4940,"PROVIDER PHONE NUM":7013643300,"PROVIDER PHONE EXT":"","PROGRAM YEAR":2011},"geometry":{"type":"Point","coordinates":[-96.798533,46.851839]}},{"type":"Feature","id":"5132dd77a288f42e6735b624","properties":{"_id":"5132dd77a288f42e6735b624","PROVIDER NPI":1346252178,"PROVIDER NAME":"Kahl, Chad","PROVIDER STATE":"North Dakota","PROVIDER CITY":"Bismarck","PROVIDER  ADDRESS":"425 S 7th St","PROVIDER ZIP 5 CD":58504,"PROVIDER ZIP 4 CD":5801,"PROVIDER PHONE NUM":7012588388,"PROVIDER PHONE EXT":"","PROGRAM YEAR":2011},"geometry":{"type":"Point","coordinates":[-100.7816,46.801927]}},{"type":"Feature","id":"5132dd77a288f42e6735b625","properties":{"_id":"5132dd77a288f42e6735b625","PROVIDER NPI":1548272263,"PROVIDER NAME":"Kahl, Jamie","PROVIDER STATE":"North Dakota","PROVIDER CITY":"Bismarck","PROVIDER  ADDRESS":"425 S 7th St","PROVIDER ZIP 5 CD":58504,"PROVIDER ZIP 4 CD":5801,"PROVIDER PHONE NUM":7012588388,"PROVIDER PHONE EXT":"","PROGRAM YEAR":2011},"geometry":{"type":"Point","coordinates":[-100.7816,46.801927]}},{"type":"Feature","id":"5132dd77a288f42e6735b626","properties":{"_id":"5132dd77a288f42e6735b626","PROVIDER NPI":1730124298,"PROVIDER NAME":"KAMMERER, MATTHEW","PROVIDER STATE":"North Dakota","PROVIDER CITY":"Wahpeton","PROVIDER  ADDRESS":"275 11th St S","PROVIDER ZIP 5 CD":58075,"PROVIDER ZIP 4 CD":4655,"PROVIDER PHONE NUM":7016422000,"PROVIDER PHONE EXT":70167,"PROGRAM YEAR":2011},"geometry":{"type":"Point","coordinates":[-96.615808,46.262354]}},{"type":"Feature","id":"5132dd77a288f42e6735b627","properties":{"_id":"5132dd77a288f42e6735b627","PROVIDER NPI":1306089750,"PROVIDER NAME":"Keating, Anne","PROVIDER STATE":"North Dakota","PROVIDER CITY":"Fargo","PROVIDER  ADDRESS":"1702 University Dr S","PROVIDER ZIP 5 CD":58103,"PROVIDER ZIP 4 CD":4940,"PROVIDER PHONE NUM":7013643300,"PROVIDER PHONE EXT":"","PROGRAM YEAR":2011},"geometry":{"type":"Point","coordinates":[-96.798533,46.851839]}},{"type":"Feature","id":"5132dd77a288f42e6735b628","properties":{"_id":"5132dd77a288f42e6735b628","PROVIDER NPI":1245223023,"PROVIDER NAME":"Kelly, Kimberly","PROVIDER STATE":"North Dakota","PROVIDER CITY":"Fargo","PROVIDER  ADDRESS":"1702 University Dr S","PROVIDER ZIP 5 CD":58103,"PROVIDER ZIP 4 CD":4940,"PROVIDER PHONE NUM":7013643300,"PROVIDER PHONE EXT":"","PROGRAM YEAR":2011},"geometry":{"type":"Point","coordinates":[-96.798533,46.851839]}},{"type":"Feature","id":"5132dd77a288f42e6735b629","properties":{"_id":"5132dd77a288f42e6735b629","PROVIDER NPI":1215967393,"PROVIDER NAME":"KEMPF, THOMAS","PROVIDER STATE":"North Dakota","PROVIDER CITY":"Fargo","PROVIDER  ADDRESS":"1702 University Dr S","PROVIDER ZIP 5 CD":58103,"PROVIDER ZIP 4 CD":4940,"PROVIDER PHONE NUM":7013643300,"PROVIDER PHONE EXT":"","PROGRAM YEAR":2011},"geometry":{"type":"Point","coordinates":[-96.798533,46.851839]}},{"type":"Feature","id":"5132dd77a288f42e6735b62a","properties":{"_id":"5132dd77a288f42e6735b62a","PROVIDER NPI":1538370861,"PROVIDER NAME":"Khan, Irfan","PROVIDER STATE":"North Dakota","PROVIDER CITY":"Fargo","PROVIDER  ADDRESS":"3000 32nd Ave SW, Innovis Health","PROVIDER ZIP 5 CD":58103,"PROVIDER ZIP 4 CD":6132,"PROVIDER PHONE NUM":7013648000,"PROVIDER PHONE EXT":"","PROGRAM YEAR":2011},"geometry":{"type":"Point","coordinates":[-96.826603,46.832703]}},{"type":"Feature","id":"5132dd77a288f42e6735b62b","properties":{"_id":"5132dd77a288f42e6735b62b","PROVIDER NPI":1073779831,"PROVIDER NAME":"Khanal, Binaya","PROVIDER STATE":"North Dakota","PROVIDER CITY":"Fargo","PROVIDER  ADDRESS":"3000 32nd Ave S","PROVIDER ZIP 5 CD":58103,"PROVIDER ZIP 4 CD":6132,"PROVIDER PHONE NUM":7013648000,"PROVIDER PHONE EXT":"","PROGRAM YEAR":2011},"geometry":{"type":"Point","coordinates":[-96.826603,46.832703]}},{"type":"Feature","id":"5132dd77a288f42e6735b62c","properties":{"_id":"5132dd77a288f42e6735b62c","PROVIDER NPI":1487690616,"PROVIDER NAME":"KIDDER, ANNE","PROVIDER STATE":"North Dakota","PROVIDER CITY":"Fargo","PROVIDER  ADDRESS":"3902 13th Ave S","PROVIDER ZIP 5 CD":58103,"PROVIDER ZIP 4 CD":3357,"PROVIDER PHONE NUM":7013646600,"PROVIDER PHONE EXT":"","PROGRAM YEAR":2011},"geometry":{"type":"Point","coordinates":[-96.787854,46.861595]}},{"type":"Feature","id":"5132dd77a288f42e6735b62d","properties":{"_id":"5132dd77a288f42e6735b62d","PROVIDER NPI":1053422097,"PROVIDER NAME":"KIHTIR, SENA","PROVIDER STATE":"North Dakota","PROVIDER CITY":"Bismarck","PROVIDER  ADDRESS":"222 N 7th St","PROVIDER ZIP 5 CD":58501,"PROVIDER ZIP 4 CD":4436,"PROVIDER PHONE NUM":7013236000,"PROVIDER PHONE EXT":"","PROGRAM YEAR":2011},"geometry":{"type":"Point","coordinates":[-100.78165,46.806658]}},{"type":"Feature","id":"5132dd77a288f42e6735b62e","properties":{"_id":"5132dd77a288f42e6735b62e","PROVIDER NPI":1922079821,"PROVIDER NAME":"King, Alan","PROVIDER STATE":"North Dakota","PROVIDER CITY":"Dickinson","PROVIDER  ADDRESS":"341 1st St E","PROVIDER ZIP 5 CD":58601,"PROVIDER ZIP 4 CD":5216,"PROVIDER PHONE NUM":7014839141,"PROVIDER PHONE EXT":"","PROGRAM YEAR":2011},"geometry":{"type":"Point","coordinates":[-102.780561,46.879457]}},{"type":"Feature","id":"5132dd77a288f42e6735b62f","properties":{"_id":"5132dd77a288f42e6735b62f","PROVIDER NPI":1659477206,"PROVIDER NAME":"Krein, Kyle","PROVIDER STATE":"North Dakota","PROVIDER CITY":"Devils Lake","PROVIDER  ADDRESS":"404 Hwy 2 East","PROVIDER ZIP 5 CD":58301,"PROVIDER ZIP 4 CD":130,"PROVIDER PHONE NUM":7016624085,"PROVIDER PHONE EXT":"","PROGRAM YEAR":2011},"geometry":{"type":"Point","coordinates":[-98.856601,48.100687]}},{"type":"Feature","id":"5132dd77a288f42e6735b630","properties":{"_id":"5132dd77a288f42e6735b630","PROVIDER NPI":1316989882,"PROVIDER NAME":"KUHLMANN, CRAIG","PROVIDER STATE":"North Dakota","PROVIDER CITY":"West Fargo","PROVIDER  ADDRESS":"1401 13th Ave E","PROVIDER ZIP 5 CD":58078,"PROVIDER ZIP 4 CD":3468,"PROVIDER PHONE NUM":7013645751,"PROVIDER PHONE EXT":"","PROGRAM YEAR":2011},"geometry":{"type":"Point","coordinates":[-96.877789,46.861957]}},{"type":"Feature","id":"5132dd77a288f42e6735b631","properties":{"_id":"5132dd77a288f42e6735b631","PROVIDER NPI":1487661351,"PROVIDER NAME":"LAMPL, SHILA","PROVIDER STATE":"North Dakota","PROVIDER CITY":"Wahpeton","PROVIDER  ADDRESS":"275 11th St S","PROVIDER ZIP 5 CD":58075,"PROVIDER ZIP 4 CD":4655,"PROVIDER PHONE NUM":7016422000,"PROVIDER PHONE EXT":"","PROGRAM YEAR":2011},"geometry":{"type":"Point","coordinates":[-96.615808,46.262354]}},{"type":"Feature","id":"5132dd77a288f42e6735b632","properties":{"_id":"5132dd77a288f42e6735b632","PROVIDER NPI":1457381212,"PROVIDER NAME":"LANTZ, STEVEN","PROVIDER STATE":"North Dakota","PROVIDER CITY":"Fargo","PROVIDER  ADDRESS":"3000 32nd Ave S","PROVIDER ZIP 5 CD":58103,"PROVIDER ZIP 4 CD":6132,"PROVIDER PHONE NUM":7013648000,"PROVIDER PHONE EXT":"","PROGRAM YEAR":2011},"geometry":{"type":"Point","coordinates":[-96.826603,46.832703]}},{"type":"Feature","id":"5132dd77a288f42e6735b633","properties":{"_id":"5132dd77a288f42e6735b633","PROVIDER NPI":1588690903,"PROVIDER NAME":"LAQUA, PATRICIA","PROVIDER STATE":"North Dakota","PROVIDER CITY":"Fargo","PROVIDER  ADDRESS":"3902 13th Ave S","PROVIDER ZIP 5 CD":58103,"PROVIDER ZIP 4 CD":3357,"PROVIDER PHONE NUM":7013646600,"PROVIDER PHONE EXT":"","PROGRAM YEAR":2011},"geometry":{"type":"Point","coordinates":[-96.787854,46.861595]}},{"type":"Feature","id":"5132dd77a288f42e6735b634","properties":{"_id":"5132dd77a288f42e6735b634","PROVIDER NPI":1326064015,"PROVIDER NAME":"Li, Anson","PROVIDER STATE":"North Dakota","PROVIDER CITY":"Jamestown","PROVIDER  ADDRESS":"401 3rd St SE","PROVIDER ZIP 5 CD":58401,"PROVIDER ZIP 4 CD":4247,"PROVIDER PHONE NUM":7012535300,"PROVIDER PHONE EXT":"","PROGRAM YEAR":2011},"geometry":{"type":"Point","coordinates":[-98.703853,46.906349]}},{"type":"Feature","id":"5132dd77a288f42e6735b635","properties":{"_id":"5132dd77a288f42e6735b635","PROVIDER NPI":1891894564,"PROVIDER NAME":"Long, Daniel","PROVIDER STATE":"North Dakota","PROVIDER CITY":"Mandan","PROVIDER  ADDRESS":"113 3rd Ave NW","PROVIDER ZIP 5 CD":58554,"PROVIDER ZIP 4 CD":3129,"PROVIDER PHONE NUM":7016632020,"PROVIDER PHONE EXT":"","PROGRAM YEAR":2011},"geometry":{"type":"Point","coordinates":[-100.894233,46.825943]}},{"type":"Feature","id":"5132dd77a288f42e6735b636","properties":{"_id":"5132dd77a288f42e6735b636","PROVIDER NPI":1275550949,"PROVIDER NAME":"LUGER, PATRICK","PROVIDER STATE":"North Dakota","PROVIDER CITY":"Fargo","PROVIDER  ADDRESS":"1702 University Dr S","PROVIDER ZIP 5 CD":58103,"PROVIDER ZIP 4 CD":4940,"PROVIDER PHONE NUM":7013643300,"PROVIDER PHONE EXT":"","PROGRAM YEAR":2011},"geometry":{"type":"Point","coordinates":[-96.798533,46.851839]}},{"type":"Feature","id":"5132dd77a288f42e6735b637","properties":{"_id":"5132dd77a288f42e6735b637","PROVIDER NPI":1689608192,"PROVIDER NAME":"MAHONEY, TIMOTHY","PROVIDER STATE":"North Dakota","PROVIDER CITY":"Fargo","PROVIDER  ADDRESS":"3000 32nd Ave S","PROVIDER ZIP 5 CD":58103,"PROVIDER ZIP 4 CD":6132,"PROVIDER PHONE NUM":7013648000,"PROVIDER PHONE EXT":"","PROGRAM YEAR":2011},"geometry":{"type":"Point","coordinates":[-96.826603,46.832703]}},{"type":"Feature","id":"5132dd77a288f42e6735b638","properties":{"_id":"5132dd77a288f42e6735b638","PROVIDER NPI":1952469165,"PROVIDER NAME":"MATHISON, SUSAN","PROVIDER STATE":"North Dakota","PROVIDER CITY":"Fargo","PROVIDER  ADDRESS":"1800 21st Ave S","PROVIDER ZIP 5 CD":58103,"PROVIDER ZIP 4 CD":"","PROVIDER PHONE NUM":7013658700,"PROVIDER PHONE EXT":"","PROGRAM YEAR":2011},"geometry":{"type":"Point","coordinates":[-96.869159,46.848849]}},{"type":"Feature","id":"5132dd77a288f42e6735b639","properties":{"_id":"5132dd77a288f42e6735b639","PROVIDER NPI":1699706358,"PROVIDER NAME":"MATTHEES, DONALD","PROVIDER STATE":"North Dakota","PROVIDER CITY":"Fargo","PROVIDER  ADDRESS":"3000 32nd Ave S","PROVIDER ZIP 5 CD":58103,"PROVIDER ZIP 4 CD":6132,"PROVIDER PHONE NUM":7013648000,"PROVIDER PHONE EXT":"","PROGRAM YEAR":2011},"geometry":{"type":"Point","coordinates":[-96.826603,46.832703]}},{"type":"Feature","id":"5132dd77a288f42e6735b63a","properties":{"_id":"5132dd77a288f42e6735b63a","PROVIDER NPI":1033134374,"PROVIDER NAME":"METZGER, TODD","PROVIDER STATE":"North Dakota","PROVIDER CITY":"Fargo","PROVIDER  ADDRESS":"1702 University Dr S","PROVIDER ZIP 5 CD":58103,"PROVIDER ZIP 4 CD":4940,"PROVIDER PHONE NUM":7013643300,"PROVIDER PHONE EXT":"","PROGRAM YEAR":2011},"geometry":{"type":"Point","coordinates":[-96.798533,46.851839]}},{"type":"Feature","id":"5132dd77a288f42e6735b63b","properties":{"_id":"5132dd77a288f42e6735b63b","PROVIDER NPI":1841374030,"PROVIDER NAME":"Midgarden, Kristi","PROVIDER STATE":"North Dakota","PROVIDER CITY":"Park River","PROVIDER  ADDRESS":"503 Park St W","PROVIDER ZIP 5 CD":58270,"PROVIDER ZIP 4 CD":4103,"PROVIDER PHONE NUM":7012846663,"PROVIDER PHONE EXT":"","PROGRAM YEAR":2011},"geometry":{"type":"Point","coordinates":[-97.718994,48.398195]}},{"type":"Feature","id":"5132dd77a288f42e6735b63c","properties":{"_id":"5132dd77a288f42e6735b63c","PROVIDER NPI":1124124623,"PROVIDER NAME":"Moen, Mark","PROVIDER STATE":"North Dakota","PROVIDER CITY":"Devils Lake","PROVIDER  ADDRESS":"404 Hwy 2 East, PO Box 130","PROVIDER ZIP 5 CD":58301,"PROVIDER ZIP 4 CD":130,"PROVIDER PHONE NUM":7016624085,"PROVIDER PHONE EXT":"","PROGRAM YEAR":2011},"geometry":{"type":"Point","coordinates":[-98.86667,48.1]}},{"type":"Feature","id":"5132dd77a288f42e6735b63d","properties":{"_id":"5132dd77a288f42e6735b63d","PROVIDER NPI":1427085836,"PROVIDER NAME":"MOHS, THOMAS","PROVIDER STATE":"North Dakota","PROVIDER CITY":"Wahpeton","PROVIDER  ADDRESS":"275 11th St S","PROVIDER ZIP 5 CD":58075,"PROVIDER ZIP 4 CD":4655,"PROVIDER PHONE NUM":7016422000,"PROVIDER PHONE EXT":"","PROGRAM YEAR":2011},"geometry":{"type":"Point","coordinates":[-96.615808,46.262354]}},{"type":"Feature","id":"5132dd77a288f42e6735b63e","properties":{"_id":"5132dd77a288f42e6735b63e","PROVIDER NPI":1578575353,"PROVIDER NAME":"Nagel, Timothy","PROVIDER STATE":"North Dakota","PROVIDER CITY":"Bismarck","PROVIDER  ADDRESS":"425 S 7th St","PROVIDER ZIP 5 CD":58504,"PROVIDER ZIP 4 CD":5801,"PROVIDER PHONE NUM":7012588388,"PROVIDER PHONE EXT":"","PROGRAM YEAR":2011},"geometry":{"type":"Point","coordinates":[-100.7816,46.801927]}},{"type":"Feature","id":"5132dd77a288f42e6735b63f","properties":{"_id":"5132dd77a288f42e6735b63f","PROVIDER NPI":1922039684,"PROVIDER NAME":"NAMMOUR, FADEL","PROVIDER STATE":"North Dakota","PROVIDER CITY":"Fargo","PROVIDER  ADDRESS":"3000 32nd Ave S","PROVIDER ZIP 5 CD":58103,"PROVIDER ZIP 4 CD":6132,"PROVIDER PHONE NUM":7013648000,"PROVIDER PHONE EXT":"","PROGRAM YEAR":2011},"geometry":{"type":"Point","coordinates":[-96.826603,46.832703]}},{"type":"Feature","id":"5132dd77a288f42e6735b640","properties":{"_id":"5132dd77a288f42e6735b640","PROVIDER NPI":1871753905,"PROVIDER NAME":"Nasrallah, Fady","PROVIDER STATE":"North Dakota","PROVIDER CITY":"Fargo","PROVIDER  ADDRESS":"3000 32nd Ave S","PROVIDER ZIP 5 CD":58103,"PROVIDER ZIP 4 CD":6132,"PROVIDER PHONE NUM":7013648000,"PROVIDER PHONE EXT":"","PROGRAM YEAR":2011},"geometry":{"type":"Point","coordinates":[-96.826603,46.832703]}},{"type":"Feature","id":"5132dd77a288f42e6735b641","properties":{"_id":"5132dd77a288f42e6735b641","PROVIDER NPI":1639149891,"PROVIDER NAME":"Nelson, Jay","PROVIDER STATE":"North Dakota","PROVIDER CITY":"Dickinson","PROVIDER  ADDRESS":"446 3rd Ave W","PROVIDER ZIP 5 CD":58601,"PROVIDER ZIP 4 CD":4940,"PROVIDER PHONE NUM":7012252020,"PROVIDER PHONE EXT":"","PROGRAM YEAR":2011},"geometry":{"type":"Point","coordinates":[-102.789749,46.883609]}},{"type":"Feature","id":"5132dd77a288f42e6735b642","properties":{"_id":"5132dd77a288f42e6735b642","PROVIDER NPI":1174617732,"PROVIDER NAME":"NELSON, SUSAN","PROVIDER STATE":"North Dakota","PROVIDER CITY":"Wahpeton","PROVIDER  ADDRESS":"275 11th St S","PROVIDER ZIP 5 CD":58075,"PROVIDER ZIP 4 CD":4655,"PROVIDER PHONE NUM":7016422000,"PROVIDER PHONE EXT":"","PROGRAM YEAR":2011},"geometry":{"type":"Point","coordinates":[-96.615808,46.262354]}},{"type":"Feature","id":"5132dd77a288f42e6735b643","properties":{"_id":"5132dd77a288f42e6735b643","PROVIDER NPI":1295747996,"PROVIDER NAME":"Ness, Angela","PROVIDER STATE":"North Dakota","PROVIDER CITY":"Bismarck","PROVIDER  ADDRESS":"425 S 7th St","PROVIDER ZIP 5 CD":58504,"PROVIDER ZIP 4 CD":5801,"PROVIDER PHONE NUM":7012588388,"PROVIDER PHONE EXT":"","PROGRAM YEAR":2011},"geometry":{"type":"Point","coordinates":[-100.7816,46.801927]}},{"type":"Feature","id":"5132dd77a288f42e6735b644","properties":{"_id":"5132dd77a288f42e6735b644","PROVIDER NPI":1649382292,"PROVIDER NAME":"Noyes, William","PROVIDER STATE":"North Dakota","PROVIDER CITY":"Grand Forks","PROVIDER  ADDRESS":"1451 44th Ave S, Unit E","PROVIDER ZIP 5 CD":58201,"PROVIDER ZIP 4 CD":3434,"PROVIDER PHONE NUM":7017875800,"PROVIDER PHONE EXT":"","PROGRAM YEAR":2011},"geometry":{"type":"Point","coordinates":[-97.04805,47.878348]}},{"type":"Feature","id":"5132dd77a288f42e6735b645","properties":{"_id":"5132dd77a288f42e6735b645","PROVIDER NPI":1083632673,"PROVIDER NAME":"OSTLIE, DANIEL","PROVIDER STATE":"North Dakota","PROVIDER CITY":"Fargo","PROVIDER  ADDRESS":"3000 32nd Ave S","PROVIDER ZIP 5 CD":58103,"PROVIDER ZIP 4 CD":6132,"PROVIDER PHONE NUM":7013648000,"PROVIDER PHONE EXT":"","PROGRAM YEAR":2011},"geometry":{"type":"Point","coordinates":[-96.826603,46.832703]}},{"type":"Feature","id":"5132dd77a288f42e6735b646","properties":{"_id":"5132dd77a288f42e6735b646","PROVIDER NPI":1326057043,"PROVIDER NAME":"Overvold, Angel","PROVIDER STATE":"North Dakota","PROVIDER CITY":"JAMESTOWN","PROVIDER  ADDRESS":"401 3RD STREET SOUTHEAST","PROVIDER ZIP 5 CD":58401,"PROVIDER ZIP 4 CD":"","PROVIDER PHONE NUM":7012535300,"PROVIDER PHONE EXT":"","PROGRAM YEAR":2011},"geometry":{"type":"Point","coordinates":[-98.703853,46.906349]}},{"type":"Feature","id":"5132dd77a288f42e6735b647","properties":{"_id":"5132dd77a288f42e6735b647","PROVIDER NPI":1457396822,"PROVIDER NAME":"PANKOW, DAWN","PROVIDER STATE":"North Dakota","PROVIDER CITY":"Wahpeton","PROVIDER  ADDRESS":"275 11th St S","PROVIDER ZIP 5 CD":58075,"PROVIDER ZIP 4 CD":4655,"PROVIDER PHONE NUM":7016422000,"PROVIDER PHONE EXT":"","PROGRAM YEAR":2011},"geometry":{"type":"Point","coordinates":[-96.615808,46.262354]}},{"type":"Feature","id":"5132dd77a288f42e6735b648","properties":{"_id":"5132dd77a288f42e6735b648","PROVIDER NPI":1962437780,"PROVIDER NAME":"PATRON, ROBERTO","PROVIDER STATE":"North Dakota","PROVIDER CITY":"Fargo","PROVIDER  ADDRESS":"3000 32nd Ave S","PROVIDER ZIP 5 CD":58103,"PROVIDER ZIP 4 CD":6132,"PROVIDER PHONE NUM":7013648000,"PROVIDER PHONE EXT":"","PROGRAM YEAR":2011},"geometry":{"type":"Point","coordinates":[-96.826603,46.832703]}},{"type":"Feature","id":"5132dd77a288f42e6735b649","properties":{"_id":"5132dd77a288f42e6735b649","PROVIDER NPI":1366423048,"PROVIDER NAME":"Penney, Curtis","PROVIDER STATE":"North Dakota","PROVIDER CITY":"Fargo","PROVIDER  ADDRESS":"3000 32nd Ave S","PROVIDER ZIP 5 CD":58103,"PROVIDER ZIP 4 CD":6132,"PROVIDER PHONE NUM":7013648000,"PROVIDER PHONE EXT":"","PROGRAM YEAR":2011},"geometry":{"type":"Point","coordinates":[-96.826603,46.832703]}},{"type":"Feature","id":"5132dd77a288f42e6735b64a","properties":{"_id":"5132dd77a288f42e6735b64a","PROVIDER NPI":1770522351,"PROVIDER NAME":"Peterson, Margaret","PROVIDER STATE":"North Dakota","PROVIDER CITY":"Enderlin","PROVIDER  ADDRESS":"207 Broadway St","PROVIDER ZIP 5 CD":58027,"PROVIDER ZIP 4 CD":1201,"PROVIDER PHONE NUM":7014373888,"PROVIDER PHONE EXT":"","PROGRAM YEAR":2011},"geometry":{"type":"Point","coordinates":[-97.603208,46.627742]}},{"type":"Feature","id":"5132dd77a288f42e6735b64b","properties":{"_id":"5132dd77a288f42e6735b64b","PROVIDER NPI":1043489925,"PROVIDER NAME":"Przymus, David","PROVIDER STATE":"North Dakota","PROVIDER CITY":"Dickinson","PROVIDER  ADDRESS":"446 3rd Ave W","PROVIDER ZIP 5 CD":58601,"PROVIDER ZIP 4 CD":4940,"PROVIDER PHONE NUM":7012252020,"PROVIDER PHONE EXT":"","PROGRAM YEAR":2011},"geometry":{"type":"Point","coordinates":[-102.789749,46.883609]}},{"type":"Feature","id":"5132dd77a288f42e6735b64c","properties":{"_id":"5132dd77a288f42e6735b64c","PROVIDER NPI":1518997691,"PROVIDER NAME":"QARNI, AHMER","PROVIDER STATE":"North Dakota","PROVIDER CITY":"Fargo","PROVIDER  ADDRESS":"3000 32nd Ave S","PROVIDER ZIP 5 CD":58103,"PROVIDER ZIP 4 CD":6132,"PROVIDER PHONE NUM":7013648000,"PROVIDER PHONE EXT":"","PROGRAM YEAR":2011},"geometry":{"type":"Point","coordinates":[-96.826603,46.832703]}},{"type":"Feature","id":"5132dd77a288f42e6735b64d","properties":{"_id":"5132dd77a288f42e6735b64d","PROVIDER NPI":1992735757,"PROVIDER NAME":"RAJENDER, SETTIHALLI","PROVIDER STATE":"North Dakota","PROVIDER CITY":"Fargo","PROVIDER  ADDRESS":"3000 32nd Ave S","PROVIDER ZIP 5 CD":58103,"PROVIDER ZIP 4 CD":6132,"PROVIDER PHONE NUM":7013648000,"PROVIDER PHONE EXT":"","PROGRAM YEAR":2011},"geometry":{"type":"Point","coordinates":[-96.826603,46.832703]}},{"type":"Feature","id":"5132dd77a288f42e6735b64e","properties":{"_id":"5132dd77a288f42e6735b64e","PROVIDER NPI":1699700625,"PROVIDER NAME":"RAU, KEITH","PROVIDER STATE":"North Dakota","PROVIDER CITY":"Fargo","PROVIDER  ADDRESS":"1702 University Dr S","PROVIDER ZIP 5 CD":58103,"PROVIDER ZIP 4 CD":4940,"PROVIDER PHONE NUM":7013643300,"PROVIDER PHONE EXT":"","PROGRAM YEAR":2011},"geometry":{"type":"Point","coordinates":[-96.798533,46.851839]}},{"type":"Feature","id":"5132dd77a288f42e6735b64f","properties":{"_id":"5132dd77a288f42e6735b64f","PROVIDER NPI":1346258340,"PROVIDER NAME":"Redington, Bruce","PROVIDER STATE":"North Dakota","PROVIDER CITY":"West Fargo","PROVIDER  ADDRESS":"205 Sheyenne St","PROVIDER ZIP 5 CD":58078,"PROVIDER ZIP 4 CD":1752,"PROVIDER PHONE NUM":7012822919,"PROVIDER PHONE EXT":"","PROGRAM YEAR":2011},"geometry":{"type":"Point","coordinates":[-96.903957,46.874802]}},{"type":"Feature","id":"5132dd77a288f42e6735b650","properties":{"_id":"5132dd77a288f42e6735b650","PROVIDER NPI":1285642280,"PROVIDER NAME":"Redington, Jonathon","PROVIDER STATE":"North Dakota","PROVIDER CITY":"West Fargo","PROVIDER  ADDRESS":"205 Sheyenne St","PROVIDER ZIP 5 CD":58078,"PROVIDER ZIP 4 CD":1752,"PROVIDER PHONE NUM":7012822919,"PROVIDER PHONE EXT":"","PROGRAM YEAR":2011},"geometry":{"type":"Point","coordinates":[-96.903957,46.874802]}},{"type":"Feature","id":"5132dd77a288f42e6735b651","properties":{"_id":"5132dd77a288f42e6735b651","PROVIDER NPI":1629285531,"PROVIDER NAME":"REGMI, SUMAN","PROVIDER STATE":"North Dakota","PROVIDER CITY":"Wahpeton","PROVIDER  ADDRESS":"275 11th St S","PROVIDER ZIP 5 CD":58075,"PROVIDER ZIP 4 CD":4655,"PROVIDER PHONE NUM":7016422000,"PROVIDER PHONE EXT":"","PROGRAM YEAR":2011},"geometry":{"type":"Point","coordinates":[-96.615808,46.262354]}},{"type":"Feature","id":"5132dd77a288f42e6735b652","properties":{"_id":"5132dd77a288f42e6735b652","PROVIDER NPI":1578598553,"PROVIDER NAME":"ROHLA, RICHARD","PROVIDER STATE":"North Dakota","PROVIDER CITY":"Fargo","PROVIDER  ADDRESS":"1702 University Dr S","PROVIDER ZIP 5 CD":58103,"PROVIDER ZIP 4 CD":4940,"PROVIDER PHONE NUM":7013643300,"PROVIDER PHONE EXT":"","PROGRAM YEAR":2011},"geometry":{"type":"Point","coordinates":[-96.798533,46.851839]}},{"type":"Feature","id":"5132dd77a288f42e6735b653","properties":{"_id":"5132dd77a288f42e6735b653","PROVIDER NPI":1942221163,"PROVIDER NAME":"ROSTAD, CHRISTINA","PROVIDER STATE":"North Dakota","PROVIDER CITY":"Fargo","PROVIDER  ADDRESS":"1702 South University Drive","PROVIDER ZIP 5 CD":58103,"PROVIDER ZIP 4 CD":"","PROVIDER PHONE NUM":7013643300,"PROVIDER PHONE EXT":"","PROGRAM YEAR":2011},"geometry":{"type":"Point","coordinates":[-96.798447,46.861571]}},{"type":"Feature","id":"5132dd77a288f42e6735b654","properties":{"_id":"5132dd77a288f42e6735b654","PROVIDER NPI":1619915998,"PROVIDER NAME":"ROWE, SCOTT","PROVIDER STATE":"North Dakota","PROVIDER CITY":"Jamestown","PROVIDER  ADDRESS":"401 3rd St SE","PROVIDER ZIP 5 CD":58401,"PROVIDER ZIP 4 CD":4247,"PROVIDER PHONE NUM":7012535300,"PROVIDER PHONE EXT":"","PROGRAM YEAR":2011},"geometry":{"type":"Point","coordinates":[-98.703853,46.906349]}},{"type":"Feature","id":"5132dd77a288f42e6735b655","properties":{"_id":"5132dd77a288f42e6735b655","PROVIDER NPI":1427083401,"PROVIDER NAME":"SCHEEL, LORI","PROVIDER STATE":"North Dakota","PROVIDER CITY":"Fargo","PROVIDER  ADDRESS":"1702 University Dr S","PROVIDER ZIP 5 CD":58103,"PROVIDER ZIP 4 CD":4940,"PROVIDER PHONE NUM":7013643300,"PROVIDER PHONE EXT":"","PROGRAM YEAR":2011},"geometry":{"type":"Point","coordinates":[-96.798533,46.851839]}},{"type":"Feature","id":"5132dd77a288f42e6735b656","properties":{"_id":"5132dd77a288f42e6735b656","PROVIDER NPI":1598832701,"PROVIDER NAME":"Schoepp, Debra","PROVIDER STATE":"North Dakota","PROVIDER CITY":"Mandan","PROVIDER  ADDRESS":"405 Burlington St SE","PROVIDER ZIP 5 CD":58554,"PROVIDER ZIP 4 CD":"","PROVIDER PHONE NUM":7016676290,"PROVIDER PHONE EXT":"","PROGRAM YEAR":2011},"geometry":{"type":"Point","coordinates":[-100.883605,46.824251]}},{"type":"Feature","id":"5132dd77a288f42e6735b657","properties":{"_id":"5132dd77a288f42e6735b657","PROVIDER NPI":1558677690,"PROVIDER NAME":"Sehgal, Bantoo","PROVIDER STATE":"North Dakota","PROVIDER CITY":"Fargo","PROVIDER  ADDRESS":"3000 32nd Ave S","PROVIDER ZIP 5 CD":58103,"PROVIDER ZIP 4 CD":6132,"PROVIDER PHONE NUM":7013648000,"PROVIDER PHONE EXT":"","PROGRAM YEAR":2011},"geometry":{"type":"Point","coordinates":[-96.826603,46.832703]}},{"type":"Feature","id":"5132dd77a288f42e6735b658","properties":{"_id":"5132dd77a288f42e6735b658","PROVIDER NPI":1104018225,"PROVIDER NAME":"Shahzad, Farooq","PROVIDER STATE":"North Dakota","PROVIDER CITY":"Fargo","PROVIDER  ADDRESS":"3000 32nd Ave S","PROVIDER ZIP 5 CD":58103,"PROVIDER ZIP 4 CD":6132,"PROVIDER PHONE NUM":7013648000,"PROVIDER PHONE EXT":"","PROGRAM YEAR":2011},"geometry":{"type":"Point","coordinates":[-96.826603,46.832703]}},{"type":"Feature","id":"5132dd77a288f42e6735b659","properties":{"_id":"5132dd77a288f42e6735b659","PROVIDER NPI":1487689469,"PROVIDER NAME":"SHELDON, MICHAEL","PROVIDER STATE":"North Dakota","PROVIDER CITY":"Fargo","PROVIDER  ADDRESS":"1702 University Dr S","PROVIDER ZIP 5 CD":58103,"PROVIDER ZIP 4 CD":4940,"PROVIDER PHONE NUM":7013643300,"PROVIDER PHONE EXT":"","PROGRAM YEAR":2011},"geometry":{"type":"Point","coordinates":[-96.798533,46.851839]}},{"type":"Feature","id":"5132dd77a288f42e6735b65a","properties":{"_id":"5132dd77a288f42e6735b65a","PROVIDER NPI":1942233432,"PROVIDER NAME":"SIKKINK, KARI","PROVIDER STATE":"North Dakota","PROVIDER CITY":"Fargo","PROVIDER  ADDRESS":"3902 13th Avenue South","PROVIDER ZIP 5 CD":58103,"PROVIDER ZIP 4 CD":"","PROVIDER PHONE NUM":7013646600,"PROVIDER PHONE EXT":"","PROGRAM YEAR":2011},"geometry":{"type":"Point","coordinates":[-96.787854,46.861595]}},{"type":"Feature","id":"5132dd77a288f42e6735b65b","properties":{"_id":"5132dd77a288f42e6735b65b","PROVIDER NPI":1891802278,"PROVIDER NAME":"Skogen, Jeffrey","PROVIDER STATE":"North Dakota","PROVIDER CITY":"Fargo","PROVIDER  ADDRESS":"3000 32nd Ave S","PROVIDER ZIP 5 CD":58103,"PROVIDER ZIP 4 CD":6132,"PROVIDER PHONE NUM":7013648000,"PROVIDER PHONE EXT":"","PROGRAM YEAR":2011},"geometry":{"type":"Point","coordinates":[-96.826603,46.832703]}},{"type":"Feature","id":"5132dd77a288f42e6735b65c","properties":{"_id":"5132dd77a288f42e6735b65c","PROVIDER NPI":1184652414,"PROVIDER NAME":"SLECKMAN, JOSEPH","PROVIDER STATE":"North Dakota","PROVIDER CITY":"Fargo","PROVIDER  ADDRESS":"1702 University Dr S","PROVIDER ZIP 5 CD":58103,"PROVIDER ZIP 4 CD":4940,"PROVIDER PHONE NUM":7013643300,"PROVIDER PHONE EXT":"","PROGRAM YEAR":2011},"geometry":{"type":"Point","coordinates":[-96.798533,46.851839]}},{"type":"Feature","id":"5132dd77a288f42e6735b65d","properties":{"_id":"5132dd77a288f42e6735b65d","PROVIDER NPI":1336170265,"PROVIDER NAME":"SOLLOM, DENNIS","PROVIDER STATE":"North Dakota","PROVIDER CITY":"Fargo","PROVIDER  ADDRESS":"1702 University Dr S","PROVIDER ZIP 5 CD":58103,"PROVIDER ZIP 4 CD":4940,"PROVIDER PHONE NUM":7013643300,"PROVIDER PHONE EXT":"","PROGRAM YEAR":2011},"geometry":{"type":"Point","coordinates":[-96.798533,46.851839]}},{"type":"Feature","id":"5132dd77a288f42e6735b65e","properties":{"_id":"5132dd77a288f42e6735b65e","PROVIDER NPI":1871521245,"PROVIDER NAME":"STRAND, DUANE","PROVIDER STATE":"North Dakota","PROVIDER CITY":"Wahpeton","PROVIDER  ADDRESS":"275 11th St S","PROVIDER ZIP 5 CD":58075,"PROVIDER ZIP 4 CD":4655,"PROVIDER PHONE NUM":7016422000,"PROVIDER PHONE EXT":"","PROGRAM YEAR":2011},"geometry":{"type":"Point","coordinates":[-96.615808,46.262354]}},{"type":"Feature","id":"5132dd77a288f42e6735b65f","properties":{"_id":"5132dd77a288f42e6735b65f","PROVIDER NPI":1639108814,"PROVIDER NAME":"STRINDEN, STEVEN","PROVIDER STATE":"North Dakota","PROVIDER CITY":"Fargo","PROVIDER  ADDRESS":"3000 32nd Ave S","PROVIDER ZIP 5 CD":58103,"PROVIDER ZIP 4 CD":6132,"PROVIDER PHONE NUM":7013648000,"PROVIDER PHONE EXT":"","PROGRAM YEAR":2011},"geometry":{"type":"Point","coordinates":[-96.826603,46.832703]}},{"type":"Feature","id":"5132dd77a288f42e6735b660","properties":{"_id":"5132dd77a288f42e6735b660","PROVIDER NPI":1639181464,"PROVIDER NAME":"Ten Broek, Sheri","PROVIDER STATE":"North Dakota","PROVIDER CITY":"Bismarck","PROVIDER  ADDRESS":"425 S 7th St","PROVIDER ZIP 5 CD":58504,"PROVIDER ZIP 4 CD":5801,"PROVIDER PHONE NUM":7012588388,"PROVIDER PHONE EXT":"","PROGRAM YEAR":2011},"geometry":{"type":"Point","coordinates":[-100.7816,46.801927]}},{"type":"Feature","id":"5132dd77a288f42e6735b661","properties":{"_id":"5132dd77a288f42e6735b661","PROVIDER NPI":1346285541,"PROVIDER NAME":"TEPASTTE, MICHELLE","PROVIDER STATE":"North Dakota","PROVIDER CITY":"Wahpeton","PROVIDER  ADDRESS":"275 11th St S","PROVIDER ZIP 5 CD":58075,"PROVIDER ZIP 4 CD":4655,"PROVIDER PHONE NUM":7016422000,"PROVIDER PHONE EXT":"","PROGRAM YEAR":2011},"geometry":{"type":"Point","coordinates":[-96.615808,46.262354]}},{"type":"Feature","id":"5132dd77a288f42e6735b662","properties":{"_id":"5132dd77a288f42e6735b662","PROVIDER NPI":1871539304,"PROVIDER NAME":"TOPLEY, STUART","PROVIDER STATE":"North Dakota","PROVIDER CITY":"Fargo","PROVIDER  ADDRESS":"3902 13th Ave S","PROVIDER ZIP 5 CD":58103,"PROVIDER ZIP 4 CD":3357,"PROVIDER PHONE NUM":7013646600,"PROVIDER PHONE EXT":"","PROGRAM YEAR":2011},"geometry":{"type":"Point","coordinates":[-96.787854,46.861595]}},{"type":"Feature","id":"5132dd77a288f42e6735b663","properties":{"_id":"5132dd77a288f42e6735b663","PROVIDER NPI":1316986649,"PROVIDER NAME":"TORRANCE, JAMES","PROVIDER STATE":"North Dakota","PROVIDER CITY":"Jamestown","PROVIDER  ADDRESS":"401 3rd St SE","PROVIDER ZIP 5 CD":58401,"PROVIDER ZIP 4 CD":4247,"PROVIDER PHONE NUM":7012535300,"PROVIDER PHONE EXT":"","PROGRAM YEAR":2011},"geometry":{"type":"Point","coordinates":[-98.703853,46.906349]}},{"type":"Feature","id":"5132dd77a288f42e6735b664","properties":{"_id":"5132dd77a288f42e6735b664","PROVIDER NPI":1982657128,"PROVIDER NAME":"Tsen, David","PROVIDER STATE":"North Dakota","PROVIDER CITY":"Fargo","PROVIDER  ADDRESS":"1702 University Dr S","PROVIDER ZIP 5 CD":58103,"PROVIDER ZIP 4 CD":4940,"PROVIDER PHONE NUM":7013643300,"PROVIDER PHONE EXT":"","PROGRAM YEAR":2011},"geometry":{"type":"Point","coordinates":[-96.798533,46.851839]}},{"type":"Feature","id":"5132dd77a288f42e6735b665","properties":{"_id":"5132dd77a288f42e6735b665","PROVIDER NPI":1427085042,"PROVIDER NAME":"VETTER, RICHARD","PROVIDER STATE":"North Dakota","PROVIDER CITY":"West Fargo","PROVIDER  ADDRESS":"1401 13th Ave E","PROVIDER ZIP 5 CD":58078,"PROVIDER ZIP 4 CD":3468,"PROVIDER PHONE NUM":7013645751,"PROVIDER PHONE EXT":"","PROGRAM YEAR":2011},"geometry":{"type":"Point","coordinates":[-96.877789,46.861957]}},{"type":"Feature","id":"5132dd77a288f42e6735b666","properties":{"_id":"5132dd77a288f42e6735b666","PROVIDER NPI":1003843574,"PROVIDER NAME":"VIJAYALAKSHMI, BANGALORE","PROVIDER STATE":"North Dakota","PROVIDER CITY":"Fargo","PROVIDER  ADDRESS":"1702 University Dr S","PROVIDER ZIP 5 CD":58103,"PROVIDER ZIP 4 CD":4940,"PROVIDER PHONE NUM":7013643300,"PROVIDER PHONE EXT":"","PROGRAM YEAR":2011},"geometry":{"type":"Point","coordinates":[-96.798533,46.851839]}},{"type":"Feature","id":"5132dd77a288f42e6735b667","properties":{"_id":"5132dd77a288f42e6735b667","PROVIDER NPI":1609010800,"PROVIDER NAME":"VINJAMARAM, SANJAY","PROVIDER STATE":"North Dakota","PROVIDER CITY":"Fargo","PROVIDER  ADDRESS":"1702 University Dr S","PROVIDER ZIP 5 CD":58103,"PROVIDER ZIP 4 CD":4940,"PROVIDER PHONE NUM":7013643300,"PROVIDER PHONE EXT":"","PROGRAM YEAR":2011},"geometry":{"type":"Point","coordinates":[-96.798533,46.851839]}},{"type":"Feature","id":"5132dd77a288f42e6735b668","properties":{"_id":"5132dd77a288f42e6735b668","PROVIDER NPI":1275561649,"PROVIDER NAME":"WASEMILLER, PAUL","PROVIDER STATE":"North Dakota","PROVIDER CITY":"Wahpeton","PROVIDER  ADDRESS":"275 11th St S","PROVIDER ZIP 5 CD":58075,"PROVIDER ZIP 4 CD":4655,"PROVIDER PHONE NUM":7016422000,"PROVIDER PHONE EXT":"","PROGRAM YEAR":2011},"geometry":{"type":"Point","coordinates":[-96.615808,46.262354]}},{"type":"Feature","id":"5132dd77a288f42e6735b669","properties":{"_id":"5132dd77a288f42e6735b669","PROVIDER NPI":1568463321,"PROVIDER NAME":"Aaland, Mary","PROVIDER STATE":"North Dakota","PROVIDER CITY":"Fargo","PROVIDER  ADDRESS":"801 Broadway N","PROVIDER ZIP 5 CD":58102,"PROVIDER ZIP 4 CD":"","PROVIDER PHONE NUM":7012342251,"PROVIDER PHONE EXT":"","PROGRAM YEAR":2012},"geometry":{"type":"Point","coordinates":[-96.788608,46.88462]}},{"type":"Feature","id":"5132dd77a288f42e6735b66a","properties":{"_id":"5132dd77a288f42e6735b66a","PROVIDER NPI":1407081169,"PROVIDER NAME":"Adhami, Naeem","PROVIDER STATE":"North Dakota","PROVIDER CITY":"Fargo","PROVIDER  ADDRESS":"801 Broadway N","PROVIDER ZIP 5 CD":58102,"PROVIDER ZIP 4 CD":3641,"PROVIDER PHONE NUM":7012342524,"PROVIDER PHONE EXT":"","PROGRAM YEAR":2012},"geometry":{"type":"Point","coordinates":[-96.788608,46.88462]}},{"type":"Feature","id":"5132dd77a288f42e6735b66b","properties":{"_id":"5132dd77a288f42e6735b66b","PROVIDER NPI":1134146129,"PROVIDER NAME":"ALBRECHT, WARREN","PROVIDER STATE":"North Dakota","PROVIDER CITY":"Fargo","PROVIDER  ADDRESS":"801 Broadway N","PROVIDER ZIP 5 CD":58102,"PROVIDER ZIP 4 CD":"","PROVIDER PHONE NUM":7012342251,"PROVIDER PHONE EXT":"","PROGRAM YEAR":2012},"geometry":{"type":"Point","coordinates":[-96.788608,46.88462]}},{"type":"Feature","id":"5132dd77a288f42e6735b66c","properties":{"_id":"5132dd77a288f42e6735b66c","PROVIDER NPI":1700833845,"PROVIDER NAME":"ALONTO, AUGUSTO","PROVIDER STATE":"North Dakota","PROVIDER CITY":"Fargo","PROVIDER  ADDRESS":"801 Broadway N","PROVIDER ZIP 5 CD":58102,"PROVIDER ZIP 4 CD":3641,"PROVIDER PHONE NUM":7012342353,"PROVIDER PHONE EXT":"","PROGRAM YEAR":2012},"geometry":{"type":"Point","coordinates":[-96.788608,46.88462]}},{"type":"Feature","id":"5132dd77a288f42e6735b66d","properties":{"_id":"5132dd77a288f42e6735b66d","PROVIDER NPI":1649298381,"PROVIDER NAME":"ANDERSON, BRAD","PROVIDER STATE":"North Dakota","PROVIDER CITY":"Fargo","PROVIDER  ADDRESS":"2400 32nd Ave S","PROVIDER ZIP 5 CD":58103,"PROVIDER ZIP 4 CD":5800,"PROVIDER PHONE NUM":7012348720,"PROVIDER PHONE EXT":"","PROGRAM YEAR":2012},"geometry":{"type":"Point","coordinates":[-96.817638,46.832689]}},{"type":"Feature","id":"5132dd77a288f42e6735b66e","properties":{"_id":"5132dd77a288f42e6735b66e","PROVIDER NPI":1417109760,"PROVIDER NAME":"Anderson, Misty","PROVIDER STATE":"North Dakota","PROVIDER CITY":"Valley City","PROVIDER  ADDRESS":"520 Chautauqua Blvd","PROVIDER ZIP 5 CD":58072,"PROVIDER ZIP 4 CD":3145,"PROVIDER PHONE NUM":7018456000,"PROVIDER PHONE EXT":"","PROGRAM YEAR":2012},"geometry":{"type":"Point","coordinates":[-97.995164,46.928028]}},{"type":"Feature","id":"5132dd77a288f42e6735b66f","properties":{"_id":"5132dd77a288f42e6735b66f","PROVIDER NPI":1518991678,"PROVIDER NAME":"Anderson, Steven","PROVIDER STATE":"North Dakota","PROVIDER CITY":"Fargo","PROVIDER  ADDRESS":"1717 University Dr S","PROVIDER ZIP 5 CD":58103,"PROVIDER ZIP 4 CD":4940,"PROVIDER PHONE NUM":7014615100,"PROVIDER PHONE EXT":"","PROGRAM YEAR":2012},"geometry":{"type":"Point","coordinates":[-96.798533,46.851839]}},{"type":"Feature","id":"5132dd77a288f42e6735b670","properties":{"_id":"5132dd77a288f42e6735b670","PROVIDER NPI":1710139068,"PROVIDER NAME":"Aravapalli, Aruna","PROVIDER STATE":"North Dakota","PROVIDER CITY":"Fargo","PROVIDER  ADDRESS":"801 Broadway N","PROVIDER ZIP 5 CD":58102,"PROVIDER ZIP 4 CD":3641,"PROVIDER PHONE NUM":7012342429,"PROVIDER PHONE EXT":"","PROGRAM YEAR":2012},"geometry":{"type":"Point","coordinates":[-96.788608,46.88462]}},{"type":"Feature","id":"5132dd77a288f42e6735b671","properties":{"_id":"5132dd77a288f42e6735b671","PROVIDER NPI":1902824600,"PROVIDER NAME":"ARNESS, RICHARD","PROVIDER STATE":"North Dakota","PROVIDER CITY":"Fargo","PROVIDER  ADDRESS":"2400 32nd Ave S","PROVIDER ZIP 5 CD":58103,"PROVIDER ZIP 4 CD":5800,"PROVIDER PHONE NUM":7012348770,"PROVIDER PHONE EXT":"","PROGRAM YEAR":2012},"geometry":{"type":"Point","coordinates":[-96.817638,46.832689]}},{"type":"Feature","id":"5132dd77a288f42e6735b672","properties":{"_id":"5132dd77a288f42e6735b672","PROVIDER NPI":1659563039,"PROVIDER NAME":"Atchison, Michelle","PROVIDER STATE":"North Dakota","PROVIDER CITY":"Fargo","PROVIDER  ADDRESS":"1717 University Dr S","PROVIDER ZIP 5 CD":58103,"PROVIDER ZIP 4 CD":4940,"PROVIDER PHONE NUM":7014615100,"PROVIDER PHONE EXT":"","PROGRAM YEAR":2012},"geometry":{"type":"Point","coordinates":[-96.798533,46.851839]}},{"type":"Feature","id":"5132dd77a288f42e6735b673","properties":{"_id":"5132dd77a288f42e6735b673","PROVIDER NPI":1639197338,"PROVIDER NAME":"BAILEY, DAVID","PROVIDER STATE":"North Dakota","PROVIDER CITY":"Fargo","PROVIDER  ADDRESS":"2400 32nd Ave S","PROVIDER ZIP 5 CD":58103,"PROVIDER ZIP 4 CD":5800,"PROVIDER PHONE NUM":7012348770,"PROVIDER PHONE EXT":"","PROGRAM YEAR":2012},"geometry":{"type":"Point","coordinates":[-96.817638,46.832689]}},{"type":"Feature","id":"5132dd77a288f42e6735b674","properties":{"_id":"5132dd77a288f42e6735b674","PROVIDER NPI":1215954201,"PROVIDER NAME":"BAILLY, RICHARD","PROVIDER STATE":"North Dakota","PROVIDER CITY":"Fargo","PROVIDER  ADDRESS":"700 1st Ave S","PROVIDER ZIP 5 CD":58103,"PROVIDER ZIP 4 CD":1802,"PROVIDER PHONE NUM":7012344000,"PROVIDER PHONE EXT":"","PROGRAM YEAR":2012},"geometry":{"type":"Point","coordinates":[-96.789678,46.873425]}},{"type":"Feature","id":"5132dd77a288f42e6735b675","properties":{"_id":"5132dd77a288f42e6735b675","PROVIDER NPI":1174560080,"PROVIDER NAME":"Balliet, Paul","PROVIDER STATE":"North Dakota","PROVIDER CITY":"Bismarck","PROVIDER  ADDRESS":"200 S 5th St","PROVIDER ZIP 5 CD":58504,"PROVIDER ZIP 4 CD":5675,"PROVIDER PHONE NUM":7012223937,"PROVIDER PHONE EXT":"","PROGRAM YEAR":2012},"geometry":{"type":"Point","coordinates":[-100.784675,46.804159]}},{"type":"Feature","id":"5132dd77a288f42e6735b676","properties":{"_id":"5132dd77a288f42e6735b676","PROVIDER NPI":1831141175,"PROVIDER NAME":"Berglund, Howard","PROVIDER STATE":"North Dakota","PROVIDER CITY":"Fargo","PROVIDER  ADDRESS":"2301 25th St S, Suite A","PROVIDER ZIP 5 CD":58103,"PROVIDER ZIP 4 CD":6104,"PROVIDER PHONE NUM":7012379712,"PROVIDER PHONE EXT":"","PROGRAM YEAR":2012},"geometry":{"type":"Point","coordinates":[-96.819785,46.84422]}},{"type":"Feature","id":"5132dd77a288f42e6735b677","properties":{"_id":"5132dd77a288f42e6735b677","PROVIDER NPI":1043404585,"PROVIDER NAME":"Bhunia, Kaushik","PROVIDER STATE":"North Dakota","PROVIDER CITY":"Fargo","PROVIDER  ADDRESS":"801 Broadway N","PROVIDER ZIP 5 CD":58102,"PROVIDER ZIP 4 CD":3641,"PROVIDER PHONE NUM":7012342261,"PROVIDER PHONE EXT":"","PROGRAM YEAR":2012},"geometry":{"type":"Point","coordinates":[-96.788608,46.88462]}},{"type":"Feature","id":"5132dd77a288f42e6735b678","properties":{"_id":"5132dd77a288f42e6735b678","PROVIDER NPI":1114945847,"PROVIDER NAME":"BIER, DENNIS","PROVIDER STATE":"North Dakota","PROVIDER CITY":"Fargo","PROVIDER  ADDRESS":"820 4th St N","PROVIDER ZIP 5 CD":58122,"PROVIDER ZIP 4 CD":1,"PROVIDER PHONE NUM":7012346161,"PROVIDER PHONE EXT":"","PROGRAM YEAR":2012},"geometry":{"type":"Point","coordinates":[-96.784732,46.859567]}},{"type":"Feature","id":"5132dd77a288f42e6735b679","properties":{"_id":"5132dd77a288f42e6735b679","PROVIDER NPI":1235340449,"PROVIDER NAME":"Bliznikas, Darius","PROVIDER STATE":"North Dakota","PROVIDER CITY":"Fargo","PROVIDER  ADDRESS":"801 Broadway N","PROVIDER ZIP 5 CD":58102,"PROVIDER ZIP 4 CD":3641,"PROVIDER PHONE NUM":7012342441,"PROVIDER PHONE EXT":"","PROGRAM YEAR":2012},"geometry":{"type":"Point","coordinates":[-96.788608,46.88462]}},{"type":"Feature","id":"5132dd77a288f42e6735b67a","properties":{"_id":"5132dd77a288f42e6735b67a","PROVIDER NPI":1588681589,"PROVIDER NAME":"BOROWICZ, RONALD","PROVIDER STATE":"North Dakota","PROVIDER CITY":"West Fargo","PROVIDER  ADDRESS":"1220 Sheyenne St","PROVIDER ZIP 5 CD":58078,"PROVIDER ZIP 4 CD":2637,"PROVIDER PHONE NUM":7012344446,"PROVIDER PHONE EXT":"","PROGRAM YEAR":2012},"geometry":{"type":"Point","coordinates":[-96.904176,46.863274]}},{"type":"Feature","id":"5132dd77a288f42e6735b67b","properties":{"_id":"5132dd77a288f42e6735b67b","PROVIDER NPI":1356336358,"PROVIDER NAME":"Bouton, Michael","PROVIDER STATE":"North Dakota","PROVIDER CITY":"Fargo","PROVIDER  ADDRESS":"801 Broadway N","PROVIDER ZIP 5 CD":58102,"PROVIDER ZIP 4 CD":3641,"PROVIDER PHONE NUM":7012342251,"PROVIDER PHONE EXT":"","PROGRAM YEAR":2012},"geometry":{"type":"Point","coordinates":[-96.788608,46.88462]}},{"type":"Feature","id":"5132dd77a288f42e6735b67c","properties":{"_id":"5132dd77a288f42e6735b67c","PROVIDER NPI":1396762399,"PROVIDER NAME":"BRAUNAGEL, BRADLEY","PROVIDER STATE":"North Dakota","PROVIDER CITY":"Valley City","PROVIDER  ADDRESS":"520 Chautauqua Blvd","PROVIDER ZIP 5 CD":58072,"PROVIDER ZIP 4 CD":3145,"PROVIDER PHONE NUM":7018456000,"PROVIDER PHONE EXT":"","PROGRAM YEAR":2012},"geometry":{"type":"Point","coordinates":[-97.995164,46.928028]}},{"type":"Feature","id":"5132dd77a288f42e6735b67d","properties":{"_id":"5132dd77a288f42e6735b67d","PROVIDER NPI":1114944113,"PROVIDER NAME":"BREEN, CHARLES","PROVIDER STATE":"North Dakota","PROVIDER CITY":"HILLSBORO","PROVIDER  ADDRESS":"315 E CALDONIA AVE","PROVIDER ZIP 5 CD":58045,"PROVIDER ZIP 4 CD":"","PROVIDER PHONE NUM":7014365311,"PROVIDER PHONE EXT":"","PROGRAM YEAR":2012},"geometry":{"type":"Point","coordinates":[-97.056567,47.403628]}},{"type":"Feature","id":"5132dd77a288f42e6735b67e","properties":{"_id":"5132dd77a288f42e6735b67e","PROVIDER NPI":1205924636,"PROVIDER NAME":"Brenno-Watterud, Danielle","PROVIDER STATE":"North Dakota","PROVIDER CITY":"Williston","PROVIDER  ADDRESS":"1213 15th Ave W","PROVIDER ZIP 5 CD":58801,"PROVIDER ZIP 4 CD":3800,"PROVIDER PHONE NUM":7015773937,"PROVIDER PHONE EXT":"","PROGRAM YEAR":2012},"geometry":{"type":"Point","coordinates":[-103.645491,48.154692]}},{"type":"Feature","id":"5132dd77a288f42e6735b67f","properties":{"_id":"5132dd77a288f42e6735b67f","PROVIDER NPI":1063423895,"PROVIDER NAME":"Briggs, Steven","PROVIDER STATE":"North Dakota","PROVIDER CITY":"Fargo","PROVIDER  ADDRESS":"801 Broadway N","PROVIDER ZIP 5 CD":58102,"PROVIDER ZIP 4 CD":3641,"PROVIDER PHONE NUM":7012342251,"PROVIDER PHONE EXT":"","PROGRAM YEAR":2012},"geometry":{"type":"Point","coordinates":[-96.788608,46.88462]}},{"type":"Feature","id":"5132dd77a288f42e6735b680","properties":{"_id":"5132dd77a288f42e6735b680","PROVIDER NPI":1013935782,"PROVIDER NAME":"BUHR, JAMES","PROVIDER STATE":"North Dakota","PROVIDER CITY":"Valley City","PROVIDER  ADDRESS":"520 Chautauqua Blvd","PROVIDER ZIP 5 CD":58072,"PROVIDER ZIP 4 CD":3145,"PROVIDER PHONE NUM":7018456000,"PROVIDER PHONE EXT":"","PROGRAM YEAR":2012},"geometry":{"type":"Point","coordinates":[-97.995164,46.928028]}},{"type":"Feature","id":"5132dd77a288f42e6735b681","properties":{"_id":"5132dd77a288f42e6735b681","PROVIDER NPI":1750308755,"PROVIDER NAME":"BURD, RONALD","PROVIDER STATE":"North Dakota","PROVIDER CITY":"Fargo","PROVIDER  ADDRESS":"100 4th St S","PROVIDER ZIP 5 CD":58103,"PROVIDER ZIP 4 CD":"","PROVIDER PHONE NUM":7012343100,"PROVIDER PHONE EXT":"","PROGRAM YEAR":2012},"geometry":{"type":"Point","coordinates":[-96.784732,46.859567]}},{"type":"Feature","id":"5132dd77a288f42e6735b682","properties":{"_id":"5132dd77a288f42e6735b682","PROVIDER NPI":1912039850,"PROVIDER NAME":"Chan, Leslie","PROVIDER STATE":"North Dakota","PROVIDER CITY":"Fargo","PROVIDER  ADDRESS":"3000 32nd Ave S","PROVIDER ZIP 5 CD":58103,"PROVIDER ZIP 4 CD":6132,"PROVIDER PHONE NUM":7013648000,"PROVIDER PHONE EXT":"","PROGRAM YEAR":2012},"geometry":{"type":"Point","coordinates":[-96.826603,46.832703]}},{"type":"Feature","id":"5132dd77a288f42e6735b683","properties":{"_id":"5132dd77a288f42e6735b683","PROVIDER NPI":1740207745,"PROVIDER NAME":"CHEMITI, GOPAL","PROVIDER STATE":"North Dakota","PROVIDER CITY":"Fargo","PROVIDER  ADDRESS":"801 Broadway N","PROVIDER ZIP 5 CD":58102,"PROVIDER ZIP 4 CD":3641,"PROVIDER PHONE NUM":7012343360,"PROVIDER PHONE EXT":"","PROGRAM YEAR":2012},"geometry":{"type":"Point","coordinates":[-96.788608,46.88462]}},{"type":"Feature","id":"5132dd77a288f42e6735b684","properties":{"_id":"5132dd77a288f42e6735b684","PROVIDER NPI":1063430791,"PROVIDER NAME":"CLARDY, DAVID","PROVIDER STATE":"North Dakota","PROVIDER CITY":"Fargo","PROVIDER  ADDRESS":"801 Broadway N","PROVIDER ZIP 5 CD":58102,"PROVIDER ZIP 4 CD":3641,"PROVIDER PHONE NUM":7012342371,"PROVIDER PHONE EXT":"","PROGRAM YEAR":2012},"geometry":{"type":"Point","coordinates":[-96.788608,46.88462]}},{"type":"Feature","id":"5132dd77a288f42e6735b685","properties":{"_id":"5132dd77a288f42e6735b685","PROVIDER NPI":1174541874,"PROVIDER NAME":"CLEMENSON, STEVEN","PROVIDER STATE":"North Dakota","PROVIDER CITY":"Fargo","PROVIDER  ADDRESS":"1707 Gold Dr Ste 101","PROVIDER ZIP 5 CD":58103,"PROVIDER ZIP 4 CD":6413,"PROVIDER PHONE NUM":7012803191,"PROVIDER PHONE EXT":"","PROGRAM YEAR":2012},"geometry":{"type":"Point","coordinates":[-96.815657,46.844943]}},{"type":"Feature","id":"5132dd77a288f42e6735b686","properties":{"_id":"5132dd77a288f42e6735b686","PROVIDER NPI":1568489565,"PROVIDER NAME":"CRARY, JOHN","PROVIDER STATE":"North Dakota","PROVIDER CITY":"Fargo","PROVIDER  ADDRESS":"801 Broadway N","PROVIDER ZIP 5 CD":58102,"PROVIDER ZIP 4 CD":3641,"PROVIDER PHONE NUM":7012342371,"PROVIDER PHONE EXT":"","PROGRAM YEAR":2012},"geometry":{"type":"Point","coordinates":[-96.788608,46.88462]}},{"type":"Feature","id":"5132dd77a288f42e6735b687","properties":{"_id":"5132dd77a288f42e6735b687","PROVIDER NPI":1801814546,"PROVIDER NAME":"DAHL, BRUCE","PROVIDER STATE":"North Dakota","PROVIDER CITY":"West Fargo","PROVIDER  ADDRESS":"1220 Sheyenne St","PROVIDER ZIP 5 CD":58078,"PROVIDER ZIP 4 CD":2637,"PROVIDER PHONE NUM":7012344446,"PROVIDER PHONE EXT":"","PROGRAM YEAR":2012},"geometry":{"type":"Point","coordinates":[-96.904176,46.863274]}},{"type":"Feature","id":"5132dd77a288f42e6735b688","properties":{"_id":"5132dd77a288f42e6735b688","PROVIDER NPI":1356551089,"PROVIDER NAME":"Dahl, Kevin","PROVIDER STATE":"North Dakota","PROVIDER CITY":"Fargo","PROVIDER  ADDRESS":"2301 25th St S","PROVIDER ZIP 5 CD":58103,"PROVIDER ZIP 4 CD":6101,"PROVIDER PHONE NUM":7012370922,"PROVIDER PHONE EXT":"","PROGRAM YEAR":2012},"geometry":{"type":"Point","coordinates":[-96.819785,46.84422]}},{"type":"Feature","id":"5132dd77a288f42e6735b689","properties":{"_id":"5132dd77a288f42e6735b689","PROVIDER NPI":1962529446,"PROVIDER NAME":"Dahl, Lindsey","PROVIDER STATE":"North Dakota","PROVIDER CITY":"Fargo","PROVIDER  ADDRESS":"2400 32nd Ave S","PROVIDER ZIP 5 CD":58103,"PROVIDER ZIP 4 CD":5800,"PROVIDER PHONE NUM":7012348820,"PROVIDER PHONE EXT":"","PROGRAM YEAR":2012},"geometry":{"type":"Point","coordinates":[-96.817638,46.832689]}},{"type":"Feature","id":"5132dd77a288f42e6735b68a","properties":{"_id":"5132dd77a288f42e6735b68a","PROVIDER NPI":1093932212,"PROVIDER NAME":"Diamond, Amanda","PROVIDER STATE":"North Dakota","PROVIDER CITY":"Fargo","PROVIDER  ADDRESS":"700 1st Ave S","PROVIDER ZIP 5 CD":58103,"PROVIDER ZIP 4 CD":1802,"PROVIDER PHONE NUM":7012344036,"PROVIDER PHONE EXT":"","PROGRAM YEAR":2012},"geometry":{"type":"Point","coordinates":[-96.789678,46.873425]}},{"type":"Feature","id":"5132dd77a288f42e6735b68b","properties":{"_id":"5132dd77a288f42e6735b68b","PROVIDER NPI":1982601357,"PROVIDER NAME":"Dunham, Thomas","PROVIDER STATE":"North Dakota","PROVIDER CITY":"Grand Forks","PROVIDER  ADDRESS":"3035 DeMers Ave","PROVIDER ZIP 5 CD":58201,"PROVIDER ZIP 4 CD":4040,"PROVIDER PHONE NUM":7017753151,"PROVIDER PHONE EXT":"","PROGRAM YEAR":2012},"geometry":{"type":"Point","coordinates":[-97.071526,47.916675]}},{"type":"Feature","id":"5132dd77a288f42e6735b68c","properties":{"_id":"5132dd77a288f42e6735b68c","PROVIDER NPI":1144247008,"PROVIDER NAME":"EMERY, PATRICK","PROVIDER STATE":"North Dakota","PROVIDER CITY":"Wahpeton","PROVIDER  ADDRESS":"332 2nd Ave N","PROVIDER ZIP 5 CD":58075,"PROVIDER ZIP 4 CD":4528,"PROVIDER PHONE NUM":7016427000,"PROVIDER PHONE EXT":"","PROGRAM YEAR":2012},"geometry":{"type":"Point","coordinates":[-96.604294,46.26506]}},{"type":"Feature","id":"5132dd77a288f42e6735b68d","properties":{"_id":"5132dd77a288f42e6735b68d","PROVIDER NPI":1902864390,"PROVIDER NAME":"Emmerich, Mark","PROVIDER STATE":"North Dakota","PROVIDER CITY":"Dickinson","PROVIDER  ADDRESS":"34 First Street East","PROVIDER ZIP 5 CD":58601,"PROVIDER ZIP 4 CD":5106,"PROVIDER PHONE NUM":7012259601,"PROVIDER PHONE EXT":"","PROGRAM YEAR":2012},"geometry":{"type":"Point","coordinates":[-102.785108,46.879652]}},{"type":"Feature","id":"5132dd77a288f42e6735b68e","properties":{"_id":"5132dd77a288f42e6735b68e","PROVIDER NPI":1821176231,"PROVIDER NAME":"Emmerich, Michael","PROVIDER STATE":"North Dakota","PROVIDER CITY":"Grand Forks","PROVIDER  ADDRESS":"2200 So Washington St","PROVIDER ZIP 5 CD":58201,"PROVIDER ZIP 4 CD":"","PROVIDER PHONE NUM":7017753135,"PROVIDER PHONE EXT":"","PROGRAM YEAR":2012},"geometry":{"type":"Point","coordinates":[-97.045557,47.898716]}},{"type":"Feature","id":"5132dd77a288f42e6735b68f","properties":{"_id":"5132dd77a288f42e6735b68f","PROVIDER NPI":1720095482,"PROVIDER NAME":"Faber, Kevin","PROVIDER STATE":"North Dakota","PROVIDER CITY":"Fargo","PROVIDER  ADDRESS":"2801 S University Dr","PROVIDER ZIP 5 CD":58103,"PROVIDER ZIP 4 CD":"","PROVIDER PHONE NUM":7012345673,"PROVIDER PHONE EXT":"","PROGRAM YEAR":2012},"geometry":{"type":"Point","coordinates":[-96.798447,46.861571]}},{"type":"Feature","id":"5132dd77a288f42e6735b690","properties":{"_id":"5132dd77a288f42e6735b690","PROVIDER NPI":1275568933,"PROVIDER NAME":"Farkas, Susan","PROVIDER STATE":"North Dakota","PROVIDER CITY":"Fargo","PROVIDER  ADDRESS":"801 Broadway N","PROVIDER ZIP 5 CD":58102,"PROVIDER ZIP 4 CD":3641,"PROVIDER PHONE NUM":7012342371,"PROVIDER PHONE EXT":"","PROGRAM YEAR":2012},"geometry":{"type":"Point","coordinates":[-96.788608,46.88462]}},{"type":"Feature","id":"5132dd77a288f42e6735b691","properties":{"_id":"5132dd77a288f42e6735b691","PROVIDER NPI":1447347547,"PROVIDER NAME":"Fearing, Mitchell","PROVIDER STATE":"North Dakota","PROVIDER CITY":"Williston","PROVIDER  ADDRESS":"1213 15th Ave W","PROVIDER ZIP 5 CD":58801,"PROVIDER ZIP 4 CD":3800,"PROVIDER PHONE NUM":7015773937,"PROVIDER PHONE EXT":"","PROGRAM YEAR":2012},"geometry":{"type":"Point","coordinates":[-103.645491,48.154692]}},{"type":"Feature","id":"5132dd77a288f42e6735b692","properties":{"_id":"5132dd77a288f42e6735b692","PROVIDER NPI":1033302062,"PROVIDER NAME":"Fetner, Erik","PROVIDER STATE":"North Dakota","PROVIDER CITY":"Fargo","PROVIDER  ADDRESS":"801 Broadway N","PROVIDER ZIP 5 CD":58102,"PROVIDER ZIP 4 CD":4421,"PROVIDER PHONE NUM":7012342525,"PROVIDER PHONE EXT":"","PROGRAM YEAR":2012},"geometry":{"type":"Point","coordinates":[-96.788608,46.88462]}},{"type":"Feature","id":"5132dd77a288f42e6735b693","properties":{"_id":"5132dd77a288f42e6735b693","PROVIDER NPI":1336146703,"PROVIDER NAME":"Fillmore, Scott","PROVIDER STATE":"North Dakota","PROVIDER CITY":"Fargo","PROVIDER  ADDRESS":"801 Broadway N","PROVIDER ZIP 5 CD":58102,"PROVIDER ZIP 4 CD":4421,"PROVIDER PHONE NUM":7012342203,"PROVIDER PHONE EXT":"","PROGRAM YEAR":2012},"geometry":{"type":"Point","coordinates":[-96.788608,46.88462]}},{"type":"Feature","id":"5132dd77a288f42e6735b694","properties":{"_id":"5132dd77a288f42e6735b694","PROVIDER NPI":1629002308,"PROVIDER NAME":"FITZGERALD, DAVID","PROVIDER STATE":"North Dakota","PROVIDER CITY":"Fargo","PROVIDER  ADDRESS":"3000 32nd Ave S","PROVIDER ZIP 5 CD":58103,"PROVIDER ZIP 4 CD":6132,"PROVIDER PHONE NUM":7013648000,"PROVIDER PHONE EXT":"","PROGRAM YEAR":2012},"geometry":{"type":"Point","coordinates":[-96.826603,46.832703]}},{"type":"Feature","id":"5132dd77a288f42e6735b695","properties":{"_id":"5132dd77a288f42e6735b695","PROVIDER NPI":1316964273,"PROVIDER NAME":"FLACH, DAVID","PROVIDER STATE":"North Dakota","PROVIDER CITY":"Fargo","PROVIDER  ADDRESS":"4656 40th Ave S","PROVIDER ZIP 5 CD":58104,"PROVIDER ZIP 4 CD":"","PROVIDER PHONE NUM":7012348860,"PROVIDER PHONE EXT":"","PROGRAM YEAR":2012},"geometry":{"type":"Point","coordinates":[-96.866703,46.818393]}},{"type":"Feature","id":"5132dd77a288f42e6735b696","properties":{"_id":"5132dd77a288f42e6735b696","PROVIDER NPI":1447297189,"PROVIDER NAME":"Fortney, Aaron","PROVIDER STATE":"North Dakota","PROVIDER CITY":"Bismarck","PROVIDER  ADDRESS":"3119 N 14th St","PROVIDER ZIP 5 CD":58503,"PROVIDER ZIP 4 CD":664,"PROVIDER PHONE NUM":7012223937,"PROVIDER PHONE EXT":"","PROGRAM YEAR":2012},"geometry":{"type":"Point","coordinates":[-100.770823,46.838155]}},{"type":"Feature","id":"5132dd77a288f42e6735b697","properties":{"_id":"5132dd77a288f42e6735b697","PROVIDER NPI":1679693147,"PROVIDER NAME":"Foster, Ethan","PROVIDER STATE":"North Dakota","PROVIDER CITY":"Fargo","PROVIDER  ADDRESS":"820 4th St N","PROVIDER ZIP 5 CD":58122,"PROVIDER ZIP 4 CD":"","PROVIDER PHONE NUM":7012345126,"PROVIDER PHONE EXT":"","PROGRAM YEAR":2012},"geometry":{"type":"Point","coordinates":[-96.784732,46.859567]}},{"type":"Feature","id":"5132dd77a288f42e6735b698","properties":{"_id":"5132dd77a288f42e6735b698","PROVIDER NPI":1790703338,"PROVIDER NAME":"FRIEDERICHS, MATTHEW","PROVIDER STATE":"North Dakota","PROVIDER CITY":"Fargo","PROVIDER  ADDRESS":"2301 25th St S","PROVIDER ZIP 5 CD":58103,"PROVIDER ZIP 4 CD":"","PROVIDER PHONE NUM":7012379712,"PROVIDER PHONE EXT":"","PROGRAM YEAR":2012},"geometry":{"type":"Point","coordinates":[-96.819785,46.84422]}},{"type":"Feature","id":"5132dd77a288f42e6735b699","properties":{"_id":"5132dd77a288f42e6735b699","PROVIDER NPI":1013008655,"PROVIDER NAME":"Frohlich, Douglas","PROVIDER STATE":"North Dakota","PROVIDER CITY":"Jamestown","PROVIDER  ADDRESS":"210 10th St SE","PROVIDER ZIP 5 CD":58401,"PROVIDER ZIP 4 CD":5553,"PROVIDER PHONE NUM":7012525000,"PROVIDER PHONE EXT":"","PROGRAM YEAR":2012},"geometry":{"type":"Point","coordinates":[-98.706501,46.898944]}},{"type":"Feature","id":"5132dd77a288f42e6735b69a","properties":{"_id":"5132dd77a288f42e6735b69a","PROVIDER NPI":1306937941,"PROVIDER NAME":"Fronk, Kent","PROVIDER STATE":"North Dakota","PROVIDER CITY":"Jamestown","PROVIDER  ADDRESS":"210 10th St SE","PROVIDER ZIP 5 CD":58401,"PROVIDER ZIP 4 CD":5553,"PROVIDER PHONE NUM":7012525000,"PROVIDER PHONE EXT":"","PROGRAM YEAR":2012},"geometry":{"type":"Point","coordinates":[-98.706501,46.898944]}},{"type":"Feature","id":"5132dd77a288f42e6735b69b","properties":{"_id":"5132dd77a288f42e6735b69b","PROVIDER NPI":1922025907,"PROVIDER NAME":"gaba, anu","PROVIDER STATE":"North Dakota","PROVIDER CITY":"Fargo","PROVIDER  ADDRESS":"820 4th St N","PROVIDER ZIP 5 CD":58122,"PROVIDER ZIP 4 CD":1,"PROVIDER PHONE NUM":7012346161,"PROVIDER PHONE EXT":"","PROGRAM YEAR":2012},"geometry":{"type":"Point","coordinates":[-96.784732,46.859567]}},{"type":"Feature","id":"5132dd77a288f42e6735b69c","properties":{"_id":"5132dd77a288f42e6735b69c","PROVIDER NPI":1104844752,"PROVIDER NAME":"GARCIA, LUIS","PROVIDER STATE":"North Dakota","PROVIDER CITY":"Fargo","PROVIDER  ADDRESS":"801 Broadway N","PROVIDER ZIP 5 CD":58102,"PROVIDER ZIP 4 CD":3641,"PROVIDER PHONE NUM":7012342251,"PROVIDER PHONE EXT":"","PROGRAM YEAR":2012},"geometry":{"type":"Point","coordinates":[-96.788608,46.88462]}},{"type":"Feature","id":"5132dd77a288f42e6735b69d","properties":{"_id":"5132dd77a288f42e6735b69d","PROVIDER NPI":1801893490,"PROVIDER NAME":"Gaul, Gerald","PROVIDER STATE":"North Dakota","PROVIDER CITY":"Grand Forks","PROVIDER  ADDRESS":"3035 Demers Ave","PROVIDER ZIP 5 CD":58201,"PROVIDER ZIP 4 CD":4018,"PROVIDER PHONE NUM":7017753151,"PROVIDER PHONE EXT":"","PROGRAM YEAR":2012},"geometry":{"type":"Point","coordinates":[-97.071526,47.916675]}},{"type":"Feature","id":"5132dd77a288f42e6735b69e","properties":{"_id":"5132dd77a288f42e6735b69e","PROVIDER NPI":1770500639,"PROVIDER NAME":"GEERAERTS, LOUIS","PROVIDER STATE":"North Dakota","PROVIDER CITY":"Fargo","PROVIDER  ADDRESS":"820 4th St N","PROVIDER ZIP 5 CD":58122,"PROVIDER ZIP 4 CD":1,"PROVIDER PHONE NUM":7012342337,"PROVIDER PHONE EXT":"","PROGRAM YEAR":2012},"geometry":{"type":"Point","coordinates":[-96.784732,46.859567]}},{"type":"Feature","id":"5132dd77a288f42e6735b69f","properties":{"_id":"5132dd77a288f42e6735b69f","PROVIDER NPI":1568449114,"PROVIDER NAME":"Geier, Debra","PROVIDER STATE":"North Dakota","PROVIDER CITY":"Jamestown","PROVIDER  ADDRESS":"904 5th Ave NE","PROVIDER ZIP 5 CD":58401,"PROVIDER ZIP 4 CD":3437,"PROVIDER PHONE NUM":7012534000,"PROVIDER PHONE EXT":"","PROGRAM YEAR":2012},"geometry":{"type":"Point","coordinates":[-98.70244,46.917138]}},{"type":"Feature","id":"5132dd77a288f42e6735b6a0","properties":{"_id":"5132dd77a288f42e6735b6a0","PROVIDER NPI":1689691545,"PROVIDER NAME":"GHAZI, MAJID","PROVIDER STATE":"North Dakota","PROVIDER CITY":"Fargo","PROVIDER  ADDRESS":"1720 S University Dr","PROVIDER ZIP 5 CD":58103,"PROVIDER ZIP 4 CD":"","PROVIDER PHONE NUM":7012804540,"PROVIDER PHONE EXT":"","PROGRAM YEAR":2012},"geometry":{"type":"Point","coordinates":[-96.798447,46.861571]}},{"type":"Feature","id":"5132dd77a288f42e6735b6a1","properties":{"_id":"5132dd77a288f42e6735b6a1","PROVIDER NPI":1225073661,"PROVIDER NAME":"GITAU, MARK","PROVIDER STATE":"North Dakota","PROVIDER CITY":"Fargo","PROVIDER  ADDRESS":"820 4th St N","PROVIDER ZIP 5 CD":58122,"PROVIDER ZIP 4 CD":1,"PROVIDER PHONE NUM":7012342000,"PROVIDER PHONE EXT":"","PROGRAM YEAR":2012},"geometry":{"type":"Point","coordinates":[-96.784732,46.859567]}},{"type":"Feature","id":"5132dd77a288f42e6735b6a2","properties":{"_id":"5132dd77a288f42e6735b6a2","PROVIDER NPI":1467489039,"PROVIDER NAME":"Glatt, David","PROVIDER STATE":"North Dakota","PROVIDER CITY":"Fargo","PROVIDER  ADDRESS":"2400 32nd Ave S","PROVIDER ZIP 5 CD":58103,"PROVIDER ZIP 4 CD":5800,"PROVIDER PHONE NUM":7012348330,"PROVIDER PHONE EXT":"","PROGRAM YEAR":2012},"geometry":{"type":"Point","coordinates":[-96.817638,46.832689]}},{"type":"Feature","id":"5132dd77a288f42e6735b6a3","properties":{"_id":"5132dd77a288f42e6735b6a3","PROVIDER NPI":1760415392,"PROVIDER NAME":"GLOWER, MARTHA","PROVIDER STATE":"North Dakota","PROVIDER CITY":"Fargo","PROVIDER  ADDRESS":"1702 University Dr S","PROVIDER ZIP 5 CD":58103,"PROVIDER ZIP 4 CD":4940,"PROVIDER PHONE NUM":7013643300,"PROVIDER PHONE EXT":"","PROGRAM YEAR":2012},"geometry":{"type":"Point","coordinates":[-96.798533,46.851839]}},{"type":"Feature","id":"5132dd77a288f42e6735b6a4","properties":{"_id":"5132dd77a288f42e6735b6a4","PROVIDER NPI":1538180765,"PROVIDER NAME":"GONZALES, MICHAEL","PROVIDER STATE":"North Dakota","PROVIDER CITY":"Fargo","PROVIDER  ADDRESS":"1720 University Dr S","PROVIDER ZIP 5 CD":58103,"PROVIDER ZIP 4 CD":4940,"PROVIDER PHONE NUM":7012804540,"PROVIDER PHONE EXT":"","PROGRAM YEAR":2012},"geometry":{"type":"Point","coordinates":[-96.798533,46.851839]}},{"type":"Feature","id":"5132dd77a288f42e6735b6a5","properties":{"_id":"5132dd77a288f42e6735b6a5","PROVIDER NPI":1033136999,"PROVIDER NAME":"GOVEN, GENEVIEVE","PROVIDER STATE":"North Dakota","PROVIDER CITY":"Valley City","PROVIDER  ADDRESS":"520 Chautauqua Blvd","PROVIDER ZIP 5 CD":58072,"PROVIDER ZIP 4 CD":3145,"PROVIDER PHONE NUM":7018456000,"PROVIDER PHONE EXT":"","PROGRAM YEAR":2012},"geometry":{"type":"Point","coordinates":[-97.995164,46.928028]}},{"type":"Feature","id":"5132dd77a288f42e6735b6a6","properties":{"_id":"5132dd77a288f42e6735b6a6","PROVIDER NPI":1679587422,"PROVIDER NAME":"Gray, Todd","PROVIDER STATE":"North Dakota","PROVIDER CITY":"Fargo","PROVIDER  ADDRESS":"3000 32nd Avenue South","PROVIDER ZIP 5 CD":58103,"PROVIDER ZIP 4 CD":"","PROVIDER PHONE NUM":7013648000,"PROVIDER PHONE EXT":"","PROGRAM YEAR":2012},"geometry":{"type":"Point","coordinates":[-96.826603,46.832703]}},{"type":"Feature","id":"5132dd77a288f42e6735b6a7","properties":{"_id":"5132dd77a288f42e6735b6a7","PROVIDER NPI":1013935667,"PROVIDER NAME":"GROSS, GERALD","PROVIDER STATE":"North Dakota","PROVIDER CITY":"Fargo","PROVIDER  ADDRESS":"801 Broadway N","PROVIDER ZIP 5 CD":58122,"PROVIDER ZIP 4 CD":1,"PROVIDER PHONE NUM":7012344811,"PROVIDER PHONE EXT":"","PROGRAM YEAR":2012},"geometry":{"type":"Point","coordinates":[-96.788608,46.88462]}},{"type":"Feature","id":"5132dd77a288f42e6735b6a8","properties":{"_id":"5132dd77a288f42e6735b6a8","PROVIDER NPI":1811103989,"PROVIDER NAME":"Guerrero, Dubert","PROVIDER STATE":"North Dakota","PROVIDER CITY":"Fargo","PROVIDER  ADDRESS":"801 Broadway N","PROVIDER ZIP 5 CD":58102,"PROVIDER ZIP 4 CD":4421,"PROVIDER PHONE NUM":7012342353,"PROVIDER PHONE EXT":"","PROGRAM YEAR":2012},"geometry":{"type":"Point","coordinates":[-96.788608,46.88462]}},{"type":"Feature","id":"5132dd77a288f42e6735b6a9","properties":{"_id":"5132dd77a288f42e6735b6a9","PROVIDER NPI":1275513152,"PROVIDER NAME":"Haaland, Jaime","PROVIDER STATE":"North Dakota","PROVIDER CITY":"Minot","PROVIDER  ADDRESS":"10 1st St SW","PROVIDER ZIP 5 CD":58701,"PROVIDER ZIP 4 CD":3859,"PROVIDER PHONE NUM":7018395000,"PROVIDER PHONE EXT":"","PROGRAM YEAR":2012},"geometry":{"type":"Point","coordinates":[-101.294633,48.236367]}},{"type":"Feature","id":"5132dd77a288f42e6735b6aa","properties":{"_id":"5132dd77a288f42e6735b6aa","PROVIDER NPI":1831117480,"PROVIDER NAME":"HAIDER, NAVEED","PROVIDER STATE":"North Dakota","PROVIDER CITY":"Fargo","PROVIDER  ADDRESS":"737 Broadway N","PROVIDER ZIP 5 CD":58122,"PROVIDER ZIP 4 CD":1,"PROVIDER PHONE NUM":7012344811,"PROVIDER PHONE EXT":"","PROGRAM YEAR":2012},"geometry":{"type":"Point","coordinates":[-96.787672,46.883605]}},{"type":"Feature","id":"5132dd77a288f42e6735b6ab","properties":{"_id":"5132dd77a288f42e6735b6ab","PROVIDER NPI":1588681449,"PROVIDER NAME":"HALDIS, THOMAS","PROVIDER STATE":"North Dakota","PROVIDER CITY":"Fargo","PROVIDER  ADDRESS":"737 Broadway","PROVIDER ZIP 5 CD":58122,"PROVIDER ZIP 4 CD":1,"PROVIDER PHONE NUM":7012342371,"PROVIDER PHONE EXT":"","PROGRAM YEAR":2012},"geometry":{"type":"Point","coordinates":[-96.787672,46.883605]}},{"type":"Feature","id":"5132dd77a288f42e6735b6ac","properties":{"_id":"5132dd77a288f42e6735b6ac","PROVIDER NPI":1790858306,"PROVIDER NAME":"Hall, Lyle","PROVIDER STATE":"North Dakota","PROVIDER CITY":"Grand Forks","PROVIDER  ADDRESS":"2200 S.  Washington St","PROVIDER ZIP 5 CD":58201,"PROVIDER ZIP 4 CD":"","PROVIDER PHONE NUM":7017753135,"PROVIDER PHONE EXT":"","PROGRAM YEAR":2012},"geometry":{"type":"Point","coordinates":[-97.045557,47.898716]}},{"type":"Feature","id":"5132dd77a288f42e6735b6ad","properties":{"_id":"5132dd77a288f42e6735b6ad","PROVIDER NPI":1972521524,"PROVIDER NAME":"HALVORSON, JAMES","PROVIDER STATE":"North Dakota","PROVIDER CITY":"Fargo","PROVIDER  ADDRESS":"737 Broadway N","PROVIDER ZIP 5 CD":58122,"PROVIDER ZIP 4 CD":1,"PROVIDER PHONE NUM":7012344811,"PROVIDER PHONE EXT":"","PROGRAM YEAR":2012},"geometry":{"type":"Point","coordinates":[-96.787672,46.883605]}},{"type":"Feature","id":"5132dd77a288f42e6735b6ae","properties":{"_id":"5132dd77a288f42e6735b6ae","PROVIDER NPI":1740498104,"PROVIDER NAME":"Harlow, Tanya","PROVIDER STATE":"North Dakota","PROVIDER CITY":"Fargo","PROVIDER  ADDRESS":"700 1st Ave S","PROVIDER ZIP 5 CD":58103,"PROVIDER ZIP 4 CD":1802,"PROVIDER PHONE NUM":7012344036,"PROVIDER PHONE EXT":"","PROGRAM YEAR":2012},"geometry":{"type":"Point","coordinates":[-96.789678,46.873425]}},{"type":"Feature","id":"5132dd77a288f42e6735b6af","properties":{"_id":"5132dd77a288f42e6735b6af","PROVIDER NPI":1841492188,"PROVIDER NAME":"Hasan, Syed","PROVIDER STATE":"North Dakota","PROVIDER CITY":"Fargo","PROVIDER  ADDRESS":"801 Broadway N","PROVIDER ZIP 5 CD":58102,"PROVIDER ZIP 4 CD":3641,"PROVIDER PHONE NUM":7012342261,"PROVIDER PHONE EXT":"","PROGRAM YEAR":2012},"geometry":{"type":"Point","coordinates":[-96.788608,46.88462]}},{"type":"Feature","id":"5132dd77a288f42e6735b6b0","properties":{"_id":"5132dd77a288f42e6735b6b0","PROVIDER NPI":1245286988,"PROVIDER NAME":"Hella, Brent","PROVIDER STATE":"North Dakota","PROVIDER CITY":"Fargo","PROVIDER  ADDRESS":"1707 Gold Dr","PROVIDER ZIP 5 CD":58103,"PROVIDER ZIP 4 CD":6413,"PROVIDER PHONE NUM":7012802033,"PROVIDER PHONE EXT":"","PROGRAM YEAR":2012},"geometry":{"type":"Point","coordinates":[-96.815657,46.844943]}},{"type":"Feature","id":"5132dd77a288f42e6735b6b1","properties":{"_id":"5132dd77a288f42e6735b6b1","PROVIDER NPI":1235186040,"PROVIDER NAME":"Hilts, George","PROVIDER STATE":"North Dakota","PROVIDER CITY":"Bismarck","PROVIDER  ADDRESS":"200 S 5th St","PROVIDER ZIP 5 CD":58504,"PROVIDER ZIP 4 CD":5675,"PROVIDER PHONE NUM":7012223937,"PROVIDER PHONE EXT":"","PROGRAM YEAR":2012},"geometry":{"type":"Point","coordinates":[-100.784675,46.804159]}},{"type":"Feature","id":"5132dd77a288f42e6735b6b2","properties":{"_id":"5132dd77a288f42e6735b6b2","PROVIDER NPI":1669583183,"PROVIDER NAME":"HOCHHALTER, DAVID","PROVIDER STATE":"North Dakota","PROVIDER CITY":"Valley City","PROVIDER  ADDRESS":"520 Chautauqua Blvd","PROVIDER ZIP 5 CD":58072,"PROVIDER ZIP 4 CD":3145,"PROVIDER PHONE NUM":7018456000,"PROVIDER PHONE EXT":"","PROGRAM YEAR":2012},"geometry":{"type":"Point","coordinates":[-97.995164,46.928028]}},{"type":"Feature","id":"5132dd77a288f42e6735b6b3","properties":{"_id":"5132dd77a288f42e6735b6b3","PROVIDER NPI":1437102324,"PROVIDER NAME":"Holzwarth, Ryan","PROVIDER STATE":"North Dakota","PROVIDER CITY":"Jamestown","PROVIDER  ADDRESS":"904 5th Ave NE","PROVIDER ZIP 5 CD":58401,"PROVIDER ZIP 4 CD":3437,"PROVIDER PHONE NUM":7012534000,"PROVIDER PHONE EXT":"","PROGRAM YEAR":2012},"geometry":{"type":"Point","coordinates":[-98.70244,46.917138]}},{"type":"Feature","id":"5132dd77a288f42e6735b6b4","properties":{"_id":"5132dd77a288f42e6735b6b4","PROVIDER NPI":1790703437,"PROVIDER NAME":"HUND, MORRIS","PROVIDER STATE":"North Dakota","PROVIDER CITY":"Fargo","PROVIDER  ADDRESS":"100 4th St S","PROVIDER ZIP 5 CD":58103,"PROVIDER ZIP 4 CD":1929,"PROVIDER PHONE NUM":7012343100,"PROVIDER PHONE EXT":"","PROGRAM YEAR":2012},"geometry":{"type":"Point","coordinates":[-96.784732,46.859567]}},{"type":"Feature","id":"5132dd77a288f42e6735b6b5","properties":{"_id":"5132dd77a288f42e6735b6b5","PROVIDER NPI":1770769432,"PROVIDER NAME":"Hung, Robert","PROVIDER STATE":"North Dakota","PROVIDER CITY":"Fargo","PROVIDER  ADDRESS":"801 Broadway","PROVIDER ZIP 5 CD":58102,"PROVIDER ZIP 4 CD":"","PROVIDER PHONE NUM":7012342524,"PROVIDER PHONE EXT":"","PROGRAM YEAR":2012},"geometry":{"type":"Point","coordinates":[-96.788608,46.88462]}},{"type":"Feature","id":"5132dd77a288f42e6735b6b6","properties":{"_id":"5132dd77a288f42e6735b6b6","PROVIDER NPI":1912937111,"PROVIDER NAME":"HUTCHISON, JOHN","PROVIDER STATE":"North Dakota","PROVIDER CITY":"Fargo","PROVIDER  ADDRESS":"700 1st Ave S","PROVIDER ZIP 5 CD":58103,"PROVIDER ZIP 4 CD":1802,"PROVIDER PHONE NUM":7012344023,"PROVIDER PHONE EXT":"","PROGRAM YEAR":2012},"geometry":{"type":"Point","coordinates":[-96.789678,46.873425]}},{"type":"Feature","id":"5132dd77a288f42e6735b6b7","properties":{"_id":"5132dd77a288f42e6735b6b7","PROVIDER NPI":1477505725,"PROVIDER NAME":"Hvidston, Andrew","PROVIDER STATE":"North Dakota","PROVIDER CITY":"Fargo","PROVIDER  ADDRESS":"2301 25th St S, Suite A","PROVIDER ZIP 5 CD":58103,"PROVIDER ZIP 4 CD":6104,"PROVIDER PHONE NUM":7012379712,"PROVIDER PHONE EXT":"","PROGRAM YEAR":2012},"geometry":{"type":"Point","coordinates":[-96.819785,46.84422]}},{"type":"Feature","id":"5132dd77a288f42e6735b6b8","properties":{"_id":"5132dd77a288f42e6735b6b8","PROVIDER NPI":1952329500,"PROVIDER NAME":"JACOBSON, DAVID","PROVIDER STATE":"North Dakota","PROVIDER CITY":"West Fargo","PROVIDER  ADDRESS":"1220 Sheyenne St","PROVIDER ZIP 5 CD":58078,"PROVIDER ZIP 4 CD":2637,"PROVIDER PHONE NUM":7012344445,"PROVIDER PHONE EXT":"","PROGRAM YEAR":2012},"geometry":{"type":"Point","coordinates":[-96.904176,46.863274]}},{"type":"Feature","id":"5132dd77a288f42e6735b6b9","properties":{"_id":"5132dd77a288f42e6735b6b9","PROVIDER NPI":1699989939,"PROVIDER NAME":"Jalil, Sajid","PROVIDER STATE":"North Dakota","PROVIDER CITY":"Fargo","PROVIDER  ADDRESS":"737 Broadway","PROVIDER ZIP 5 CD":58122,"PROVIDER ZIP 4 CD":1,"PROVIDER PHONE NUM":7012342525,"PROVIDER PHONE EXT":"","PROGRAM YEAR":2012},"geometry":{"type":"Point","coordinates":[-96.787672,46.883605]}},{"type":"Feature","id":"5132dd77a288f42e6735b6ba","properties":{"_id":"5132dd77a288f42e6735b6ba","PROVIDER NPI":1962627398,"PROVIDER NAME":"Jamsa Tollefson, Lisa","PROVIDER STATE":"North Dakota","PROVIDER CITY":"Wahpeton","PROVIDER  ADDRESS":"275 11th St S","PROVIDER ZIP 5 CD":58075,"PROVIDER ZIP 4 CD":4655,"PROVIDER PHONE NUM":7016422000,"PROVIDER PHONE EXT":"","PROGRAM YEAR":2012},"geometry":{"type":"Point","coordinates":[-96.615808,46.262354]}},{"type":"Feature","id":"5132dd77a288f42e6735b6bb","properties":{"_id":"5132dd77a288f42e6735b6bb","PROVIDER NPI":1568402097,"PROVIDER NAME":"Jenny, Donald","PROVIDER STATE":"North Dakota","PROVIDER CITY":"Fargo","PROVIDER  ADDRESS":"3000 32nd Ave S","PROVIDER ZIP 5 CD":58103,"PROVIDER ZIP 4 CD":6132,"PROVIDER PHONE NUM":7013648000,"PROVIDER PHONE EXT":"","PROGRAM YEAR":2012},"geometry":{"type":"Point","coordinates":[-96.826603,46.832703]}},{"type":"Feature","id":"5132dd77a288f42e6735b6bc","properties":{"_id":"5132dd77a288f42e6735b6bc","PROVIDER NPI":1992729230,"PROVIDER NAME":"Jensen, Ashley","PROVIDER STATE":"North Dakota","PROVIDER CITY":"Fargo","PROVIDER  ADDRESS":"820 4th St N","PROVIDER ZIP 5 CD":58102,"PROVIDER ZIP 4 CD":4539,"PROVIDER PHONE NUM":7012346161,"PROVIDER PHONE EXT":"","PROGRAM YEAR":2012},"geometry":{"type":"Point","coordinates":[-96.784778,46.884929]}},{"type":"Feature","id":"5132dd77a288f42e6735b6bd","properties":{"_id":"5132dd77a288f42e6735b6bd","PROVIDER NPI":1982643219,"PROVIDER NAME":"Jessen, Jamey","PROVIDER STATE":"North Dakota","PROVIDER CITY":"Fargo","PROVIDER  ADDRESS":"1720 University Dr S","PROVIDER ZIP 5 CD":58103,"PROVIDER ZIP 4 CD":4940,"PROVIDER PHONE NUM":7012804140,"PROVIDER PHONE EXT":"","PROGRAM YEAR":2012},"geometry":{"type":"Point","coordinates":[-96.798533,46.851839]}},{"type":"Feature","id":"5132dd77a288f42e6735b6be","properties":{"_id":"5132dd77a288f42e6735b6be","PROVIDER NPI":1902047814,"PROVIDER NAME":"Jolly, Shashank","PROVIDER STATE":"North Dakota","PROVIDER CITY":"Fargo","PROVIDER  ADDRESS":"801 Broadway N","PROVIDER ZIP 5 CD":58102,"PROVIDER ZIP 4 CD":3641,"PROVIDER PHONE NUM":7012342371,"PROVIDER PHONE EXT":"","PROGRAM YEAR":2012},"geometry":{"type":"Point","coordinates":[-96.788608,46.88462]}},{"type":"Feature","id":"5132dd77a288f42e6735b6bf","properties":{"_id":"5132dd77a288f42e6735b6bf","PROVIDER NPI":1770661183,"PROVIDER NAME":"Jones, Avery","PROVIDER STATE":"North Dakota","PROVIDER CITY":"Grand Forks","PROVIDER  ADDRESS":"2200 So Washington St, Valley Vision Clinic","PROVIDER ZIP 5 CD":58201,"PROVIDER ZIP 4 CD":"","PROVIDER PHONE NUM":7017753135,"PROVIDER PHONE EXT":"","PROGRAM YEAR":2012},"geometry":{"type":"Point","coordinates":[-97.045557,47.898716]}},{"type":"Feature","id":"5132dd77a288f42e6735b6c0","properties":{"_id":"5132dd77a288f42e6735b6c0","PROVIDER NPI":1992723563,"PROVIDER NAME":"JORDAN, ANDREW","PROVIDER STATE":"North Dakota","PROVIDER CITY":"Fargo","PROVIDER  ADDRESS":"1720 S University Dr.","PROVIDER ZIP 5 CD":58103,"PROVIDER ZIP 4 CD":1929,"PROVIDER PHONE NUM":7012342305,"PROVIDER PHONE EXT":"","PROGRAM YEAR":2012},"geometry":{"type":"Point","coordinates":[-96.798447,46.861571]}},{"type":"Feature","id":"5132dd77a288f42e6735b6c1","properties":{"_id":"5132dd77a288f42e6735b6c1","PROVIDER NPI":1902092620,"PROVIDER NAME":"Juhl, Kirsten","PROVIDER STATE":"North Dakota","PROVIDER CITY":"Fargo","PROVIDER  ADDRESS":"2400 32nd Ave S","PROVIDER ZIP 5 CD":58103,"PROVIDER ZIP 4 CD":5800,"PROVIDER PHONE NUM":7012348820,"PROVIDER PHONE EXT":"","PROGRAM YEAR":2012},"geometry":{"type":"Point","coordinates":[-96.817638,46.832689]}},{"type":"Feature","id":"5132dd77a288f42e6735b6c2","properties":{"_id":"5132dd77a288f42e6735b6c2","PROVIDER NPI":1861556557,"PROVIDER NAME":"Karaz, Samy","PROVIDER STATE":"North Dakota","PROVIDER CITY":"Fargo","PROVIDER  ADDRESS":"2801 S. University Dr.","PROVIDER ZIP 5 CD":58103,"PROVIDER ZIP 4 CD":4940,"PROVIDER PHONE NUM":7012345673,"PROVIDER PHONE EXT":"","PROGRAM YEAR":2012},"geometry":{"type":"Point","coordinates":[-96.798447,46.861571]}},{"type":"Feature","id":"5132dd77a288f42e6735b6c3","properties":{"_id":"5132dd77a288f42e6735b6c3","PROVIDER NPI":1689873275,"PROVIDER NAME":"Kelly, Brendan","PROVIDER STATE":"North Dakota","PROVIDER CITY":"Fargo","PROVIDER  ADDRESS":"1720 University Dr S","PROVIDER ZIP 5 CD":58103,"PROVIDER ZIP 4 CD":4940,"PROVIDER PHONE NUM":7014615100,"PROVIDER PHONE EXT":"","PROGRAM YEAR":2012},"geometry":{"type":"Point","coordinates":[-96.798533,46.851839]}},{"type":"Feature","id":"5132dd77a288f42e6735b6c4","properties":{"_id":"5132dd77a288f42e6735b6c4","PROVIDER NPI":1578585063,"PROVIDER NAME":"KENNEDY, GARY","PROVIDER STATE":"North Dakota","PROVIDER CITY":"Fargo","PROVIDER  ADDRESS":"2400 32nd Ave S","PROVIDER ZIP 5 CD":58103,"PROVIDER ZIP 4 CD":5800,"PROVIDER PHONE NUM":7012348860,"PROVIDER PHONE EXT":"","PROGRAM YEAR":2012},"geometry":{"type":"Point","coordinates":[-96.817638,46.832689]}},{"type":"Feature","id":"5132dd77a288f42e6735b6c5","properties":{"_id":"5132dd77a288f42e6735b6c5","PROVIDER NPI":1013934785,"PROVIDER NAME":"KENNINGER, RANDALL","PROVIDER STATE":"North Dakota","PROVIDER CITY":"Fargo","PROVIDER  ADDRESS":"2400 32nd Ave S","PROVIDER ZIP 5 CD":58103,"PROVIDER ZIP 4 CD":5800,"PROVIDER PHONE NUM":7012348830,"PROVIDER PHONE EXT":"","PROGRAM YEAR":2012},"geometry":{"type":"Point","coordinates":[-96.817638,46.832689]}},{"type":"Feature","id":"5132dd77a288f42e6735b6c6","properties":{"_id":"5132dd77a288f42e6735b6c6","PROVIDER NPI":1174544308,"PROVIDER NAME":"KLAVA, WILLIAM","PROVIDER STATE":"North Dakota","PROVIDER CITY":"Fargo","PROVIDER  ADDRESS":"801 Broadway","PROVIDER ZIP 5 CD":58122,"PROVIDER ZIP 4 CD":1,"PROVIDER PHONE NUM":7012342203,"PROVIDER PHONE EXT":"","PROGRAM YEAR":2012},"geometry":{"type":"Point","coordinates":[-96.788608,46.88462]}},{"type":"Feature","id":"5132dd77a288f42e6735b6c7","properties":{"_id":"5132dd77a288f42e6735b6c7","PROVIDER NPI":1841218419,"PROVIDER NAME":"KNUTSON, CYNTHIA","PROVIDER STATE":"North Dakota","PROVIDER CITY":"Fargo","PROVIDER  ADDRESS":"700 1st Ave S","PROVIDER ZIP 5 CD":58103,"PROVIDER ZIP 4 CD":1802,"PROVIDER PHONE NUM":7012344019,"PROVIDER PHONE EXT":"","PROGRAM YEAR":2012},"geometry":{"type":"Point","coordinates":[-96.789678,46.873425]}},{"type":"Feature","id":"5132dd77a288f42e6735b6c8","properties":{"_id":"5132dd77a288f42e6735b6c8","PROVIDER NPI":1114985454,"PROVIDER NAME":"Kohlman-Petrick, JoEllen","PROVIDER STATE":"North Dakota","PROVIDER CITY":"Fargo","PROVIDER  ADDRESS":"801 Broadway N","PROVIDER ZIP 5 CD":58102,"PROVIDER ZIP 4 CD":3641,"PROVIDER PHONE NUM":7012345884,"PROVIDER PHONE EXT":"","PROGRAM YEAR":2012},"geometry":{"type":"Point","coordinates":[-96.788608,46.88462]}},{"type":"Feature","id":"5132dd77a288f42e6735b6c9","properties":{"_id":"5132dd77a288f42e6735b6c9","PROVIDER NPI":1871511436,"PROVIDER NAME":"KOUBA, CRAIG","PROVIDER STATE":"North Dakota","PROVIDER CITY":"Fargo","PROVIDER  ADDRESS":"801 Broadway","PROVIDER ZIP 5 CD":58122,"PROVIDER ZIP 4 CD":1,"PROVIDER PHONE NUM":7012342000,"PROVIDER PHONE EXT":"","PROGRAM YEAR":2012},"geometry":{"type":"Point","coordinates":[-96.788608,46.88462]}},{"type":"Feature","id":"5132dd77a288f42e6735b6ca","properties":{"_id":"5132dd77a288f42e6735b6ca","PROVIDER NPI":1558343707,"PROVIDER NAME":"Kraft, Bradley","PROVIDER STATE":"North Dakota","PROVIDER CITY":"Minot","PROVIDER  ADDRESS":"212 S Broadway, Suite #4","PROVIDER ZIP 5 CD":58701,"PROVIDER ZIP 4 CD":3867,"PROVIDER PHONE NUM":7018387676,"PROVIDER PHONE EXT":"","PROGRAM YEAR":2012},"geometry":{"type":"Point","coordinates":[-101.296069,48.232568]}},{"type":"Feature","id":"5132dd77a288f42e6735b6cb","properties":{"_id":"5132dd77a288f42e6735b6cb","PROVIDER NPI":1649297318,"PROVIDER NAME":"KUBALAK, GARY","PROVIDER STATE":"North Dakota","PROVIDER CITY":"Fargo","PROVIDER  ADDRESS":"801 Broadway N","PROVIDER ZIP 5 CD":58102,"PROVIDER ZIP 4 CD":3641,"PROVIDER PHONE NUM":7012342000,"PROVIDER PHONE EXT":"","PROGRAM YEAR":2012},"geometry":{"type":"Point","coordinates":[-96.788608,46.88462]}},{"type":"Feature","id":"5132dd77a288f42e6735b6cc","properties":{"_id":"5132dd77a288f42e6735b6cc","PROVIDER NPI":1780602342,"PROVIDER NAME":"LANG, DARIN","PROVIDER STATE":"North Dakota","PROVIDER CITY":"Fargo","PROVIDER  ADDRESS":"2400 32nd Ave S","PROVIDER ZIP 5 CD":58103,"PROVIDER ZIP 4 CD":5800,"PROVIDER PHONE NUM":7012348820,"PROVIDER PHONE EXT":"","PROGRAM YEAR":2012},"geometry":{"type":"Point","coordinates":[-96.817638,46.832689]}},{"type":"Feature","id":"5132dd77a288f42e6735b6cd","properties":{"_id":"5132dd77a288f42e6735b6cd","PROVIDER NPI":1811914583,"PROVIDER NAME":"LEITCH, JOHN","PROVIDER STATE":"North Dakota","PROVIDER CITY":"Fargo","PROVIDER  ADDRESS":"820 4th St N","PROVIDER ZIP 5 CD":58122,"PROVIDER ZIP 4 CD":1,"PROVIDER PHONE NUM":7012342000,"PROVIDER PHONE EXT":"","PROGRAM YEAR":2012},"geometry":{"type":"Point","coordinates":[-96.784732,46.859567]}},{"type":"Feature","id":"5132dd77a288f42e6735b6ce","properties":{"_id":"5132dd77a288f42e6735b6ce","PROVIDER NPI":1225056898,"PROVIDER NAME":"LENZMEIER, RICHARD","PROVIDER STATE":"North Dakota","PROVIDER CITY":"West Fargo","PROVIDER  ADDRESS":"1220 Sheyenne St","PROVIDER ZIP 5 CD":58078,"PROVIDER ZIP 4 CD":2637,"PROVIDER PHONE NUM":7012824445,"PROVIDER PHONE EXT":"","PROGRAM YEAR":2012},"geometry":{"type":"Point","coordinates":[-96.904176,46.863274]}},{"type":"Feature","id":"5132dd77a288f42e6735b6cf","properties":{"_id":"5132dd77a288f42e6735b6cf","PROVIDER NPI":1720005499,"PROVIDER NAME":"LEON, ZELKO","PROVIDER STATE":"North Dakota","PROVIDER CITY":"Fargo","PROVIDER  ADDRESS":"100 4th St S","PROVIDER ZIP 5 CD":58103,"PROVIDER ZIP 4 CD":1929,"PROVIDER PHONE NUM":7012343100,"PROVIDER PHONE EXT":"","PROGRAM YEAR":2012},"geometry":{"type":"Point","coordinates":[-96.784732,46.859567]}},{"type":"Feature","id":"5132dd77a288f42e6735b6d0","properties":{"_id":"5132dd77a288f42e6735b6d0","PROVIDER NPI":1366408536,"PROVIDER NAME":"Levitski-Heikkila, Teresa","PROVIDER STATE":"North Dakota","PROVIDER CITY":"Fargo","PROVIDER  ADDRESS":"801 Broadway","PROVIDER ZIP 5 CD":58122,"PROVIDER ZIP 4 CD":1,"PROVIDER PHONE NUM":7012343360,"PROVIDER PHONE EXT":"","PROGRAM YEAR":2012},"geometry":{"type":"Point","coordinates":[-96.788608,46.88462]}},{"type":"Feature","id":"5132dd77a288f42e6735b6d1","properties":{"_id":"5132dd77a288f42e6735b6d1","PROVIDER NPI":1194743765,"PROVIDER NAME":"LIEN, DAVID","PROVIDER STATE":"North Dakota","PROVIDER CITY":"Fargo","PROVIDER  ADDRESS":"2400 32nd Ave S","PROVIDER ZIP 5 CD":58103,"PROVIDER ZIP 4 CD":5800,"PROVIDER PHONE NUM":7012348830,"PROVIDER PHONE EXT":"","PROGRAM YEAR":2012},"geometry":{"type":"Point","coordinates":[-96.817638,46.832689]}},{"type":"Feature","id":"5132dd77a288f42e6735b6d2","properties":{"_id":"5132dd77a288f42e6735b6d2","PROVIDER NPI":1669427688,"PROVIDER NAME":"Lillestol, Michael","PROVIDER STATE":"North Dakota","PROVIDER CITY":"Fargo","PROVIDER  ADDRESS":"1707 Gold Dr, Ste 101","PROVIDER ZIP 5 CD":58103,"PROVIDER ZIP 4 CD":6413,"PROVIDER PHONE NUM":7012802033,"PROVIDER PHONE EXT":"","PROGRAM YEAR":2012},"geometry":{"type":"Point","coordinates":[-96.815657,46.844943]}},{"type":"Feature","id":"5132dd77a288f42e6735b6d3","properties":{"_id":"5132dd77a288f42e6735b6d3","PROVIDER NPI":1316994130,"PROVIDER NAME":"Litchfield, Douglas","PROVIDER STATE":"North Dakota","PROVIDER CITY":"Bismarck","PROVIDER  ADDRESS":"200 S 5th St","PROVIDER ZIP 5 CD":58504,"PROVIDER ZIP 4 CD":5675,"PROVIDER PHONE NUM":7012223937,"PROVIDER PHONE EXT":"","PROGRAM YEAR":2012},"geometry":{"type":"Point","coordinates":[-100.784675,46.804159]}},{"type":"Feature","id":"5132dd77a288f42e6735b6d4","properties":{"_id":"5132dd77a288f42e6735b6d4","PROVIDER NPI":1912984923,"PROVIDER NAME":"Louvar, Daniel","PROVIDER STATE":"North Dakota","PROVIDER CITY":"Fargo","PROVIDER  ADDRESS":"801 Broadway","PROVIDER ZIP 5 CD":58102,"PROVIDER ZIP 4 CD":"","PROVIDER PHONE NUM":7012343360,"PROVIDER PHONE EXT":"","PROGRAM YEAR":2012},"geometry":{"type":"Point","coordinates":[-96.788608,46.88462]}},