[{"type":"Feature","id":"5132dd80a288f42e67361bce","properties":{"_id":"5132dd80a288f42e67361bce","PROVIDER NPI":1497746051,"PROVIDER NAME":"Aamodt, Leonard","PROVIDER STATE":"Virginia","PROVIDER CITY":"Harrisonburg","PROVIDER  ADDRESS":"240 Lucy Dr","PROVIDER ZIP 5 CD":22801,"PROVIDER ZIP 4 CD":8036,"PROVIDER PHONE NUM":5404381314,"PROVIDER PHONE EXT":"","PROGRAM YEAR":2011},"geometry":{"type":"Point","coordinates":[-78.848275,38.424316]}},{"type":"Feature","id":"5132dd80a288f42e67361bcf","properties":{"_id":"5132dd80a288f42e67361bcf","PROVIDER NPI":1598720245,"PROVIDER NAME":"Abdelshaheed, Samir","PROVIDER STATE":"Virginia","PROVIDER CITY":"Portsmouth","PROVIDER  ADDRESS":"6111 Portsmouth Blvd","PROVIDER ZIP 5 CD":23701,"PROVIDER ZIP 4 CD":1445,"PROVIDER PHONE NUM":7574883333,"PROVIDER PHONE EXT":"","PROGRAM YEAR":2011},"geometry":{"type":"Point","coordinates":[-76.388716,36.821069]}},{"type":"Feature","id":"5132dd80a288f42e67361bd0","properties":{"_id":"5132dd80a288f42e67361bd0","PROVIDER NPI":1982871588,"PROVIDER NAME":"ABEDI, SEYEDA","PROVIDER STATE":"Virginia","PROVIDER CITY":"Fairfax","PROVIDER  ADDRESS":"3022 Williams Dr, Suite 300","PROVIDER ZIP 5 CD":22031,"PROVIDER ZIP 4 CD":4600,"PROVIDER PHONE NUM":7035739800,"PROVIDER PHONE EXT":"","PROGRAM YEAR":2011},"geometry":{"type":"Point","coordinates":[-77.258758,38.868314]}},{"type":"Feature","id":"5132dd80a288f42e67361bd1","properties":{"_id":"5132dd80a288f42e67361bd1","PROVIDER NPI":1023004710,"PROVIDER NAME":"Abou Assi, Souheil","PROVIDER STATE":"Virginia","PROVIDER CITY":"Richmond","PROVIDER  ADDRESS":"5855 Bremo Rd, Suite 706","PROVIDER ZIP 5 CD":23226,"PROVIDER ZIP 4 CD":1926,"PROVIDER PHONE NUM":8042858206,"PROVIDER PHONE EXT":"","PROGRAM YEAR":2011},"geometry":{"type":"Point","coordinates":[-77.513113,37.584373]}},{"type":"Feature","id":"5132dd80a288f42e67361bd2","properties":{"_id":"5132dd80a288f42e67361bd2","PROVIDER NPI":1003867433,"PROVIDER NAME":"ABOU ASSI, WALID","PROVIDER STATE":"Virginia","PROVIDER CITY":"Richmond","PROVIDER  ADDRESS":"5320 Patterson Ave, SUITE 200","PROVIDER ZIP 5 CD":23226,"PROVIDER ZIP 4 CD":1536,"PROVIDER PHONE NUM":8042853384,"PROVIDER PHONE EXT":"","PROGRAM YEAR":2011},"geometry":{"type":"Point","coordinates":[-77.508681,37.576023]}},{"type":"Feature","id":"5132dd80a288f42e67361bd3","properties":{"_id":"5132dd80a288f42e67361bd3","PROVIDER NPI":1093911802,"PROVIDER NAME":"Aboujaoude, Ramzi","PROVIDER STATE":"Virginia","PROVIDER CITY":"Midlothian","PROVIDER  ADDRESS":"1 Park West Circle, Suite 202","PROVIDER ZIP 5 CD":23114,"PROVIDER ZIP 4 CD":5552,"PROVIDER PHONE NUM":8043202483,"PROVIDER PHONE EXT":"","PROGRAM YEAR":2011},"geometry":{"type":"Point","coordinates":[-77.690817,37.623581]}},{"type":"Feature","id":"5132dd80a288f42e67361bd4","properties":{"_id":"5132dd80a288f42e67361bd4","PROVIDER NPI":1831305465,"PROVIDER NAME":"Abramova, Liana","PROVIDER STATE":"Virginia","PROVIDER CITY":"Centreville","PROVIDER  ADDRESS":"13880 Braddock Rd, Suite 301","PROVIDER ZIP 5 CD":20121,"PROVIDER ZIP 4 CD":9998,"PROVIDER PHONE NUM":7032222773,"PROVIDER PHONE EXT":"","PROGRAM YEAR":2011},"geometry":{"type":"Point","coordinates":[-77.428701,38.836267]}},{"type":"Feature","id":"5132dd80a288f42e67361bd5","properties":{"_id":"5132dd80a288f42e67361bd5","PROVIDER NPI":1548248610,"PROVIDER NAME":"Abramson, Edward","PROVIDER STATE":"Virginia","PROVIDER CITY":"Fairfax","PROVIDER  ADDRESS":"10301 Democracy Lane, Suite 410","PROVIDER ZIP 5 CD":22030,"PROVIDER ZIP 4 CD":2545,"PROVIDER PHONE NUM":7038765942,"PROVIDER PHONE EXT":"","PROGRAM YEAR":2011},"geometry":{"type":"Point","coordinates":[-77.301485,38.849394]}},{"type":"Feature","id":"5132dd80a288f42e67361bd6","properties":{"_id":"5132dd80a288f42e67361bd6","PROVIDER NPI":1053428862,"PROVIDER NAME":"Accettola, Robert","PROVIDER STATE":"Virginia","PROVIDER CITY":"Portsmouth","PROVIDER  ADDRESS":"3737 High St","PROVIDER ZIP 5 CD":23707,"PROVIDER ZIP 4 CD":2405,"PROVIDER PHONE NUM":7576869400,"PROVIDER PHONE EXT":"","PROGRAM YEAR":2011},"geometry":{"type":"Point","coordinates":[-76.352355,36.838631]}},{"type":"Feature","id":"5132dd80a288f42e67361bd7","properties":{"_id":"5132dd80a288f42e67361bd7","PROVIDER NPI":1316998586,"PROVIDER NAME":"Accousti, Kenneth","PROVIDER STATE":"Virginia","PROVIDER CITY":"Fredericksburg","PROVIDER  ADDRESS":"3310 Fall Hill Ave","PROVIDER ZIP 5 CD":22401,"PROVIDER ZIP 4 CD":3000,"PROVIDER PHONE NUM":5403734602,"PROVIDER PHONE EXT":"","PROGRAM YEAR":2011},"geometry":{"type":"Point","coordinates":[-77.490224,38.315934]}},{"type":"Feature","id":"5132dd80a288f42e67361bd8","properties":{"_id":"5132dd80a288f42e67361bd8","PROVIDER NPI":1053319426,"PROVIDER NAME":"Acker, Christopher","PROVIDER STATE":"Virginia","PROVIDER CITY":"Richmond","PROVIDER  ADDRESS":"671 Hioaks Rd, Suite B","PROVIDER ZIP 5 CD":23225,"PROVIDER ZIP 4 CD":"","PROVIDER PHONE NUM":8043236903,"PROVIDER PHONE EXT":"","PROGRAM YEAR":2011},"geometry":{"type":"Point","coordinates":[-77.525093,37.508896]}},{"type":"Feature","id":"5132dd80a288f42e67361bd9","properties":{"_id":"5132dd80a288f42e67361bd9","PROVIDER NPI":1235193806,"PROVIDER NAME":"Adam, Ender","PROVIDER STATE":"Virginia","PROVIDER CITY":"Springfield","PROVIDER  ADDRESS":"8350 Traford Ln","PROVIDER ZIP 5 CD":22152,"PROVIDER ZIP 4 CD":1638,"PROVIDER PHONE NUM":7035696363,"PROVIDER PHONE EXT":"","PROGRAM YEAR":2011},"geometry":{"type":"Point","coordinates":[-77.232049,38.781425]}},{"type":"Feature","id":"5132dd80a288f42e67361bda","properties":{"_id":"5132dd80a288f42e67361bda","PROVIDER NPI":1013905785,"PROVIDER NAME":"Adams, Scott","PROVIDER STATE":"Virginia","PROVIDER CITY":"Forest","PROVIDER  ADDRESS":"15421 Forest Rd, Suite B","PROVIDER ZIP 5 CD":24551,"PROVIDER ZIP 4 CD":"","PROVIDER PHONE NUM":4343841581,"PROVIDER PHONE EXT":"","PROGRAM YEAR":2011},"geometry":{"type":"Point","coordinates":[-79.269488,37.340064]}},{"type":"Feature","id":"5132dd80a288f42e67361bdb","properties":{"_id":"5132dd80a288f42e67361bdb","PROVIDER NPI":1861472862,"PROVIDER NAME":"Adams, Tonya","PROVIDER STATE":"Virginia","PROVIDER CITY":"Fairfax","PROVIDER  ADDRESS":"3022 Williams Dr, Suite 301","PROVIDER ZIP 5 CD":22031,"PROVIDER ZIP 4 CD":4600,"PROVIDER PHONE NUM":7036981775,"PROVIDER PHONE EXT":"","PROGRAM YEAR":2011},"geometry":{"type":"Point","coordinates":[-77.258758,38.868314]}},{"type":"Feature","id":"5132dd80a288f42e67361bdc","properties":{"_id":"5132dd80a288f42e67361bdc","PROVIDER NPI":1164427852,"PROVIDER NAME":"Adcock, Ollie","PROVIDER STATE":"Virginia","PROVIDER CITY":"Newport News","PROVIDER  ADDRESS":"856 J. Clyde Morris Blvd, Ste A","PROVIDER ZIP 5 CD":23601,"PROVIDER ZIP 4 CD":"","PROVIDER PHONE NUM":7575944006,"PROVIDER PHONE EXT":"","PROGRAM YEAR":2011},"geometry":{"type":"Point","coordinates":[-76.458876,37.087427]}},{"type":"Feature","id":"5132dd80a288f42e67361bdd","properties":{"_id":"5132dd80a288f42e67361bdd","PROVIDER NPI":1598842791,"PROVIDER NAME":"Adinaro, Joseph","PROVIDER STATE":"Virginia","PROVIDER CITY":"Newport News","PROVIDER  ADDRESS":"856 J. Clyde Morris Blvd, Ste A","PROVIDER ZIP 5 CD":23601,"PROVIDER ZIP 4 CD":"","PROVIDER PHONE NUM":7575944006,"PROVIDER PHONE EXT":"","PROGRAM YEAR":2011},"geometry":{"type":"Point","coordinates":[-76.458876,37.087427]}},{"type":"Feature","id":"5132dd80a288f42e67361bde","properties":{"_id":"5132dd80a288f42e67361bde","PROVIDER NPI":1427052786,"PROVIDER NAME":"Adkins, Steven","PROVIDER STATE":"Virginia","PROVIDER CITY":"Weber City","PROVIDER  ADDRESS":"1754 US Highway 23 N","PROVIDER ZIP 5 CD":24290,"PROVIDER ZIP 4 CD":7071,"PROVIDER PHONE NUM":2763869771,"PROVIDER PHONE EXT":"","PROGRAM YEAR":2011},"geometry":{"type":"Point","coordinates":[-82.567484,36.617977]}},{"type":"Feature","id":"5132dd80a288f42e67361bdf","properties":{"_id":"5132dd80a288f42e67361bdf","PROVIDER NPI":1700087202,"PROVIDER NAME":"Afsharchi, Foroozan","PROVIDER STATE":"Virginia","PROVIDER CITY":"Norfolk","PROVIDER  ADDRESS":"835 Glenrock Road, Suite 100","PROVIDER ZIP 5 CD":23502,"PROVIDER ZIP 4 CD":"","PROVIDER PHONE NUM":7572523060,"PROVIDER PHONE EXT":"","PROGRAM YEAR":2011},"geometry":{"type":"Point","coordinates":[-76.200682,36.851819]}},{"type":"Feature","id":"5132dd80a288f42e67361be0","properties":{"_id":"5132dd80a288f42e67361be0","PROVIDER NPI":1811975105,"PROVIDER NAME":"Agee, Robert","PROVIDER STATE":"Virginia","PROVIDER CITY":"Rocky Mount","PROVIDER  ADDRESS":"390 S Main St, Suite 101","PROVIDER ZIP 5 CD":24151,"PROVIDER ZIP 4 CD":"","PROVIDER PHONE NUM":5404844836,"PROVIDER PHONE EXT":"","PROGRAM YEAR":2011},"geometry":{"type":"Point","coordinates":[-79.889687,36.993697]}},{"type":"Feature","id":"5132dd80a288f42e67361be1","properties":{"_id":"5132dd80a288f42e67361be1","PROVIDER NPI":1518146554,"PROVIDER NAME":"AGGARWAL, RAJIV","PROVIDER STATE":"Virginia","PROVIDER CITY":"Lansdowne","PROVIDER  ADDRESS":"19415 Deerfield Ave, STE 103","PROVIDER ZIP 5 CD":20176,"PROVIDER ZIP 4 CD":8452,"PROVIDER PHONE NUM":5712233833,"PROVIDER PHONE EXT":"","PROGRAM YEAR":2011},"geometry":{"type":"Point","coordinates":[-77.480305,39.07924]}},{"type":"Feature","id":"5132dd80a288f42e67361be2","properties":{"_id":"5132dd80a288f42e67361be2","PROVIDER NPI":1326008384,"PROVIDER NAME":"Ahmad, Ishtiaq","PROVIDER STATE":"Virginia","PROVIDER CITY":"Reston","PROVIDER  ADDRESS":"1860 Town Center Dr, Suite 320","PROVIDER ZIP 5 CD":20190,"PROVIDER ZIP 4 CD":5896,"PROVIDER PHONE NUM":7033487207,"PROVIDER PHONE EXT":"","PROGRAM YEAR":2011},"geometry":{"type":"Point","coordinates":[-77.342716,38.965601]}},{"type":"Feature","id":"5132dd80a288f42e67361be3","properties":{"_id":"5132dd80a288f42e67361be3","PROVIDER NPI":1952520330,"PROVIDER NAME":"Ahmad, Naeem","PROVIDER STATE":"Virginia","PROVIDER CITY":"Fredericksburg","PROVIDER  ADDRESS":"1075 Garrisonville Rd, suite 115","PROVIDER ZIP 5 CD":22556,"PROVIDER ZIP 4 CD":"","PROVIDER PHONE NUM":5407859900,"PROVIDER PHONE EXT":"","PROGRAM YEAR":2011},"geometry":{"type":"Point","coordinates":[-77.468932,38.473812]}},{"type":"Feature","id":"5132dd80a288f42e67361be4","properties":{"_id":"5132dd80a288f42e67361be4","PROVIDER NPI":1487654182,"PROVIDER NAME":"ahmad, syed","PROVIDER STATE":"Virginia","PROVIDER CITY":"Bluefield","PROVIDER  ADDRESS":"11 Westwood Medical Park","PROVIDER ZIP 5 CD":24605,"PROVIDER ZIP 4 CD":2000,"PROVIDER PHONE NUM":2763262638,"PROVIDER PHONE EXT":"","PROGRAM YEAR":2011},"geometry":{"type":"Point","coordinates":[-81.50689,37.125729]}},{"type":"Feature","id":"5132dd80a288f42e67361be5","properties":{"_id":"5132dd80a288f42e67361be5","PROVIDER NPI":1083683528,"PROVIDER NAME":"Ahmed, Irshad","PROVIDER STATE":"Virginia","PROVIDER CITY":"Colonial Heights","PROVIDER  ADDRESS":"2801 Boulevard, Suite B","PROVIDER ZIP 5 CD":23836,"PROVIDER ZIP 4 CD":2323,"PROVIDER PHONE NUM":8045240524,"PROVIDER PHONE EXT":"","PROGRAM YEAR":2011},"geometry":{"type":"Point","coordinates":[-77.345303,37.234956]}},{"type":"Feature","id":"5132dd80a288f42e67361be6","properties":{"_id":"5132dd80a288f42e67361be6","PROVIDER NPI":1972715829,"PROVIDER NAME":"Akin, Claire","PROVIDER STATE":"Virginia","PROVIDER CITY":"Waynesboro","PROVIDER  ADDRESS":"428 S. Magnolia Ave.","PROVIDER ZIP 5 CD":22980,"PROVIDER ZIP 4 CD":3629,"PROVIDER PHONE NUM":5409498241,"PROVIDER PHONE EXT":"","PROGRAM YEAR":2011},"geometry":{"type":"Point","coordinates":[-78.901661,38.069512]}},{"type":"Feature","id":"5132dd80a288f42e67361be7","properties":{"_id":"5132dd80a288f42e67361be7","PROVIDER NPI":1932155421,"PROVIDER NAME":"Akrami Khasraghi, Fardin","PROVIDER STATE":"Virginia","PROVIDER CITY":"Woodbridge","PROVIDER  ADDRESS":"2022 Opitz Blvd Ste B","PROVIDER ZIP 5 CD":22191,"PROVIDER ZIP 4 CD":3323,"PROVIDER PHONE NUM":7039107390,"PROVIDER PHONE EXT":"","PROGRAM YEAR":2011},"geometry":{"type":"Point","coordinates":[-77.274853,38.634332]}},{"type":"Feature","id":"5132dd80a288f42e67361be8","properties":{"_id":"5132dd80a288f42e67361be8","PROVIDER NPI":1033107701,"PROVIDER NAME":"Albers, Gregg","PROVIDER STATE":"Virginia","PROVIDER CITY":"Lynchburg","PROVIDER  ADDRESS":"2811 Linkhorne Dr, Suite A","PROVIDER ZIP 5 CD":24503,"PROVIDER ZIP 4 CD":3354,"PROVIDER PHONE NUM":4343841581,"PROVIDER PHONE EXT":"","PROGRAM YEAR":2011},"geometry":{"type":"Point","coordinates":[-79.201347,37.416136]}},{"type":"Feature","id":"5132dd80a288f42e67361be9","properties":{"_id":"5132dd80a288f42e67361be9","PROVIDER NPI":1740359017,"PROVIDER NAME":"Albert, Moses","PROVIDER STATE":"Virginia","PROVIDER CITY":"Fairfax","PROVIDER  ADDRESS":"3020 Hamaker Ct Ste 504","PROVIDER ZIP 5 CD":22031,"PROVIDER ZIP 4 CD":2220,"PROVIDER PHONE NUM":7038498036,"PROVIDER PHONE EXT":"","PROGRAM YEAR":2011},"geometry":{"type":"Point","coordinates":[-77.236543,38.867901]}},{"type":"Feature","id":"5132dd80a288f42e67361bea","properties":{"_id":"5132dd80a288f42e67361bea","PROVIDER NPI":1093879157,"PROVIDER NAME":"Alejandrino Guina, Maria LC","PROVIDER STATE":"Virginia","PROVIDER CITY":"Norfolk","PROVIDER  ADDRESS":"835 Glenrock Road, Suite 100","PROVIDER ZIP 5 CD":23502,"PROVIDER ZIP 4 CD":"","PROVIDER PHONE NUM":7572523060,"PROVIDER PHONE EXT":"","PROGRAM YEAR":2011},"geometry":{"type":"Point","coordinates":[-76.200682,36.851819]}},{"type":"Feature","id":"5132dd80a288f42e67361beb","properties":{"_id":"5132dd80a288f42e67361beb","PROVIDER NPI":1720066012,"PROVIDER NAME":"Algeier, Rhonda","PROVIDER STATE":"Virginia","PROVIDER CITY":"Charlotte Court House","PROVIDER  ADDRESS":"560 George Washington Hwy, PO Box 410","PROVIDER ZIP 5 CD":23923,"PROVIDER ZIP 4 CD":"","PROVIDER PHONE NUM":4345425522,"PROVIDER PHONE EXT":2,"PROGRAM YEAR":2011},"geometry":{"type":"Point","coordinates":[-78.637846,37.087895]}},{"type":"Feature","id":"5132dd80a288f42e67361bec","properties":{"_id":"5132dd80a288f42e67361bec","PROVIDER NPI":1023277217,"PROVIDER NAME":"Ali Ibrahim, Amira","PROVIDER STATE":"Virginia","PROVIDER CITY":"Alexandria","PROVIDER  ADDRESS":"5249 Duke street, suite 403","PROVIDER ZIP 5 CD":22304,"PROVIDER ZIP 4 CD":2907,"PROVIDER PHONE NUM":7032124806,"PROVIDER PHONE EXT":"","PROGRAM YEAR":2011},"geometry":{"type":"Point","coordinates":[-77.122477,38.812461]}},{"type":"Feature","id":"5132dd80a288f42e67361bed","properties":{"_id":"5132dd80a288f42e67361bed","PROVIDER NPI":1861474348,"PROVIDER NAME":"Ali, Sabina","PROVIDER STATE":"Virginia","PROVIDER CITY":"Richmond","PROVIDER  ADDRESS":"5855 Bremo Rd, Suite 102","PROVIDER ZIP 5 CD":23226,"PROVIDER ZIP 4 CD":1930,"PROVIDER PHONE NUM":8046732814,"PROVIDER PHONE EXT":"","PROGRAM YEAR":2011},"geometry":{"type":"Point","coordinates":[-77.513113,37.584373]}},{"type":"Feature","id":"5132dd80a288f42e67361bee","properties":{"_id":"5132dd80a288f42e67361bee","PROVIDER NPI":1780844233,"PROVIDER NAME":"Ali, Syed","PROVIDER STATE":"Virginia","PROVIDER CITY":"Warrenton","PROVIDER  ADDRESS":"500 Hospital Dr","PROVIDER ZIP 5 CD":20186,"PROVIDER ZIP 4 CD":3027,"PROVIDER PHONE NUM":5403165537,"PROVIDER PHONE EXT":"","PROGRAM YEAR":2011},"geometry":{"type":"Point","coordinates":[-77.808998,38.711204]}},{"type":"Feature","id":"5132dd80a288f42e67361bef","properties":{"_id":"5132dd80a288f42e67361bef","PROVIDER NPI":1083640106,"PROVIDER NAME":"Alinsonorin, Cesar","PROVIDER STATE":"Virginia","PROVIDER CITY":"Norfolk","PROVIDER  ADDRESS":"835 Glenrock Road, Suite 100","PROVIDER ZIP 5 CD":23502,"PROVIDER ZIP 4 CD":"","PROVIDER PHONE NUM":7572523060,"PROVIDER PHONE EXT":"","PROGRAM YEAR":2011},"geometry":{"type":"Point","coordinates":[-76.200682,36.851819]}},{"type":"Feature","id":"5132dd80a288f42e67361bf0","properties":{"_id":"5132dd80a288f42e67361bf0","PROVIDER NPI":1164472726,"PROVIDER NAME":"ALLAUDDIN, TAHIR","PROVIDER STATE":"Virginia","PROVIDER CITY":"Colonial Heights","PROVIDER  ADDRESS":"2905 Boulevard","PROVIDER ZIP 5 CD":23834,"PROVIDER ZIP 4 CD":2400,"PROVIDER PHONE NUM":8045200040,"PROVIDER PHONE EXT":"","PROGRAM YEAR":2011},"geometry":{"type":"Point","coordinates":[-77.41177,37.26872]}},{"type":"Feature","id":"5132dd80a288f42e67361bf1","properties":{"_id":"5132dd80a288f42e67361bf1","PROVIDER NPI":1982607834,"PROVIDER NAME":"Allen, Earl","PROVIDER STATE":"Virginia","PROVIDER CITY":"Bristol","PROVIDER  ADDRESS":"1932 Lee Hwy","PROVIDER ZIP 5 CD":24201,"PROVIDER ZIP 4 CD":1624,"PROVIDER PHONE NUM":2764662273,"PROVIDER PHONE EXT":"","PROGRAM YEAR":2011},"geometry":{"type":"Point","coordinates":[-82.162342,36.622817]}},{"type":"Feature","id":"5132dd80a288f42e67361bf2","properties":{"_id":"5132dd80a288f42e67361bf2","PROVIDER NPI":1629075569,"PROVIDER NAME":"Allison, Nancy","PROVIDER STATE":"Virginia","PROVIDER CITY":"Norfolk","PROVIDER  ADDRESS":"420 N Center Dr, Bldg 11","PROVIDER ZIP 5 CD":23502,"PROVIDER ZIP 4 CD":4007,"PROVIDER PHONE NUM":7576230005,"PROVIDER PHONE EXT":"","PROGRAM YEAR":2011},"geometry":{"type":"Point","coordinates":[-76.190391,36.846608]}},{"type":"Feature","id":"5132dd80a288f42e67361bf3","properties":{"_id":"5132dd80a288f42e67361bf3","PROVIDER NPI":1821187816,"PROVIDER NAME":"Almahameed, Soufian","PROVIDER STATE":"Virginia","PROVIDER CITY":"Roanoke","PROVIDER  ADDRESS":"127 McClanahan St, Suite 300","PROVIDER ZIP 5 CD":24014,"PROVIDER ZIP 4 CD":1716,"PROVIDER PHONE NUM":5409828204,"PROVIDER PHONE EXT":"","PROGRAM YEAR":2011},"geometry":{"type":"Point","coordinates":[-79.946821,37.250346]}},{"type":"Feature","id":"5132dd80a288f42e67361bf4","properties":{"_id":"5132dd80a288f42e67361bf4","PROVIDER NPI":1396718995,"PROVIDER NAME":"Alper, Jason","PROVIDER STATE":"Virginia","PROVIDER CITY":"Norfolk","PROVIDER  ADDRESS":"835 Glenrock Road, Suite 100","PROVIDER ZIP 5 CD":23502,"PROVIDER ZIP 4 CD":"","PROVIDER PHONE NUM":7572523060,"PROVIDER PHONE EXT":"","PROGRAM YEAR":2011},"geometry":{"type":"Point","coordinates":[-76.200682,36.851819]}},{"type":"Feature","id":"5132dd80a288f42e67361bf5","properties":{"_id":"5132dd80a288f42e67361bf5","PROVIDER NPI":1558367235,"PROVIDER NAME":"Alter, Matthew","PROVIDER STATE":"Virginia","PROVIDER CITY":"Richmond","PROVIDER  ADDRESS":"1051 Johnston Willis Dr., St. 200","PROVIDER ZIP 5 CD":23235,"PROVIDER ZIP 4 CD":"","PROVIDER PHONE NUM":8043790029,"PROVIDER PHONE EXT":"","PROGRAM YEAR":2011},"geometry":{"type":"Point","coordinates":[-77.593998,37.507469]}},{"type":"Feature","id":"5132dd80a288f42e67361bf6","properties":{"_id":"5132dd80a288f42e67361bf6","PROVIDER NPI":1558369991,"PROVIDER NAME":"Amedeo, Ralph","PROVIDER STATE":"Virginia","PROVIDER CITY":"Arlington","PROVIDER  ADDRESS":"1715 N George Mason Dr, Suite 306","PROVIDER ZIP 5 CD":22205,"PROVIDER ZIP 4 CD":3609,"PROVIDER PHONE NUM":7032760630,"PROVIDER PHONE EXT":"","PROGRAM YEAR":2011},"geometry":{"type":"Point","coordinates":[-77.128489,38.888693]}},{"type":"Feature","id":"5132dd80a288f42e67361bf7","properties":{"_id":"5132dd80a288f42e67361bf7","PROVIDER NPI":1902878051,"PROVIDER NAME":"Amick, Robert","PROVIDER STATE":"Virginia","PROVIDER CITY":"Roanoke","PROVIDER  ADDRESS":"6415 Peters Creek Rd","PROVIDER ZIP 5 CD":24019,"PROVIDER ZIP 4 CD":4021,"PROVIDER PHONE NUM":5402655500,"PROVIDER PHONE EXT":"","PROGRAM YEAR":2011},"geometry":{"type":"Point","coordinates":[-79.964328,37.343934]}},{"type":"Feature","id":"5132dd80a288f42e67361bf8","properties":{"_id":"5132dd80a288f42e67361bf8","PROVIDER NPI":1801003157,"PROVIDER NAME":"Amin, Mitesh","PROVIDER STATE":"Virginia","PROVIDER CITY":"Colonial Heights","PROVIDER  ADDRESS":"2801 Boulevard, Suite D","PROVIDER ZIP 5 CD":23834,"PROVIDER ZIP 4 CD":2323,"PROVIDER PHONE NUM":8045201764,"PROVIDER PHONE EXT":"","PROGRAM YEAR":2011},"geometry":{"type":"Point","coordinates":[-77.460027,37.14138]}},{"type":"Feature","id":"5132dd80a288f42e67361bf9","properties":{"_id":"5132dd80a288f42e67361bf9","PROVIDER NPI":1962482661,"PROVIDER NAME":"Amos, Jesse","PROVIDER STATE":"Virginia","PROVIDER CITY":"Rocky Mount","PROVIDER  ADDRESS":"195 Maple Ave","PROVIDER ZIP 5 CD":24151,"PROVIDER ZIP 4 CD":1506,"PROVIDER PHONE NUM":5404835168,"PROVIDER PHONE EXT":"","PROGRAM YEAR":2011},"geometry":{"type":"Point","coordinates":[-79.888002,36.997213]}},{"type":"Feature","id":"5132dd80a288f42e67361bfa","properties":{"_id":"5132dd80a288f42e67361bfa","PROVIDER NPI":1972570349,"PROVIDER NAME":"Ananthram, Vasudev","PROVIDER STATE":"Virginia","PROVIDER CITY":"Newport News","PROVIDER  ADDRESS":"856 J. Clyde Morris Blvd, Ste A","PROVIDER ZIP 5 CD":23601,"PROVIDER ZIP 4 CD":"","PROVIDER PHONE NUM":7575944006,"PROVIDER PHONE EXT":"","PROGRAM YEAR":2011},"geometry":{"type":"Point","coordinates":[-76.458876,37.087427]}},{"type":"Feature","id":"5132dd80a288f42e67361bfb","properties":{"_id":"5132dd80a288f42e67361bfb","PROVIDER NPI":1225122195,"PROVIDER NAME":"Anderson, Cathy","PROVIDER STATE":"Virginia","PROVIDER CITY":"Lynchburg","PROVIDER  ADDRESS":"2413 Wards Rd","PROVIDER ZIP 5 CD":24502,"PROVIDER ZIP 4 CD":2103,"PROVIDER PHONE NUM":4342395323,"PROVIDER PHONE EXT":103,"PROGRAM YEAR":2011},"geometry":{"type":"Point","coordinates":[-79.182764,37.367631]}},{"type":"Feature","id":"5132dd80a288f42e67361bfc","properties":{"_id":"5132dd80a288f42e67361bfc","PROVIDER NPI":1922188523,"PROVIDER NAME":"Anderson, Justin","PROVIDER STATE":"Virginia","PROVIDER CITY":"Lynchburg","PROVIDER  ADDRESS":"2410 Atherholt Rd","PROVIDER ZIP 5 CD":24501,"PROVIDER ZIP 4 CD":2148,"PROVIDER PHONE NUM":4342005252,"PROVIDER PHONE EXT":"","PROGRAM YEAR":2011},"geometry":{"type":"Point","coordinates":[-79.172022,37.410787]}},{"type":"Feature","id":"5132dd80a288f42e67361bfd","properties":{"_id":"5132dd80a288f42e67361bfd","PROVIDER NPI":1861467508,"PROVIDER NAME":"Anderson, Peter","PROVIDER STATE":"Virginia","PROVIDER CITY":"Newport News","PROVIDER  ADDRESS":"10852 Warwick Blvd","PROVIDER ZIP 5 CD":23601,"PROVIDER ZIP 4 CD":3741,"PROVIDER PHONE NUM":7575943602,"PROVIDER PHONE EXT":"","PROGRAM YEAR":2011},"geometry":{"type":"Point","coordinates":[-76.468397,37.039401]}},{"type":"Feature","id":"5132dd80a288f42e67361bfe","properties":{"_id":"5132dd80a288f42e67361bfe","PROVIDER NPI":1023083417,"PROVIDER NAME":"Anderson, Robin","PROVIDER STATE":"Virginia","PROVIDER CITY":"Norfolk","PROVIDER  ADDRESS":"835 Glenrock Road, Suite 100","PROVIDER ZIP 5 CD":23502,"PROVIDER ZIP 4 CD":"","PROVIDER PHONE NUM":7572523060,"PROVIDER PHONE EXT":"","PROGRAM YEAR":2011},"geometry":{"type":"Point","coordinates":[-76.200682,36.851819]}},{"type":"Feature","id":"5132dd80a288f42e67361bff","properties":{"_id":"5132dd80a288f42e67361bff","PROVIDER NPI":1275526501,"PROVIDER NAME":"Anderson, Rudolph","PROVIDER STATE":"Virginia","PROVIDER CITY":"Springfield","PROVIDER  ADDRESS":"5510 Alma Lane","PROVIDER ZIP 5 CD":22151,"PROVIDER ZIP 4 CD":"","PROVIDER PHONE NUM":7036425990,"PROVIDER PHONE EXT":1214,"PROGRAM YEAR":2011},"geometry":{"type":"Point","coordinates":[-77.185922,38.800147]}},{"type":"Feature","id":"5132dd80a288f42e67361c00","properties":{"_id":"5132dd80a288f42e67361c00","PROVIDER NPI":1356310551,"PROVIDER NAME":"Andrawis, Nabil","PROVIDER STATE":"Virginia","PROVIDER CITY":"Burke","PROVIDER  ADDRESS":"5631 Burke Centre Pkwy, suite A","PROVIDER ZIP 5 CD":22015,"PROVIDER ZIP 4 CD":2234,"PROVIDER PHONE NUM":7032505171,"PROVIDER PHONE EXT":"","PROGRAM YEAR":2011},"geometry":{"type":"Point","coordinates":[-77.279163,38.804773]}},{"type":"Feature","id":"5132dd80a288f42e67361c01","properties":{"_id":"5132dd80a288f42e67361c01","PROVIDER NPI":1689663320,"PROVIDER NAME":"Ansari, Nather","PROVIDER STATE":"Virginia","PROVIDER CITY":"Stafford","PROVIDER  ADDRESS":"1075 Garrisonville Rd, Suite 115","PROVIDER ZIP 5 CD":22556,"PROVIDER ZIP 4 CD":8600,"PROVIDER PHONE NUM":5402889888,"PROVIDER PHONE EXT":"","PROGRAM YEAR":2011},"geometry":{"type":"Point","coordinates":[-77.427396,38.478778]}},{"type":"Feature","id":"5132dd80a288f42e67361c02","properties":{"_id":"5132dd80a288f42e67361c02","PROVIDER NPI":1740241314,"PROVIDER NAME":"Antus, John","PROVIDER STATE":"Virginia","PROVIDER CITY":"Manassas","PROVIDER  ADDRESS":"9306 Forest Point Cir","PROVIDER ZIP 5 CD":20110,"PROVIDER ZIP 4 CD":4700,"PROVIDER PHONE NUM":7033303322,"PROVIDER PHONE EXT":"","PROGRAM YEAR":2011},"geometry":{"type":"Point","coordinates":[-77.478622,38.765262]}},{"type":"Feature","id":"5132dd80a288f42e67361c03","properties":{"_id":"5132dd80a288f42e67361c03","PROVIDER NPI":1659481984,"PROVIDER NAME":"Apfel, Lisa","PROVIDER STATE":"Virginia","PROVIDER CITY":"Roanoke","PROVIDER  ADDRESS":"3 Riverside Cir","PROVIDER ZIP 5 CD":24016,"PROVIDER ZIP 4 CD":4955,"PROVIDER PHONE NUM":5402245170,"PROVIDER PHONE EXT":"","PROGRAM YEAR":2011},"geometry":{"type":"Point","coordinates":[-79.960066,37.269573]}},{"type":"Feature","id":"5132dd80a288f42e67361c04","properties":{"_id":"5132dd80a288f42e67361c04","PROVIDER NPI":1487962338,"PROVIDER NAME":"Appleman, Nicholas","PROVIDER STATE":"Virginia","PROVIDER CITY":"Springfield","PROVIDER  ADDRESS":"8350 Traford Ln, Second Floor","PROVIDER ZIP 5 CD":22152,"PROVIDER ZIP 4 CD":1664,"PROVIDER PHONE NUM":7035696363,"PROVIDER PHONE EXT":"","PROGRAM YEAR":2011},"geometry":{"type":"Point","coordinates":[-77.232049,38.781425]}},{"type":"Feature","id":"5132dd80a288f42e67361c05","properties":{"_id":"5132dd80a288f42e67361c05","PROVIDER NPI":1154499069,"PROVIDER NAME":"Aram, Ghazaleh","PROVIDER STATE":"Virginia","PROVIDER CITY":"Woodbridge","PROVIDER  ADDRESS":"14010 Smoketown Road, Suite 117","PROVIDER ZIP 5 CD":22192,"PROVIDER ZIP 4 CD":4704,"PROVIDER PHONE NUM":7035800181,"PROVIDER PHONE EXT":"","PROGRAM YEAR":2011},"geometry":{"type":"Point","coordinates":[-77.30216,38.649324]}},{"type":"Feature","id":"5132dd80a288f42e67361c06","properties":{"_id":"5132dd80a288f42e67361c06","PROVIDER NPI":1164452363,"PROVIDER NAME":"Arcarese, Michael","PROVIDER STATE":"Virginia","PROVIDER CITY":"Richmond","PROVIDER  ADDRESS":"7101 Jahnke Road, Suite 550","PROVIDER ZIP 5 CD":23225,"PROVIDER ZIP 4 CD":"","PROVIDER PHONE NUM":8045608880,"PROVIDER PHONE EXT":"","PROGRAM YEAR":2011},"geometry":{"type":"Point","coordinates":[-77.524958,37.51592]}},{"type":"Feature","id":"5132dd80a288f42e67361c07","properties":{"_id":"5132dd80a288f42e67361c07","PROVIDER NPI":1215975370,"PROVIDER NAME":"Arezo, Shahwali","PROVIDER STATE":"Virginia","PROVIDER CITY":"Newport News","PROVIDER  ADDRESS":"856 J. Clyde Morris Blvd, Ste A","PROVIDER ZIP 5 CD":23601,"PROVIDER ZIP 4 CD":"","PROVIDER PHONE NUM":7575944006,"PROVIDER PHONE EXT":"","PROGRAM YEAR":2011},"geometry":{"type":"Point","coordinates":[-76.458876,37.087427]}},{"type":"Feature","id":"5132dd80a288f42e67361c08","properties":{"_id":"5132dd80a288f42e67361c08","PROVIDER NPI":1699797720,"PROVIDER NAME":"Arliss, Jill","PROVIDER STATE":"Virginia","PROVIDER CITY":"Roanoke","PROVIDER  ADDRESS":"21 Highland Ave SE, Ste 200","PROVIDER ZIP 5 CD":24013,"PROVIDER ZIP 4 CD":2201,"PROVIDER PHONE NUM":5409828881,"PROVIDER PHONE EXT":"","PROGRAM YEAR":2011},"geometry":{"type":"Point","coordinates":[-79.941153,37.264508]}},{"type":"Feature","id":"5132dd80a288f42e67361c09","properties":{"_id":"5132dd80a288f42e67361c09","PROVIDER NPI":1306959895,"PROVIDER NAME":"Armstrong, Brent","PROVIDER STATE":"Virginia","PROVIDER CITY":"Hopewell","PROVIDER  ADDRESS":"815 W Poythress St","PROVIDER ZIP 5 CD":23860,"PROVIDER ZIP 4 CD":2532,"PROVIDER PHONE NUM":8044588557,"PROVIDER PHONE EXT":119,"PROGRAM YEAR":2011},"geometry":{"type":"Point","coordinates":[-77.294374,37.302412]}},{"type":"Feature","id":"5132dd80a288f42e67361c0a","properties":{"_id":"5132dd80a288f42e67361c0a","PROVIDER NPI":1023047768,"PROVIDER NAME":"Arnette, Bryan","PROVIDER STATE":"Virginia","PROVIDER CITY":"Weber City","PROVIDER  ADDRESS":"1754 US Highway 23 N","PROVIDER ZIP 5 CD":24290,"PROVIDER ZIP 4 CD":7071,"PROVIDER PHONE NUM":2762869771,"PROVIDER PHONE EXT":"","PROGRAM YEAR":2011},"geometry":{"type":"Point","coordinates":[-82.567484,36.617977]}},{"type":"Feature","id":"5132dd80a288f42e67361c0b","properties":{"_id":"5132dd80a288f42e67361c0b","PROVIDER NPI":1477541142,"PROVIDER NAME":"Arnold, Fredrick","PROVIDER STATE":"Virginia","PROVIDER CITY":"Newport News","PROVIDER  ADDRESS":"856 J Clyde Morris Blvd, Ste A","PROVIDER ZIP 5 CD":23601,"PROVIDER ZIP 4 CD":"","PROVIDER PHONE NUM":7575944006,"PROVIDER PHONE EXT":"","PROGRAM YEAR":2011},"geometry":{"type":"Point","coordinates":[-76.458876,37.087427]}},{"type":"Feature","id":"5132dd80a288f42e67361c0c","properties":{"_id":"5132dd80a288f42e67361c0c","PROVIDER NPI":1831150382,"PROVIDER NAME":"Arnold, Janice","PROVIDER STATE":"Virginia","PROVIDER CITY":"Fairfax","PROVIDER  ADDRESS":"10301 Democracy Lane, STE 410","PROVIDER ZIP 5 CD":22030,"PROVIDER ZIP 4 CD":2545,"PROVIDER PHONE NUM":7038765942,"PROVIDER PHONE EXT":"","PROGRAM YEAR":2011},"geometry":{"type":"Point","coordinates":[-77.301485,38.849394]}},{"type":"Feature","id":"5132dd80a288f42e67361c0d","properties":{"_id":"5132dd80a288f42e67361c0d","PROVIDER NPI":1285692814,"PROVIDER NAME":"Arnold, Michael","PROVIDER STATE":"Virginia","PROVIDER CITY":"Charlottesville","PROVIDER  ADDRESS":"600 Peter Jefferson Pkwy, Ste 290","PROVIDER ZIP 5 CD":22911,"PROVIDER ZIP 4 CD":"","PROVIDER PHONE NUM":4349774488,"PROVIDER PHONE EXT":"","PROGRAM YEAR":2011},"geometry":{"type":"Point","coordinates":[-78.44597,38.035309]}},{"type":"Feature","id":"5132dd80a288f42e67361c0e","properties":{"_id":"5132dd80a288f42e67361c0e","PROVIDER NPI":1992828693,"PROVIDER NAME":"Arnold, Paul","PROVIDER STATE":"Virginia","PROVIDER CITY":"Manassas","PROVIDER  ADDRESS":"8650 Sudley Road, Ste 410","PROVIDER ZIP 5 CD":20110,"PROVIDER ZIP 4 CD":"","PROVIDER PHONE NUM":7033686819,"PROVIDER PHONE EXT":"","PROGRAM YEAR":2011},"geometry":{"type":"Point","coordinates":[-77.486474,38.768298]}},{"type":"Feature","id":"5132dd80a288f42e67361c0f","properties":{"_id":"5132dd80a288f42e67361c0f","PROVIDER NPI":1710969753,"PROVIDER NAME":"Arnold, William","PROVIDER STATE":"Virginia","PROVIDER CITY":"Roanoke","PROVIDER  ADDRESS":"2001 Crystal Spring Ave SW, Suite 201","PROVIDER ZIP 5 CD":24014,"PROVIDER ZIP 4 CD":2462,"PROVIDER PHONE NUM":5403445781,"PROVIDER PHONE EXT":"","PROGRAM YEAR":2011},"geometry":{"type":"Point","coordinates":[-79.934013,37.229701]}},{"type":"Feature","id":"5132dd80a288f42e67361c10","properties":{"_id":"5132dd80a288f42e67361c10","PROVIDER NPI":1992727762,"PROVIDER NAME":"Arnstine, Kimberly","PROVIDER STATE":"Virginia","PROVIDER CITY":"Warrenton","PROVIDER  ADDRESS":"493 Blackwell Rd, Ste 202","PROVIDER ZIP 5 CD":20186,"PROVIDER ZIP 4 CD":"","PROVIDER PHONE NUM":5403474400,"PROVIDER PHONE EXT":"","PROGRAM YEAR":2011},"geometry":{"type":"Point","coordinates":[-77.790544,38.724802]}},{"type":"Feature","id":"5132dd80a288f42e67361c11","properties":{"_id":"5132dd80a288f42e67361c11","PROVIDER NPI":1831183144,"PROVIDER NAME":"Aronhime, Michelle","PROVIDER STATE":"Virginia","PROVIDER CITY":"Manassas","PROVIDER  ADDRESS":"8100 Ashton Ave, Suite 101","PROVIDER ZIP 5 CD":20109,"PROVIDER ZIP 4 CD":"","PROVIDER PHONE NUM":7032578090,"PROVIDER PHONE EXT":"","PROGRAM YEAR":2011},"geometry":{"type":"Point","coordinates":[-77.519262,38.783755]}},{"type":"Feature","id":"5132dd80a288f42e67361c12","properties":{"_id":"5132dd80a288f42e67361c12","PROVIDER NPI":1003888223,"PROVIDER NAME":"Arthur, Christy","PROVIDER STATE":"Virginia","PROVIDER CITY":"Roanoke","PROVIDER  ADDRESS":"3707 Brambleton Ave","PROVIDER ZIP 5 CD":24018,"PROVIDER ZIP 4 CD":3658,"PROVIDER PHONE NUM":5407257800,"PROVIDER PHONE EXT":"","PROGRAM YEAR":2011},"geometry":{"type":"Point","coordinates":[-80.004349,37.235637]}},{"type":"Feature","id":"5132dd80a288f42e67361c13","properties":{"_id":"5132dd80a288f42e67361c13","PROVIDER NPI":1518996818,"PROVIDER NAME":"Artz, Ronald","PROVIDER STATE":"Virginia","PROVIDER CITY":"Mechanicsville","PROVIDER  ADDRESS":"8220 Meadowbridge Rd, Suite 203","PROVIDER ZIP 5 CD":23116,"PROVIDER ZIP 4 CD":2336,"PROVIDER PHONE NUM":8047641253,"PROVIDER PHONE EXT":"","PROGRAM YEAR":2011},"geometry":{"type":"Point","coordinates":[-77.385617,37.626661]}},{"type":"Feature","id":"5132dd80a288f42e67361c14","properties":{"_id":"5132dd80a288f42e67361c14","PROVIDER NPI":1710999347,"PROVIDER NAME":"ASAO-RAGOSTA, KIYOKO","PROVIDER STATE":"Virginia","PROVIDER CITY":"Charlottesville","PROVIDER  ADDRESS":"3025 Berkmar Dr","PROVIDER ZIP 5 CD":22901,"PROVIDER ZIP 4 CD":1456,"PROVIDER PHONE NUM":4349731831,"PROVIDER PHONE EXT":"","PROGRAM YEAR":2011},"geometry":{"type":"Point","coordinates":[-78.477498,38.084962]}},{"type":"Feature","id":"5132dd80a288f42e67361c15","properties":{"_id":"5132dd80a288f42e67361c15","PROVIDER NPI":1780609602,"PROVIDER NAME":"Asfa, Saied","PROVIDER STATE":"Virginia","PROVIDER CITY":"Harrisonburg","PROVIDER  ADDRESS":"30 Boyers Rd","PROVIDER ZIP 5 CD":22801,"PROVIDER ZIP 4 CD":2214,"PROVIDER PHONE NUM":5404320303,"PROVIDER PHONE EXT":"","PROGRAM YEAR":2011},"geometry":{"type":"Point","coordinates":[-78.835763,38.415226]}},{"type":"Feature","id":"5132dd80a288f42e67361c16","properties":{"_id":"5132dd80a288f42e67361c16","PROVIDER NPI":1033134283,"PROVIDER NAME":"Ashley, Carlene","PROVIDER STATE":"Virginia","PROVIDER CITY":"Bluefield","PROVIDER  ADDRESS":"110 Huffard Dr","PROVIDER ZIP 5 CD":24605,"PROVIDER ZIP 4 CD":9209,"PROVIDER PHONE NUM":2763263376,"PROVIDER PHONE EXT":"","PROGRAM YEAR":2011},"geometry":{"type":"Point","coordinates":[-81.27121,37.25262]}},{"type":"Feature","id":"5132dd80a288f42e67361c17","properties":{"_id":"5132dd80a288f42e67361c17","PROVIDER NPI":1659545614,"PROVIDER NAME":"Ashrafi, Abbas","PROVIDER STATE":"Virginia","PROVIDER CITY":"Richmond","PROVIDER  ADDRESS":"4620 S Laburnum Ave","PROVIDER ZIP 5 CD":23231,"PROVIDER ZIP 4 CD":2424,"PROVIDER PHONE NUM":8046522200,"PROVIDER PHONE EXT":"","PROGRAM YEAR":2011},"geometry":{"type":"Point","coordinates":[-77.355106,37.525881]}},{"type":"Feature","id":"5132dd80a288f42e67361c18","properties":{"_id":"5132dd80a288f42e67361c18","PROVIDER NPI":1720077100,"PROVIDER NAME":"Aslanis, Diane","PROVIDER STATE":"Virginia","PROVIDER CITY":"Farmville","PROVIDER  ADDRESS":"800 Oak Street","PROVIDER ZIP 5 CD":23901,"PROVIDER ZIP 4 CD":1199,"PROVIDER PHONE NUM":4343152950,"PROVIDER PHONE EXT":"","PROGRAM YEAR":2011},"geometry":{"type":"Point","coordinates":[-78.402477,37.303183]}},{"type":"Feature","id":"5132dd80a288f42e67361c19","properties":{"_id":"5132dd80a288f42e67361c19","PROVIDER NPI":1417931353,"PROVIDER NAME":"Atienza, Vergel","PROVIDER STATE":"Virginia","PROVIDER CITY":"Rocky Mount","PROVIDER  ADDRESS":"390 S Main St, Suite 201","PROVIDER ZIP 5 CD":24151,"PROVIDER ZIP 4 CD":1711,"PROVIDER PHONE NUM":5404844800,"PROVIDER PHONE EXT":"","PROGRAM YEAR":2011},"geometry":{"type":"Point","coordinates":[-79.889687,36.993697]}},{"type":"Feature","id":"5132dd80a288f42e67361c1a","properties":{"_id":"5132dd80a288f42e67361c1a","PROVIDER NPI":1578768735,"PROVIDER NAME":"Atiq, Aida","PROVIDER STATE":"Virginia","PROVIDER CITY":"Hampton","PROVIDER  ADDRESS":"2148 W Mercury Blvd","PROVIDER ZIP 5 CD":23666,"PROVIDER ZIP 4 CD":3111,"PROVIDER PHONE NUM":7578271940,"PROVIDER PHONE EXT":"","PROGRAM YEAR":2011},"geometry":{"type":"Point","coordinates":[-76.400589,37.039209]}},{"type":"Feature","id":"5132dd80a288f42e67361c1b","properties":{"_id":"5132dd80a288f42e67361c1b","PROVIDER NPI":1144212051,"PROVIDER NAME":"AUMAN, JAMES","PROVIDER STATE":"Virginia","PROVIDER CITY":"Chesapeake","PROVIDER  ADDRESS":"4037 Taylor Rd, SUITE A","PROVIDER ZIP 5 CD":23321,"PROVIDER ZIP 4 CD":5535,"PROVIDER PHONE NUM":7574831403,"PROVIDER PHONE EXT":"","PROGRAM YEAR":2011},"geometry":{"type":"Point","coordinates":[-76.394065,36.801397]}},{"type":"Feature","id":"5132dd80a288f42e67361c1c","properties":{"_id":"5132dd80a288f42e67361c1c","PROVIDER NPI":1013916238,"PROVIDER NAME":"Austin, Joseph","PROVIDER STATE":"Virginia","PROVIDER CITY":"Roanoke","PROVIDER  ADDRESS":"127 McClanahan St SW, Suite 300","PROVIDER ZIP 5 CD":24014,"PROVIDER ZIP 4 CD":1716,"PROVIDER PHONE NUM":5409828204,"PROVIDER PHONE EXT":"","PROGRAM YEAR":2011},"geometry":{"type":"Point","coordinates":[-79.946821,37.250346]}},{"type":"Feature","id":"5132dd80a288f42e67361c1d","properties":{"_id":"5132dd80a288f42e67361c1d","PROVIDER NPI":1194915538,"PROVIDER NAME":"Avery, Aerial","PROVIDER STATE":"Virginia","PROVIDER CITY":"Glen Allen","PROVIDER  ADDRESS":"3936 Springfield Rd, Podiatry Office","PROVIDER ZIP 5 CD":23060,"PROVIDER ZIP 4 CD":4119,"PROVIDER PHONE NUM":8049349340,"PROVIDER PHONE EXT":"","PROGRAM YEAR":2011},"geometry":{"type":"Point","coordinates":[-77.559216,37.643496]}},{"type":"Feature","id":"5132dd80a288f42e67361c1e","properties":{"_id":"5132dd80a288f42e67361c1e","PROVIDER NPI":1205916343,"PROVIDER NAME":"Aziz, Sameh","PROVIDER STATE":"Virginia","PROVIDER CITY":"Roanoke","PROVIDER  ADDRESS":"2001 Crystal Spring Ave, Suite 205","PROVIDER ZIP 5 CD":24014,"PROVIDER ZIP 4 CD":2462,"PROVIDER PHONE NUM":5409858505,"PROVIDER PHONE EXT":"","PROGRAM YEAR":2011},"geometry":{"type":"Point","coordinates":[-79.934013,37.229701]}},{"type":"Feature","id":"5132dd80a288f42e67361c1f","properties":{"_id":"5132dd80a288f42e67361c1f","PROVIDER NPI":1750560793,"PROVIDER NAME":"Babburi, Haritha","PROVIDER STATE":"Virginia","PROVIDER CITY":"Farmville","PROVIDER  ADDRESS":"900 West Third St","PROVIDER ZIP 5 CD":23901,"PROVIDER ZIP 4 CD":"","PROVIDER PHONE NUM":4343924370,"PROVIDER PHONE EXT":"","PROGRAM YEAR":2011},"geometry":{"type":"Point","coordinates":[-78.405249,37.303718]}},{"type":"Feature","id":"5132dd80a288f42e67361c20","properties":{"_id":"5132dd80a288f42e67361c20","PROVIDER NPI":1689619389,"PROVIDER NAME":"Babcock, MariaPaz","PROVIDER STATE":"Virginia","PROVIDER CITY":"Fairfax","PROVIDER  ADDRESS":"3031 Javier Rd., Ste. 100","PROVIDER ZIP 5 CD":22031,"PROVIDER ZIP 4 CD":"","PROVIDER PHONE NUM":7039148000,"PROVIDER PHONE EXT":"","PROGRAM YEAR":2011},"geometry":{"type":"Point","coordinates":[-77.258758,38.868314]}},{"type":"Feature","id":"5132dd80a288f42e67361c21","properties":{"_id":"5132dd80a288f42e67361c21","PROVIDER NPI":1295949337,"PROVIDER NAME":"Bachrach, Alexis","PROVIDER STATE":"Virginia","PROVIDER CITY":"Richmond","PROVIDER  ADDRESS":"10710 Midlothian Tnpk, Suite 200","PROVIDER ZIP 5 CD":23235,"PROVIDER ZIP 4 CD":"","PROVIDER PHONE NUM":8048972100,"PROVIDER PHONE EXT":"","PROGRAM YEAR":2011},"geometry":{"type":"Point","coordinates":[-77.595037,37.50705]}},{"type":"Feature","id":"5132dd80a288f42e67361c22","properties":{"_id":"5132dd80a288f42e67361c22","PROVIDER NPI":1801865779,"PROVIDER NAME":"Bacon, Anne","PROVIDER STATE":"Virginia","PROVIDER CITY":"Winchester","PROVIDER  ADDRESS":"1730 Amherst Street","PROVIDER ZIP 5 CD":22601,"PROVIDER ZIP 4 CD":"","PROVIDER PHONE NUM":5406676232,"PROVIDER PHONE EXT":"","PROGRAM YEAR":2011},"geometry":{"type":"Point","coordinates":[-78.192077,39.191425]}},{"type":"Feature","id":"5132dd80a288f42e67361c23","properties":{"_id":"5132dd80a288f42e67361c23","PROVIDER NPI":1831164151,"PROVIDER NAME":"Bademian, Robert","PROVIDER STATE":"Virginia","PROVIDER CITY":"Norfolk","PROVIDER  ADDRESS":"835 Glenrock Road, Suite 100","PROVIDER ZIP 5 CD":23502,"PROVIDER ZIP 4 CD":"","PROVIDER PHONE NUM":7572523060,"PROVIDER PHONE EXT":"","PROGRAM YEAR":2011},"geometry":{"type":"Point","coordinates":[-76.200682,36.851819]}},{"type":"Feature","id":"5132dd80a288f42e67361c24","properties":{"_id":"5132dd80a288f42e67361c24","PROVIDER NPI":1083696785,"PROVIDER NAME":"Badillo, Leslie","PROVIDER STATE":"Virginia","PROVIDER CITY":"Christiansburg","PROVIDER  ADDRESS":"205 Roanoke St","PROVIDER ZIP 5 CD":24073,"PROVIDER ZIP 4 CD":3025,"PROVIDER PHONE NUM":5403816000,"PROVIDER PHONE EXT":"","PROGRAM YEAR":2011},"geometry":{"type":"Point","coordinates":[-80.403917,37.130206]}},{"type":"Feature","id":"5132dd80a288f42e67361c25","properties":{"_id":"5132dd80a288f42e67361c25","PROVIDER NPI":1437329109,"PROVIDER NAME":"Badiola, Ignacio","PROVIDER STATE":"Virginia","PROVIDER CITY":"Fairfax","PROVIDER  ADDRESS":"3031 Javier Rd., Ste 210","PROVIDER ZIP 5 CD":22031,"PROVIDER ZIP 4 CD":"","PROVIDER PHONE NUM":7039148000,"PROVIDER PHONE EXT":"","PROGRAM YEAR":2011},"geometry":{"type":"Point","coordinates":[-77.258758,38.868314]}},{"type":"Feature","id":"5132dd80a288f42e67361c26","properties":{"_id":"5132dd80a288f42e67361c26","PROVIDER NPI":1679553358,"PROVIDER NAME":"Baer, Anna","PROVIDER STATE":"Virginia","PROVIDER CITY":"Charlottesville","PROVIDER  ADDRESS":"650 Peter Jefferson Pkwy, Suite 100","PROVIDER ZIP 5 CD":22911,"PROVIDER ZIP 4 CD":8844,"PROVIDER PHONE NUM":4342934072,"PROVIDER PHONE EXT":"","PROGRAM YEAR":2011},"geometry":{"type":"Point","coordinates":[-78.445981,38.035409]}},{"type":"Feature","id":"5132dd80a288f42e67361c27","properties":{"_id":"5132dd80a288f42e67361c27","PROVIDER NPI":1083720767,"PROVIDER NAME":"Baer, Robert","PROVIDER STATE":"Virginia","PROVIDER CITY":"Norfolk","PROVIDER  ADDRESS":"601 Medical Tower","PROVIDER ZIP 5 CD":23507,"PROVIDER ZIP 4 CD":"","PROVIDER PHONE NUM":7576226315,"PROVIDER PHONE EXT":"","PROGRAM YEAR":2011},"geometry":{"type":"Point","coordinates":[-76.299862,36.865697]}},{"type":"Feature","id":"5132dd80a288f42e67361c28","properties":{"_id":"5132dd80a288f42e67361c28","PROVIDER NPI":1962478891,"PROVIDER NAME":"Baglio, Robert","PROVIDER STATE":"Virginia","PROVIDER CITY":"Charlottesville","PROVIDER  ADDRESS":"2050 Abbey Rd, Suite C","PROVIDER ZIP 5 CD":22911,"PROVIDER ZIP 4 CD":3540,"PROVIDER PHONE NUM":4342954443,"PROVIDER PHONE EXT":"","PROGRAM YEAR":2011},"geometry":{"type":"Point","coordinates":[-78.987271,38.051806]}},{"type":"Feature","id":"5132dd80a288f42e67361c29","properties":{"_id":"5132dd80a288f42e67361c29","PROVIDER NPI":1003803149,"PROVIDER NAME":"Bagnall, Richard","PROVIDER STATE":"Virginia","PROVIDER CITY":"Newport News","PROVIDER  ADDRESS":"856 J Clyde Morris Blvd, Ste A","PROVIDER ZIP 5 CD":23601,"PROVIDER ZIP 4 CD":"","PROVIDER PHONE NUM":7575944006,"PROVIDER PHONE EXT":"","PROGRAM YEAR":2011},"geometry":{"type":"Point","coordinates":[-76.458876,37.087427]}},{"type":"Feature","id":"5132dd80a288f42e67361c2a","properties":{"_id":"5132dd80a288f42e67361c2a","PROVIDER NPI":1003898040,"PROVIDER NAME":"Baker, Joseph","PROVIDER STATE":"Virginia","PROVIDER CITY":"Roanoke","PROVIDER  ADDRESS":"2001 Crystal Spring Ave SW, Suite 201","PROVIDER ZIP 5 CD":24014,"PROVIDER ZIP 4 CD":2462,"PROVIDER PHONE NUM":5403445781,"PROVIDER PHONE EXT":"","PROGRAM YEAR":2011},"geometry":{"type":"Point","coordinates":[-79.934013,37.229701]}},{"type":"Feature","id":"5132dd80a288f42e67361c2b","properties":{"_id":"5132dd80a288f42e67361c2b","PROVIDER NPI":1215919303,"PROVIDER NAME":"Baker, William","PROVIDER STATE":"Virginia","PROVIDER CITY":"Lynchburg","PROVIDER  ADDRESS":"114 Nationwide Dr","PROVIDER ZIP 5 CD":24502,"PROVIDER ZIP 4 CD":4271,"PROVIDER PHONE NUM":4342397890,"PROVIDER PHONE EXT":"","PROGRAM YEAR":2011},"geometry":{"type":"Point","coordinates":[-79.217104,37.378611]}},{"type":"Feature","id":"5132dd80a288f42e67361c2c","properties":{"_id":"5132dd80a288f42e67361c2c","PROVIDER NPI":1194766329,"PROVIDER NAME":"BAKER, WILLIAM","PROVIDER STATE":"Virginia","PROVIDER CITY":"Christiansburg","PROVIDER  ADDRESS":"2900 Lamb Cir, SUITE 190","PROVIDER ZIP 5 CD":24073,"PROVIDER ZIP 4 CD":6344,"PROVIDER PHONE NUM":5406335650,"PROVIDER PHONE EXT":"","PROGRAM YEAR":2011},"geometry":{"type":"Point","coordinates":[-80.507356,37.08963]}},{"type":"Feature","id":"5132dd80a288f42e67361c2d","properties":{"_id":"5132dd80a288f42e67361c2d","PROVIDER NPI":1609841907,"PROVIDER NAME":"Bakhshi, Raja","PROVIDER STATE":"Virginia","PROVIDER CITY":"Norfolk","PROVIDER  ADDRESS":"835 Glenrock Road, Suite 100","PROVIDER ZIP 5 CD":23502,"PROVIDER ZIP 4 CD":"","PROVIDER PHONE NUM":7572523060,"PROVIDER PHONE EXT":"","PROGRAM YEAR":2011},"geometry":{"type":"Point","coordinates":[-76.200682,36.851819]}},{"type":"Feature","id":"5132dd80a288f42e67361c2e","properties":{"_id":"5132dd80a288f42e67361c2e","PROVIDER NPI":1720037617,"PROVIDER NAME":"Bakht, Shoaib","PROVIDER STATE":"Virginia","PROVIDER CITY":"Suffolk","PROVIDER  ADDRESS":"1030 Hillpoint Blvd N","PROVIDER ZIP 5 CD":23434,"PROVIDER ZIP 4 CD":8470,"PROVIDER PHONE NUM":7575390444,"PROVIDER PHONE EXT":"","PROGRAM YEAR":2011},"geometry":{"type":"Point","coordinates":[-76.586329,36.784039]}},{"type":"Feature","id":"5132dd80a288f42e67361c2f","properties":{"_id":"5132dd80a288f42e67361c2f","PROVIDER NPI":1013949254,"PROVIDER NAME":"Balba, Nader","PROVIDER STATE":"Virginia","PROVIDER CITY":"Fairfax","PROVIDER  ADDRESS":"3022 Williams Dr, Suite 301","PROVIDER ZIP 5 CD":22031,"PROVIDER ZIP 4 CD":4600,"PROVIDER PHONE NUM":7036988960,"PROVIDER PHONE EXT":"","PROGRAM YEAR":2011},"geometry":{"type":"Point","coordinates":[-77.258758,38.868314]}},{"type":"Feature","id":"5132dd80a288f42e67361c30","properties":{"_id":"5132dd80a288f42e67361c30","PROVIDER NPI":1952378952,"PROVIDER NAME":"Balint, Virgil","PROVIDER STATE":"Virginia","PROVIDER CITY":"FAIRFAX","PROVIDER  ADDRESS":"3031 JAVIER RD, STE 210","PROVIDER ZIP 5 CD":22031,"PROVIDER ZIP 4 CD":"","PROVIDER PHONE NUM":7039148000,"PROVIDER PHONE EXT":"","PROGRAM YEAR":2011},"geometry":{"type":"Point","coordinates":[-77.258758,38.868314]}},{"type":"Feature","id":"5132dd80a288f42e67361c31","properties":{"_id":"5132dd80a288f42e67361c31","PROVIDER NPI":1750344891,"PROVIDER NAME":"Balka, Amy","PROVIDER STATE":"Virginia","PROVIDER CITY":"Newport News","PROVIDER  ADDRESS":"856 J. Clyde Morris Blvd, Ste A","PROVIDER ZIP 5 CD":23601,"PROVIDER ZIP 4 CD":"","PROVIDER PHONE NUM":7575944006,"PROVIDER PHONE EXT":241,"PROGRAM YEAR":2011},"geometry":{"type":"Point","coordinates":[-76.458876,37.087427]}},{"type":"Feature","id":"5132dd80a288f42e67361c32","properties":{"_id":"5132dd80a288f42e67361c32","PROVIDER NPI":1518968601,"PROVIDER NAME":"Ball, Robert","PROVIDER STATE":"Virginia","PROVIDER CITY":"Fairfax","PROVIDER  ADDRESS":"10301 Democracy Lane, #410","PROVIDER ZIP 5 CD":22030,"PROVIDER ZIP 4 CD":2545,"PROVIDER PHONE NUM":7038765942,"PROVIDER PHONE EXT":"","PROGRAM YEAR":2011},"geometry":{"type":"Point","coordinates":[-77.301485,38.849394]}},{"type":"Feature","id":"5132dd80a288f42e67361c33","properties":{"_id":"5132dd80a288f42e67361c33","PROVIDER NPI":1942261409,"PROVIDER NAME":"Ball, Thomas","PROVIDER STATE":"Virginia","PROVIDER CITY":"Front Royal","PROVIDER  ADDRESS":"140 W 11th St","PROVIDER ZIP 5 CD":22630,"PROVIDER ZIP 4 CD":3512,"PROVIDER PHONE NUM":5406313700,"PROVIDER PHONE EXT":"","PROGRAM YEAR":2011},"geometry":{"type":"Point","coordinates":[-78.197713,38.931963]}},{"type":"Feature","id":"5132dd80a288f42e67361c34","properties":{"_id":"5132dd80a288f42e67361c34","PROVIDER NPI":1972567675,"PROVIDER NAME":"Banerji, Chinmayee","PROVIDER STATE":"Virginia","PROVIDER CITY":"Carrollton","PROVIDER  ADDRESS":"13609 Carrollton Blvd, Suite 11","PROVIDER ZIP 5 CD":23314,"PROVIDER ZIP 4 CD":3214,"PROVIDER PHONE NUM":7572388751,"PROVIDER PHONE EXT":"","PROGRAM YEAR":2011},"geometry":{"type":"Point","coordinates":[-76.561255,36.963409]}},{"type":"Feature","id":"5132dd80a288f42e67361c35","properties":{"_id":"5132dd80a288f42e67361c35","PROVIDER NPI":1104011766,"PROVIDER NAME":"Bankole, Adegbenga","PROVIDER STATE":"Virginia","PROVIDER CITY":"Roanoke","PROVIDER  ADDRESS":"3 Rivers Circle","PROVIDER ZIP 5 CD":24016,"PROVIDER ZIP 4 CD":4955,"PROVIDER PHONE NUM":5402245170,"PROVIDER PHONE EXT":"","PROGRAM YEAR":2011},"geometry":{"type":"Point","coordinates":[-80.298727,37.279401]}},{"type":"Feature","id":"5132dd80a288f42e67361c36","properties":{"_id":"5132dd80a288f42e67361c36","PROVIDER NPI":1144483009,"PROVIDER NAME":"Bankole, Azziza","PROVIDER STATE":"Virginia","PROVIDER CITY":"Roanoke","PROVIDER  ADDRESS":"2001 Crystal Spring Ave, Suite 302","PROVIDER ZIP 5 CD":24014,"PROVIDER ZIP 4 CD":"","PROVIDER PHONE NUM":5409817653,"PROVIDER PHONE EXT":"","PROGRAM YEAR":2011},"geometry":{"type":"Point","coordinates":[-79.934013,37.229701]}},{"type":"Feature","id":"5132dd80a288f42e67361c37","properties":{"_id":"5132dd80a288f42e67361c37","PROVIDER NPI":1962407924,"PROVIDER NAME":"Banson, Felice","PROVIDER STATE":"Virginia","PROVIDER CITY":"Manassas","PROVIDER  ADDRESS":"8650 Sudley Rd, Ste 410","PROVIDER ZIP 5 CD":20110,"PROVIDER ZIP 4 CD":4416,"PROVIDER PHONE NUM":7033686819,"PROVIDER PHONE EXT":"","PROGRAM YEAR":2011},"geometry":{"type":"Point","coordinates":[-77.486474,38.768298]}},{"type":"Feature","id":"5132dd80a288f42e67361c38","properties":{"_id":"5132dd80a288f42e67361c38","PROVIDER NPI":1013988476,"PROVIDER NAME":"Barber, Gregory","PROVIDER STATE":"Virginia","PROVIDER CITY":"Virginia Beach","PROVIDER  ADDRESS":"329 Phillip Avenue, Suite 102","PROVIDER ZIP 5 CD":23454,"PROVIDER ZIP 4 CD":4380,"PROVIDER PHONE NUM":7574372882,"PROVIDER PHONE EXT":"","PROGRAM YEAR":2011},"geometry":{"type":"Point","coordinates":[-76.017068,36.848093]}},{"type":"Feature","id":"5132dd80a288f42e67361c39","properties":{"_id":"5132dd80a288f42e67361c39","PROVIDER NPI":1144297714,"PROVIDER NAME":"Barnes, Hal","PROVIDER STATE":"Virginia","PROVIDER CITY":"Norfolk","PROVIDER  ADDRESS":"835 Glenrock Road, Suite 100","PROVIDER ZIP 5 CD":23502,"PROVIDER ZIP 4 CD":"","PROVIDER PHONE NUM":7572523060,"PROVIDER PHONE EXT":"","PROGRAM YEAR":2011},"geometry":{"type":"Point","coordinates":[-76.200682,36.851819]}},{"type":"Feature","id":"5132dd80a288f42e67361c3a","properties":{"_id":"5132dd80a288f42e67361c3a","PROVIDER NPI":1215909239,"PROVIDER NAME":"Barnhart, Karen","PROVIDER STATE":"Virginia","PROVIDER CITY":"Salem","PROVIDER  ADDRESS":"2102 W Main St","PROVIDER ZIP 5 CD":24153,"PROVIDER ZIP 4 CD":3129,"PROVIDER PHONE NUM":5403750600,"PROVIDER PHONE EXT":"","PROGRAM YEAR":2011},"geometry":{"type":"Point","coordinates":[-80.096075,37.287379]}},{"type":"Feature","id":"5132dd80a288f42e67361c3b","properties":{"_id":"5132dd80a288f42e67361c3b","PROVIDER NPI":1154377497,"PROVIDER NAME":"Baroni, Darren","PROVIDER STATE":"Virginia","PROVIDER CITY":"Manassas","PROVIDER  ADDRESS":"8650 Sudley Rd Ste 410","PROVIDER ZIP 5 CD":20110,"PROVIDER ZIP 4 CD":4419,"PROVIDER PHONE NUM":7033686819,"PROVIDER PHONE EXT":"","PROGRAM YEAR":2011},"geometry":{"type":"Point","coordinates":[-77.486474,38.768298]}},{"type":"Feature","id":"5132dd80a288f42e67361c3c","properties":{"_id":"5132dd80a288f42e67361c3c","PROVIDER NPI":1629091434,"PROVIDER NAME":"Barot, Amrutlal","PROVIDER STATE":"Virginia","PROVIDER CITY":"Chesapeake","PROVIDER  ADDRESS":"637 Kingsborough Sq, Suite E","PROVIDER ZIP 5 CD":23320,"PROVIDER ZIP 4 CD":"","PROVIDER PHONE NUM":7574102804,"PROVIDER PHONE EXT":"","PROGRAM YEAR":2011},"geometry":{"type":"Point","coordinates":[-76.261564,36.757885]}},{"type":"Feature","id":"5132dd80a288f42e67361c3d","properties":{"_id":"5132dd80a288f42e67361c3d","PROVIDER NPI":1609806058,"PROVIDER NAME":"Barot, Ikshvanku","PROVIDER STATE":"Virginia","PROVIDER CITY":"Chesapeake","PROVIDER  ADDRESS":"637 Kingsboro Sq, Suite E","PROVIDER ZIP 5 CD":23320,"PROVIDER ZIP 4 CD":"","PROVIDER PHONE NUM":7574102804,"PROVIDER PHONE EXT":"","PROGRAM YEAR":2011},"geometry":{"type":"Point","coordinates":[-76.261564,36.757885]}},{"type":"Feature","id":"5132dd80a288f42e67361c3e","properties":{"_id":"5132dd80a288f42e67361c3e","PROVIDER NPI":1376755603,"PROVIDER NAME":"BAROT, NISHIDH","PROVIDER STATE":"Virginia","PROVIDER CITY":"Chesapeake","PROVIDER  ADDRESS":"637 Kingsborough Sq, Suite E","PROVIDER ZIP 5 CD":23320,"PROVIDER ZIP 4 CD":4944,"PROVIDER PHONE NUM":7574102804,"PROVIDER PHONE EXT":"","PROGRAM YEAR":2011},"geometry":{"type":"Point","coordinates":[-76.261564,36.757885]}},{"type":"Feature","id":"5132dd80a288f42e67361c3f","properties":{"_id":"5132dd80a288f42e67361c3f","PROVIDER NPI":1487682985,"PROVIDER NAME":"Barr, Lisa","PROVIDER STATE":"Virginia","PROVIDER CITY":"Norfolk","PROVIDER  ADDRESS":"5665 Lowery Road, Suite 100","PROVIDER ZIP 5 CD":23502,"PROVIDER ZIP 4 CD":"","PROVIDER PHONE NUM":7574222966,"PROVIDER PHONE EXT":"","PROGRAM YEAR":2011},"geometry":{"type":"Point","coordinates":[-76.210247,36.863101]}},{"type":"Feature","id":"5132dd80a288f42e67361c40","properties":{"_id":"5132dd80a288f42e67361c40","PROVIDER NPI":1962473371,"PROVIDER NAME":"Barr, Mark","PROVIDER STATE":"Virginia","PROVIDER CITY":"Richmond","PROVIDER  ADDRESS":"9600 Patterson Ave","PROVIDER ZIP 5 CD":23229,"PROVIDER ZIP 4 CD":6053,"PROVIDER PHONE NUM":8047416200,"PROVIDER PHONE EXT":"","PROGRAM YEAR":2011},"geometry":{"type":"Point","coordinates":[-77.591253,37.596172]}},{"type":"Feature","id":"5132dd80a288f42e67361c41","properties":{"_id":"5132dd80a288f42e67361c41","PROVIDER NPI":1548239122,"PROVIDER NAME":"Barron, Jennifer","PROVIDER STATE":"Virginia","PROVIDER CITY":"Front Royal","PROVIDER  ADDRESS":"140 W 11th St","PROVIDER ZIP 5 CD":22630,"PROVIDER ZIP 4 CD":3512,"PROVIDER PHONE NUM":5406313700,"PROVIDER PHONE EXT":"","PROGRAM YEAR":2011},"geometry":{"type":"Point","coordinates":[-78.197713,38.931963]}},{"type":"Feature","id":"5132dd80a288f42e67361c42","properties":{"_id":"5132dd80a288f42e67361c42","PROVIDER NPI":1366433443,"PROVIDER NAME":"Barron, Natalie","PROVIDER STATE":"Virginia","PROVIDER CITY":"Hampton","PROVIDER  ADDRESS":"191 Fox Hill Rd, Suite D","PROVIDER ZIP 5 CD":23669,"PROVIDER ZIP 4 CD":2360,"PROVIDER PHONE NUM":7578501311,"PROVIDER PHONE EXT":"","PROGRAM YEAR":2011},"geometry":{"type":"Point","coordinates":[-76.328879,37.056086]}},{"type":"Feature","id":"5132dd80a288f42e67361c43","properties":{"_id":"5132dd80a288f42e67361c43","PROVIDER NPI":1710054457,"PROVIDER NAME":"Bartis, Lois","PROVIDER STATE":"Virginia","PROVIDER CITY":"arlington","PROVIDER  ADDRESS":"611 s carlin springs rd, Suite 504","PROVIDER ZIP 5 CD":22204,"PROVIDER ZIP 4 CD":4451,"PROVIDER PHONE NUM":7039986666,"PROVIDER PHONE EXT":"","PROGRAM YEAR":2011},"geometry":{"type":"Point","coordinates":[-77.129105,38.86186]}},{"type":"Feature","id":"5132dd80a288f42e67361c44","properties":{"_id":"5132dd80a288f42e67361c44","PROVIDER NPI":1477669414,"PROVIDER NAME":"Baselga, Christina","PROVIDER STATE":"Virginia","PROVIDER CITY":"Arlington","PROVIDER  ADDRESS":"1625 N George Mason Dr, Suite 434","PROVIDER ZIP 5 CD":22205,"PROVIDER ZIP 4 CD":"","PROVIDER PHONE NUM":7035221860,"PROVIDER PHONE EXT":"","PROGRAM YEAR":2011},"geometry":{"type":"Point","coordinates":[-77.128076,38.887934]}},{"type":"Feature","id":"5132dd80a288f42e67361c45","properties":{"_id":"5132dd80a288f42e67361c45","PROVIDER NPI":1831160530,"PROVIDER NAME":"Basham, Christopher","PROVIDER STATE":"Virginia","PROVIDER CITY":"Big Stone Gap","PROVIDER  ADDRESS":"1 Cloverleaf Sq, SUITE F1","PROVIDER ZIP 5 CD":24219,"PROVIDER ZIP 4 CD":2758,"PROVIDER PHONE NUM":2765236715,"PROVIDER PHONE EXT":"","PROGRAM YEAR":2011},"geometry":{"type":"Point","coordinates":[-82.462549,37.148962]}},{"type":"Feature","id":"5132dd80a288f42e67361c46","properties":{"_id":"5132dd80a288f42e67361c46","PROVIDER NPI":1134166705,"PROVIDER NAME":"Basile, Michael","PROVIDER STATE":"Virginia","PROVIDER CITY":"Roanoke","PROVIDER  ADDRESS":"4461 STARKEY ROAD, SUITE 201","PROVIDER ZIP 5 CD":24018,"PROVIDER ZIP 4 CD":"","PROVIDER PHONE NUM":5403454946,"PROVIDER PHONE EXT":"","PROGRAM YEAR":2011},"geometry":{"type":"Point","coordinates":[-79.984606,37.225709]}},{"type":"Feature","id":"5132dd80a288f42e67361c47","properties":{"_id":"5132dd80a288f42e67361c47","PROVIDER NPI":1275531824,"PROVIDER NAME":"Bass, Robert","PROVIDER STATE":"Virginia","PROVIDER CITY":"Manassas","PROVIDER  ADDRESS":"8721 Digges Rd","PROVIDER ZIP 5 CD":20110,"PROVIDER ZIP 4 CD":4403,"PROVIDER PHONE NUM":7033614161,"PROVIDER PHONE EXT":"","PROGRAM YEAR":2011},"geometry":{"type":"Point","coordinates":[-77.486589,38.765876]}},{"type":"Feature","id":"5132dd80a288f42e67361c48","properties":{"_id":"5132dd80a288f42e67361c48","PROVIDER NPI":1821070475,"PROVIDER NAME":"Bassey, Stella","PROVIDER STATE":"Virginia","PROVIDER CITY":"christiansburg","PROVIDER  ADDRESS":"2900 Tyler Rd","PROVIDER ZIP 5 CD":24073,"PROVIDER ZIP 4 CD":6374,"PROVIDER PHONE NUM":5407317311,"PROVIDER PHONE EXT":"","PROGRAM YEAR":2011},"geometry":{"type":"Point","coordinates":[-80.508962,37.099156]}},{"type":"Feature","id":"5132dd80a288f42e67361c49","properties":{"_id":"5132dd80a288f42e67361c49","PROVIDER NPI":1538130257,"PROVIDER NAME":"BASTA, BAHER","PROVIDER STATE":"Virginia","PROVIDER CITY":"Suffolk","PROVIDER  ADDRESS":"2897 Bridge Rd","PROVIDER ZIP 5 CD":23435,"PROVIDER ZIP 4 CD":1799,"PROVIDER PHONE NUM":7574847248,"PROVIDER PHONE EXT":"","PROGRAM YEAR":2011},"geometry":{"type":"Point","coordinates":[-76.490127,36.868244]}},{"type":"Feature","id":"5132dd80a288f42e67361c4a","properties":{"_id":"5132dd80a288f42e67361c4a","PROVIDER NPI":1043257611,"PROVIDER NAME":"Bauer, Daniel","PROVIDER STATE":"Virginia","PROVIDER CITY":"Roanoke","PROVIDER  ADDRESS":"4461 STARKEY ROAD, SUITE 201","PROVIDER ZIP 5 CD":24018,"PROVIDER ZIP 4 CD":"","PROVIDER PHONE NUM":5403454946,"PROVIDER PHONE EXT":"","PROGRAM YEAR":2011},"geometry":{"type":"Point","coordinates":[-79.984606,37.225709]}},{"type":"Feature","id":"5132dd80a288f42e67361c4b","properties":{"_id":"5132dd80a288f42e67361c4b","PROVIDER NPI":1073566048,"PROVIDER NAME":"Bautista, Eliseo","PROVIDER STATE":"Virginia","PROVIDER CITY":"Richmond","PROVIDER  ADDRESS":"5855 Bremo Rd, Suite 506","PROVIDER ZIP 5 CD":23226,"PROVIDER ZIP 4 CD":1926,"PROVIDER PHONE NUM":8042853225,"PROVIDER PHONE EXT":518,"PROGRAM YEAR":2011},"geometry":{"type":"Point","coordinates":[-77.513113,37.584373]}},{"type":"Feature","id":"5132dd80a288f42e67361c4c","properties":{"_id":"5132dd80a288f42e67361c4c","PROVIDER NPI":1568401750,"PROVIDER NAME":"BAVA, JOSEPH","PROVIDER STATE":"Virginia","PROVIDER CITY":"Virginia Beach","PROVIDER  ADDRESS":"2008 General Booth Blvd, SUITE B","PROVIDER ZIP 5 CD":23454,"PROVIDER ZIP 4 CD":"","PROVIDER PHONE NUM":7573019996,"PROVIDER PHONE EXT":"","PROGRAM YEAR":2011},"geometry":{"type":"Point","coordinates":[-76.011079,36.771408]}},{"type":"Feature","id":"5132dd80a288f42e67361c4d","properties":{"_id":"5132dd80a288f42e67361c4d","PROVIDER NPI":1164678744,"PROVIDER NAME":"Baveja, Namrita","PROVIDER STATE":"Virginia","PROVIDER CITY":"Danville","PROVIDER  ADDRESS":"1040 Main St","PROVIDER ZIP 5 CD":24541,"PROVIDER ZIP 4 CD":1816,"PROVIDER PHONE NUM":4347921433,"PROVIDER PHONE EXT":"","PROGRAM YEAR":2011},"geometry":{"type":"Point","coordinates":[-79.401725,36.580557]}},{"type":"Feature","id":"5132dd80a288f42e67361c4e","properties":{"_id":"5132dd80a288f42e67361c4e","PROVIDER NPI":1922000256,"PROVIDER NAME":"Bazaco, George","PROVIDER STATE":"Virginia","PROVIDER CITY":"Fairfax","PROVIDER  ADDRESS":"3650 Joseph Siewick Dr, Ste 307","PROVIDER ZIP 5 CD":22033,"PROVIDER ZIP 4 CD":1715,"PROVIDER PHONE NUM":7033918804,"PROVIDER PHONE EXT":"","PROGRAM YEAR":2011},"geometry":{"type":"Point","coordinates":[-77.379405,38.887574]}},{"type":"Feature","id":"5132dd80a288f42e67361c4f","properties":{"_id":"5132dd80a288f42e67361c4f","PROVIDER NPI":1467444505,"PROVIDER NAME":"Beall, Michael","PROVIDER STATE":"Virginia","PROVIDER CITY":"Fairfax","PROVIDER  ADDRESS":"10301 Democracy Lane, #410","PROVIDER ZIP 5 CD":22003,"PROVIDER ZIP 4 CD":2545,"PROVIDER PHONE NUM":7038765942,"PROVIDER PHONE EXT":"","PROGRAM YEAR":2011},"geometry":{"type":"Point","coordinates":[-77.301485,38.849394]}},{"type":"Feature","id":"5132dd80a288f42e67361c50","properties":{"_id":"5132dd80a288f42e67361c50","PROVIDER NPI":1548223555,"PROVIDER NAME":"BECHTEL, JANET","PROVIDER STATE":"Virginia","PROVIDER CITY":"Wytheville","PROVIDER  ADDRESS":"680 W Monroe St","PROVIDER ZIP 5 CD":24382,"PROVIDER ZIP 4 CD":2240,"PROVIDER PHONE NUM":2762282212,"PROVIDER PHONE EXT":"","PROGRAM YEAR":2011},"geometry":{"type":"Point","coordinates":[-81.089856,36.946294]}},{"type":"Feature","id":"5132dd80a288f42e67361c51","properties":{"_id":"5132dd80a288f42e67361c51","PROVIDER NPI":1306809629,"PROVIDER NAME":"Becker, Sherri","PROVIDER STATE":"Virginia","PROVIDER CITY":"Hampton","PROVIDER  ADDRESS":"2200 Executive Dr, Suite A","PROVIDER ZIP 5 CD":23666,"PROVIDER ZIP 4 CD":2582,"PROVIDER PHONE NUM":7578270009,"PROVIDER PHONE EXT":"","PROGRAM YEAR":2011},"geometry":{"type":"Point","coordinates":[-76.397402,37.049652]}},{"type":"Feature","id":"5132dd80a288f42e67361c52","properties":{"_id":"5132dd80a288f42e67361c52","PROVIDER NPI":1114996733,"PROVIDER NAME":"Beckwith, Douglas","PROVIDER STATE":"Virginia","PROVIDER CITY":"Chester","PROVIDER  ADDRESS":"12901 Briggs Rd","PROVIDER ZIP 5 CD":23831,"PROVIDER ZIP 4 CD":5335,"PROVIDER PHONE NUM":8047962373,"PROVIDER PHONE EXT":"","PROGRAM YEAR":2011},"geometry":{"type":"Point","coordinates":[-77.408917,37.350104]}},{"type":"Feature","id":"5132dd80a288f42e67361c53","properties":{"_id":"5132dd80a288f42e67361c53","PROVIDER NPI":1831197201,"PROVIDER NAME":"Bedichek, Ellen","PROVIDER STATE":"Virginia","PROVIDER CITY":"Richmond","PROVIDER  ADDRESS":"671 Hioaks Rd, Suite B","PROVIDER ZIP 5 CD":23225,"PROVIDER ZIP 4 CD":"","PROVIDER PHONE NUM":8043236903,"PROVIDER PHONE EXT":"","PROGRAM YEAR":2011},"geometry":{"type":"Point","coordinates":[-77.525093,37.508896]}},{"type":"Feature","id":"5132dd80a288f42e67361c54","properties":{"_id":"5132dd80a288f42e67361c54","PROVIDER NPI":1225258593,"PROVIDER NAME":"Behm, Carolyn","PROVIDER STATE":"Virginia","PROVIDER CITY":"Charlottesville","PROVIDER  ADDRESS":"650 Peter Jefferson Pkwy, Ste 100","PROVIDER ZIP 5 CD":22911,"PROVIDER ZIP 4 CD":8844,"PROVIDER PHONE NUM":4342934072,"PROVIDER PHONE EXT":"","PROGRAM YEAR":2011},"geometry":{"type":"Point","coordinates":[-78.445981,38.035409]}},{"type":"Feature","id":"5132dd80a288f42e67361c55","properties":{"_id":"5132dd80a288f42e67361c55","PROVIDER NPI":1861478372,"PROVIDER NAME":"Beirne, Renee","PROVIDER STATE":"Virginia","PROVIDER CITY":"Roanoke","PROVIDER  ADDRESS":"3 Riverside Cir","PROVIDER ZIP 5 CD":24016,"PROVIDER ZIP 4 CD":4955,"PROVIDER PHONE NUM":5402245170,"PROVIDER PHONE EXT":"","PROGRAM YEAR":2011},"geometry":{"type":"Point","coordinates":[-79.960066,37.269573]}},{"type":"Feature","id":"5132dd80a288f42e67361c56","properties":{"_id":"5132dd80a288f42e67361c56","PROVIDER NPI":1255304168,"PROVIDER NAME":"Beirne, Timothy","PROVIDER STATE":"Virginia","PROVIDER CITY":"Vinton","PROVIDER  ADDRESS":"415 S Pollard St","PROVIDER ZIP 5 CD":24179,"PROVIDER ZIP 4 CD":2502,"PROVIDER PHONE NUM":5409836700,"PROVIDER PHONE EXT":"","PROGRAM YEAR":2011},"geometry":{"type":"Point","coordinates":[-79.898446,37.277983]}},{"type":"Feature","id":"5132dd80a288f42e67361c57","properties":{"_id":"5132dd80a288f42e67361c57","PROVIDER NPI":1720088594,"PROVIDER NAME":"Beitinjaneh, Firas","PROVIDER STATE":"Virginia","PROVIDER CITY":"Norfolk","PROVIDER  ADDRESS":"6161 Kempsville Cir, Suite 315","PROVIDER ZIP 5 CD":23502,"PROVIDER ZIP 4 CD":3932,"PROVIDER PHONE NUM":7574615400,"PROVIDER PHONE EXT":"","PROGRAM YEAR":2011},"geometry":{"type":"Point","coordinates":[-76.193882,36.852086]}},{"type":"Feature","id":"5132dd80a288f42e67361c58","properties":{"_id":"5132dd80a288f42e67361c58","PROVIDER NPI":1053339465,"PROVIDER NAME":"Bell, Zakia","PROVIDER STATE":"Virginia","PROVIDER CITY":"Colonial Heights","PROVIDER  ADDRESS":"2905 Boulevard","PROVIDER ZIP 5 CD":23834,"PROVIDER ZIP 4 CD":2400,"PROVIDER PHONE NUM":8045260682,"PROVIDER PHONE EXT":"","PROGRAM YEAR":2011},"geometry":{"type":"Point","coordinates":[-77.41177,37.26872]}},{"type":"Feature","id":"5132dd80a288f42e67361c59","properties":{"_id":"5132dd80a288f42e67361c59","PROVIDER NPI":1093799082,"PROVIDER NAME":"BELVIN, DAVID","PROVIDER STATE":"Virginia","PROVIDER CITY":"Norfolk","PROVIDER  ADDRESS":"835 Glenrock Road, Suite 100","PROVIDER ZIP 5 CD":23502,"PROVIDER ZIP 4 CD":"","PROVIDER PHONE NUM":7572523060,"PROVIDER PHONE EXT":"","PROGRAM YEAR":2011},"geometry":{"type":"Point","coordinates":[-76.200682,36.851819]}},{"type":"Feature","id":"5132dd80a288f42e67361c5a","properties":{"_id":"5132dd80a288f42e67361c5a","PROVIDER NPI":1194793356,"PROVIDER NAME":"Bendheim, Stephen","PROVIDER STATE":"Virginia","PROVIDER CITY":"Richmond","PROVIDER  ADDRESS":"10710 Midlothian Turnpike, Ste 200","PROVIDER ZIP 5 CD":23235,"PROVIDER ZIP 4 CD":4759,"PROVIDER PHONE NUM":8048972100,"PROVIDER PHONE EXT":"","PROGRAM YEAR":2011},"geometry":{"type":"Point","coordinates":[-77.595037,37.50705]}},{"type":"Feature","id":"5132dd80a288f42e67361c5b","properties":{"_id":"5132dd80a288f42e67361c5b","PROVIDER NPI":1316966328,"PROVIDER NAME":"Ben-Othmane, Kamel","PROVIDER STATE":"Virginia","PROVIDER CITY":"Newport News","PROVIDER  ADDRESS":"856 J. Clyde Morris Blvd, Ste A","PROVIDER ZIP 5 CD":23601,"PROVIDER ZIP 4 CD":"","PROVIDER PHONE NUM":7575944006,"PROVIDER PHONE EXT":"","PROGRAM YEAR":2011},"geometry":{"type":"Point","coordinates":[-76.458876,37.087427]}},{"type":"Feature","id":"5132dd80a288f42e67361c5c","properties":{"_id":"5132dd80a288f42e67361c5c","PROVIDER NPI":1417950973,"PROVIDER NAME":"Beresh, Arnold","PROVIDER STATE":"Virginia","PROVIDER CITY":"Hampton","PROVIDER  ADDRESS":"2202 Executive Dr, Ste A","PROVIDER ZIP 5 CD":23666,"PROVIDER ZIP 4 CD":6604,"PROVIDER PHONE NUM":7578277111,"PROVIDER PHONE EXT":"","PROGRAM YEAR":2011},"geometry":{"type":"Point","coordinates":[-76.397409,37.049677]}},{"type":"Feature","id":"5132dd80a288f42e67361c5d","properties":{"_id":"5132dd80a288f42e67361c5d","PROVIDER NPI":1225099112,"PROVIDER NAME":"Bergamini, Paula","PROVIDER STATE":"Virginia","PROVIDER CITY":"Arlington","PROVIDER  ADDRESS":"Arlington Primary Care,P.C., 1635 North George Mason Drive, Suite 490","PROVIDER ZIP 5 CD":22205,"PROVIDER ZIP 4 CD":3671,"PROVIDER PHONE NUM":7035225300,"PROVIDER PHONE EXT":277,"PROGRAM YEAR":2011},"geometry":{"type":"Point","coordinates":[-77.120885,38.878256]}},{"type":"Feature","id":"5132dd80a288f42e67361c5e","properties":{"_id":"5132dd80a288f42e67361c5e","PROVIDER NPI":1558333930,"PROVIDER NAME":"Berman, Harold","PROVIDER STATE":"Virginia","PROVIDER CITY":"Alexandria","PROVIDER  ADDRESS":"4660 Kenmore Ave, Suite 500","PROVIDER ZIP 5 CD":22304,"PROVIDER ZIP 4 CD":1306,"PROVIDER PHONE NUM":7033700073,"PROVIDER PHONE EXT":"","PROGRAM YEAR":2011},"geometry":{"type":"Point","coordinates":[-77.110897,38.828504]}},{"type":"Feature","id":"5132dd80a288f42e67361c5f","properties":{"_id":"5132dd80a288f42e67361c5f","PROVIDER NPI":1720066483,"PROVIDER NAME":"Bern, Merritt","PROVIDER STATE":"Virginia","PROVIDER CITY":"Salem","PROVIDER  ADDRESS":"1906 Braeburn Dr, Valley Gastroenterology of SW VA","PROVIDER ZIP 5 CD":24153,"PROVIDER ZIP 4 CD":"","PROVIDER PHONE NUM":5407766300,"PROVIDER PHONE EXT":"","PROGRAM YEAR":2011},"geometry":{"type":"Point","coordinates":[-80.027531,37.264262]}},{"type":"Feature","id":"5132dd80a288f42e67361c60","properties":{"_id":"5132dd80a288f42e67361c60","PROVIDER NPI":1639179153,"PROVIDER NAME":"BERRY, BILL","PROVIDER STATE":"Virginia","PROVIDER CITY":"Norfolk","PROVIDER  ADDRESS":"835 Glenrock Road, Suite 100","PROVIDER ZIP 5 CD":23502,"PROVIDER ZIP 4 CD":"","PROVIDER PHONE NUM":7572523060,"PROVIDER PHONE EXT":"","PROGRAM YEAR":2011},"geometry":{"type":"Point","coordinates":[-76.200682,36.851819]}},{"type":"Feature","id":"5132dd80a288f42e67361c61","properties":{"_id":"5132dd80a288f42e67361c61","PROVIDER NPI":1245212737,"PROVIDER NAME":"Berry, Michael","PROVIDER STATE":"Virginia","PROVIDER CITY":"Roanoke","PROVIDER  ADDRESS":"2001 Crystal Spring Ave., Suite 203","PROVIDER ZIP 5 CD":24014,"PROVIDER ZIP 4 CD":2465,"PROVIDER PHONE NUM":5408530755,"PROVIDER PHONE EXT":"","PROGRAM YEAR":2011},"geometry":{"type":"Point","coordinates":[-79.934013,37.229701]}},{"type":"Feature","id":"5132dd80a288f42e67361c62","properties":{"_id":"5132dd80a288f42e67361c62","PROVIDER NPI":1811189772,"PROVIDER NAME":"Bertolino, Siobhan","PROVIDER STATE":"Virginia","PROVIDER CITY":"Virginia Beach","PROVIDER  ADDRESS":"828 Healthy Way, Suite 330","PROVIDER ZIP 5 CD":23462,"PROVIDER ZIP 4 CD":7958,"PROVIDER PHONE NUM":7574613890,"PROVIDER PHONE EXT":"","PROGRAM YEAR":2011},"geometry":{"type":"Point","coordinates":[-76.017451,36.849323]}},{"type":"Feature","id":"5132dd80a288f42e67361c63","properties":{"_id":"5132dd80a288f42e67361c63","PROVIDER NPI":1720026230,"PROVIDER NAME":"BESCH, GEORGE","PROVIDER STATE":"Virginia","PROVIDER CITY":"Alexandria","PROVIDER  ADDRESS":"8101 Hinson Farm Rd, SUITE 408","PROVIDER ZIP 5 CD":22306,"PROVIDER ZIP 4 CD":3403,"PROVIDER PHONE NUM":7037809014,"PROVIDER PHONE EXT":1130,"PROGRAM YEAR":2011},"geometry":{"type":"Point","coordinates":[-77.082132,38.768886]}},{"type":"Feature","id":"5132dd80a288f42e67361c64","properties":{"_id":"5132dd80a288f42e67361c64","PROVIDER NPI":1063466076,"PROVIDER NAME":"Bethel, Sonya","PROVIDER STATE":"Virginia","PROVIDER CITY":"Springfield","PROVIDER  ADDRESS":"7440 Spring Village Dr","PROVIDER ZIP 5 CD":22150,"PROVIDER ZIP 4 CD":4446,"PROVIDER PHONE NUM":7039234644,"PROVIDER PHONE EXT":"","PROGRAM YEAR":2011},"geometry":{"type":"Point","coordinates":[-77.202199,38.767601]}},{"type":"Feature","id":"5132dd80a288f42e67361c65","properties":{"_id":"5132dd80a288f42e67361c65","PROVIDER NPI":1942286042,"PROVIDER NAME":"Bettinger, David","PROVIDER STATE":"Virginia","PROVIDER CITY":"Richmond","PROVIDER  ADDRESS":"1051 Johnston Willis Dr., St. 200","PROVIDER ZIP 5 CD":23235,"PROVIDER ZIP 4 CD":"","PROVIDER PHONE NUM":8043202705,"PROVIDER PHONE EXT":"","PROGRAM YEAR":2011},"geometry":{"type":"Point","coordinates":[-77.593998,37.507469]}},{"type":"Feature","id":"5132dd80a288f42e67361c66","properties":{"_id":"5132dd80a288f42e67361c66","PROVIDER NPI":1235126715,"PROVIDER NAME":"Betts, Martin","PROVIDER STATE":"Virginia","PROVIDER CITY":"Richmond","PROVIDER  ADDRESS":"1800 Glenside Dr, Suite 103","PROVIDER ZIP 5 CD":23226,"PROVIDER ZIP 4 CD":3769,"PROVIDER PHONE NUM":8042850100,"PROVIDER PHONE EXT":"","PROGRAM YEAR":2011},"geometry":{"type":"Point","coordinates":[-77.526247,37.603503]}},{"type":"Feature","id":"5132dd80a288f42e67361c67","properties":{"_id":"5132dd80a288f42e67361c67","PROVIDER NPI":1508821174,"PROVIDER NAME":"Beverly, Vernis","PROVIDER STATE":"Virginia","PROVIDER CITY":"Chesapeake","PROVIDER  ADDRESS":"3800 Poplar Hill Rd Ste A","PROVIDER ZIP 5 CD":23321,"PROVIDER ZIP 4 CD":5522,"PROVIDER PHONE NUM":7574842001,"PROVIDER PHONE EXT":102,"PROGRAM YEAR":2011},"geometry":{"type":"Point","coordinates":[-76.401228,36.862339]}},{"type":"Feature","id":"5132dd80a288f42e67361c68","properties":{"_id":"5132dd80a288f42e67361c68","PROVIDER NPI":1023099603,"PROVIDER NAME":"Bhattacharyya, Biswa","PROVIDER STATE":"Virginia","PROVIDER CITY":"Virginia Beach","PROVIDER  ADDRESS":"1232 Perimeter Pkwy, Suite 101","PROVIDER ZIP 5 CD":23454,"PROVIDER ZIP 4 CD":5689,"PROVIDER PHONE NUM":7574258590,"PROVIDER PHONE EXT":"","PROGRAM YEAR":2011},"geometry":{"type":"Point","coordinates":[-76.017428,36.783834]}},{"type":"Feature","id":"5132dd80a288f42e67361c69","properties":{"_id":"5132dd80a288f42e67361c69","PROVIDER NPI":1134173396,"PROVIDER NAME":"Bhowmik, Nihar","PROVIDER STATE":"Virginia","PROVIDER CITY":"Portsmouth","PROVIDER  ADDRESS":"301 Goode Way, Suite 103","PROVIDER ZIP 5 CD":23704,"PROVIDER ZIP 4 CD":2266,"PROVIDER PHONE NUM":7573990701,"PROVIDER PHONE EXT":"","PROGRAM YEAR":2011},"geometry":{"type":"Point","coordinates":[-76.310777,36.838415]}},{"type":"Feature","id":"5132dd80a288f42e67361c6a","properties":{"_id":"5132dd80a288f42e67361c6a","PROVIDER NPI":1285638569,"PROVIDER NAME":"Bienert, Susan","PROVIDER STATE":"Virginia","PROVIDER CITY":"Alexandria","PROVIDER  ADDRESS":"6160 Fuller Ct","PROVIDER ZIP 5 CD":22310,"PROVIDER ZIP 4 CD":2540,"PROVIDER PHONE NUM":7039225577,"PROVIDER PHONE EXT":"","PROGRAM YEAR":2011},"geometry":{"type":"Point","coordinates":[-77.148937,38.780236]}},{"type":"Feature","id":"5132dd80a288f42e67361c6b","properties":{"_id":"5132dd80a288f42e67361c6b","PROVIDER NPI":1194789909,"PROVIDER NAME":"Biernacki, Gregory","PROVIDER STATE":"Virginia","PROVIDER CITY":"Norfolk","PROVIDER  ADDRESS":"835 Glenrock Road, Suite 100","PROVIDER ZIP 5 CD":23502,"PROVIDER ZIP 4 CD":"","PROVIDER PHONE NUM":7572523060,"PROVIDER PHONE EXT":"","PROGRAM YEAR":2011},"geometry":{"type":"Point","coordinates":[-76.200682,36.851819]}},{"type":"Feature","id":"5132dd80a288f42e67361c6c","properties":{"_id":"5132dd80a288f42e67361c6c","PROVIDER NPI":1104802719,"PROVIDER NAME":"Bili, Androniki","PROVIDER STATE":"Virginia","PROVIDER CITY":"Salem","PROVIDER  ADDRESS":"1802 Braeburn Dr","PROVIDER ZIP 5 CD":24153,"PROVIDER ZIP 4 CD":7357,"PROVIDER PHONE NUM":5407723707,"PROVIDER PHONE EXT":"","PROGRAM YEAR":2011},"geometry":{"type":"Point","coordinates":[-80.030787,37.264571]}},{"type":"Feature","id":"5132dd80a288f42e67361c6d","properties":{"_id":"5132dd80a288f42e67361c6d","PROVIDER NPI":1225004096,"PROVIDER NAME":"Billett, Todd","PROVIDER STATE":"Virginia","PROVIDER CITY":"Richmond","PROVIDER  ADDRESS":"10710 Midlothian Turnpike, Ste 200","PROVIDER ZIP 5 CD":23235,"PROVIDER ZIP 4 CD":4759,"PROVIDER PHONE NUM":8048972100,"PROVIDER PHONE EXT":"","PROGRAM YEAR":2011},"geometry":{"type":"Point","coordinates":[-77.595037,37.50705]}},{"type":"Feature","id":"5132dd80a288f42e67361c6e","properties":{"_id":"5132dd80a288f42e67361c6e","PROVIDER NPI":1780896340,"PROVIDER NAME":"Billups, Matthew","PROVIDER STATE":"Virginia","PROVIDER CITY":"Roanoke","PROVIDER  ADDRESS":"3707 Brambleton Ave Ste 2","PROVIDER ZIP 5 CD":24018,"PROVIDER ZIP 4 CD":3658,"PROVIDER PHONE NUM":5407257800,"PROVIDER PHONE EXT":"","PROGRAM YEAR":2011},"geometry":{"type":"Point","coordinates":[-80.004349,37.235637]}},{"type":"Feature","id":"5132dd80a288f42e67361c6f","properties":{"_id":"5132dd80a288f42e67361c6f","PROVIDER NPI":1548248966,"PROVIDER NAME":"Binns, Richard","PROVIDER STATE":"Virginia","PROVIDER CITY":"Richmond","PROVIDER  ADDRESS":"1051 Johnston Willis Dr., St. 200","PROVIDER ZIP 5 CD":23235,"PROVIDER ZIP 4 CD":"","PROVIDER PHONE NUM":8043202705,"PROVIDER PHONE EXT":"","PROGRAM YEAR":2011},"geometry":{"type":"Point","coordinates":[-77.593998,37.507469]}},{"type":"Feature","id":"5132dd80a288f42e67361c70","properties":{"_id":"5132dd80a288f42e67361c70","PROVIDER NPI":1073506572,"PROVIDER NAME":"Bird, Kimberly","PROVIDER STATE":"Virginia","PROVIDER CITY":"Danville","PROVIDER  ADDRESS":"159 Executive Dr, Suite F","PROVIDER ZIP 5 CD":24541,"PROVIDER ZIP 4 CD":4160,"PROVIDER PHONE NUM":4347924378,"PROVIDER PHONE EXT":"","PROGRAM YEAR":2011},"geometry":{"type":"Point","coordinates":[-79.431116,36.593135]}},{"type":"Feature","id":"5132dd80a288f42e67361c71","properties":{"_id":"5132dd80a288f42e67361c71","PROVIDER NPI":1912975244,"PROVIDER NAME":"Bird, Kimberly","PROVIDER STATE":"Virginia","PROVIDER CITY":"Monterey","PROVIDER  ADDRESS":"120 Jackson River Road","PROVIDER ZIP 5 CD":24465,"PROVIDER ZIP 4 CD":"","PROVIDER PHONE NUM":5404683300,"PROVIDER PHONE EXT":"","PROGRAM YEAR":2011},"geometry":{"type":"Point","coordinates":[-79.580238,38.410815]}},{"type":"Feature","id":"5132dd80a288f42e67361c72","properties":{"_id":"5132dd80a288f42e67361c72","PROVIDER NPI":1750418315,"PROVIDER NAME":"Bishop, Thomas","PROVIDER STATE":"Virginia","PROVIDER CITY":"Roanoke","PROVIDER  ADDRESS":"1906 Belleview Ave","PROVIDER ZIP 5 CD":24014,"PROVIDER ZIP 4 CD":1838,"PROVIDER PHONE NUM":5409817000,"PROVIDER PHONE EXT":"","PROGRAM YEAR":2011},"geometry":{"type":"Point","coordinates":[-79.943001,37.252006]}},{"type":"Feature","id":"5132dd80a288f42e67361c73","properties":{"_id":"5132dd80a288f42e67361c73","PROVIDER NPI":1033190517,"PROVIDER NAME":"Bissell, Charles","PROVIDER STATE":"Virginia","PROVIDER CITY":"Christiansburg","PROVIDER  ADDRESS":"2900 Lamb Cir, Suite 302","PROVIDER ZIP 5 CD":24073,"PROVIDER ZIP 4 CD":"","PROVIDER PHONE NUM":5407317600,"PROVIDER PHONE EXT":"","PROGRAM YEAR":2011},"geometry":{"type":"Point","coordinates":[-80.507356,37.08963]}},{"type":"Feature","id":"5132dd80a288f42e67361c74","properties":{"_id":"5132dd80a288f42e67361c74","PROVIDER NPI":1942417183,"PROVIDER NAME":"Bissram, Melisha","PROVIDER STATE":"Virginia","PROVIDER CITY":"Newport News","PROVIDER  ADDRESS":"856 J. Clyde Morris Blvd, Ste A","PROVIDER ZIP 5 CD":23601,"PROVIDER ZIP 4 CD":"","PROVIDER PHONE NUM":7575944006,"PROVIDER PHONE EXT":241,"PROGRAM YEAR":2011},"geometry":{"type":"Point","coordinates":[-76.458876,37.087427]}},{"type":"Feature","id":"5132dd80a288f42e67361c75","properties":{"_id":"5132dd80a288f42e67361c75","PROVIDER NPI":1215963715,"PROVIDER NAME":"Bittner, Brian","PROVIDER STATE":"Virginia","PROVIDER CITY":"Glen Allen","PROVIDER  ADDRESS":"5416 Hillshire Way","PROVIDER ZIP 5 CD":23059,"PROVIDER ZIP 4 CD":7143,"PROVIDER PHONE NUM":8044491717,"PROVIDER PHONE EXT":"","PROGRAM YEAR":2011},"geometry":{"type":"Point","coordinates":[-77.621404,37.68244]}},{"type":"Feature","id":"5132dd80a288f42e67361c76","properties":{"_id":"5132dd80a288f42e67361c76","PROVIDER NPI":1528067105,"PROVIDER NAME":"Blackman, William","PROVIDER STATE":"Virginia","PROVIDER CITY":"Lynchburg","PROVIDER  ADDRESS":"1901 Thomson Dr","PROVIDER ZIP 5 CD":24501,"PROVIDER ZIP 4 CD":1008,"PROVIDER PHONE NUM":4349473908,"PROVIDER PHONE EXT":"","PROGRAM YEAR":2011},"geometry":{"type":"Point","coordinates":[-79.174848,37.417992]}},{"type":"Feature","id":"5132dd80a288f42e67361c77","properties":{"_id":"5132dd80a288f42e67361c77","PROVIDER NPI":1912087347,"PROVIDER NAME":"Blanchard, Darlene","PROVIDER STATE":"Virginia","PROVIDER CITY":"Fredericksburg","PROVIDER  ADDRESS":"4548 Empire Ct","PROVIDER ZIP 5 CD":22408,"PROVIDER ZIP 4 CD":1939,"PROVIDER PHONE NUM":5407353111,"PROVIDER PHONE EXT":"","PROGRAM YEAR":2011},"geometry":{"type":"Point","coordinates":[-77.444023,38.21894]}},{"type":"Feature","id":"5132dd80a288f42e67361c78","properties":{"_id":"5132dd80a288f42e67361c78","PROVIDER NPI":1588662613,"PROVIDER NAME":"Blanks, Virginia","PROVIDER STATE":"Virginia","PROVIDER CITY":"Moneta","PROVIDER  ADDRESS":"4830 Rucker Rd, Attn:  Village Family Physicians","PROVIDER ZIP 5 CD":24121,"PROVIDER ZIP 4 CD":"","PROVIDER PHONE NUM":5402977181,"PROVIDER PHONE EXT":"","PROGRAM YEAR":2011},"geometry":{"type":"Point","coordinates":[-79.615138,37.187776]}},{"type":"Feature","id":"5132dd80a288f42e67361c79","properties":{"_id":"5132dd80a288f42e67361c79","PROVIDER NPI":1336133875,"PROVIDER NAME":"Blecher, Lee","PROVIDER STATE":"Virginia","PROVIDER CITY":"Fairfax","PROVIDER  ADDRESS":"3650 Joseph Siewick Dr, Ste 400","PROVIDER ZIP 5 CD":22033,"PROVIDER ZIP 4 CD":1710,"PROVIDER PHONE NUM":7033912020,"PROVIDER PHONE EXT":"","PROGRAM YEAR":2011},"geometry":{"type":"Point","coordinates":[-77.379405,38.887574]}},{"type":"Feature","id":"5132dd80a288f42e67361c7a","properties":{"_id":"5132dd80a288f42e67361c7a","PROVIDER NPI":1336188846,"PROVIDER NAME":"Block, David","PROVIDER STATE":"Virginia","PROVIDER CITY":"Chesapeake","PROVIDER  ADDRESS":"1108 Madison Plz","PROVIDER ZIP 5 CD":23320,"PROVIDER ZIP 4 CD":5166,"PROVIDER PHONE NUM":7574365428,"PROVIDER PHONE EXT":"","PROGRAM YEAR":2011},"geometry":{"type":"Point","coordinates":[-76.252371,36.761091]}},{"type":"Feature","id":"5132dd80a288f42e67361c7b","properties":{"_id":"5132dd80a288f42e67361c7b","PROVIDER NPI":1275541815,"PROVIDER NAME":"Bloom, Bonnie","PROVIDER STATE":"Virginia","PROVIDER CITY":"Alexandria","PROVIDER  ADDRESS":"1632A Belle View Blvd","PROVIDER ZIP 5 CD":22307,"PROVIDER ZIP 4 CD":6531,"PROVIDER PHONE NUM":7036609494,"PROVIDER PHONE EXT":"","PROGRAM YEAR":2011},"geometry":{"type":"Point","coordinates":[-77.059585,38.775142]}},{"type":"Feature","id":"5132dd80a288f42e67361c7c","properties":{"_id":"5132dd80a288f42e67361c7c","PROVIDER NPI":1245321736,"PROVIDER NAME":"Blowe, Vanessa","PROVIDER STATE":"Virginia","PROVIDER CITY":"Norfolk","PROVIDER  ADDRESS":"835 Glenrock Road, Suite 100","PROVIDER ZIP 5 CD":23502,"PROVIDER ZIP 4 CD":"","PROVIDER PHONE NUM":7572523060,"PROVIDER PHONE EXT":"","PROGRAM YEAR":2011},"geometry":{"type":"Point","coordinates":[-76.200682,36.851819]}},{"type":"Feature","id":"5132dd80a288f42e67361c7d","properties":{"_id":"5132dd80a288f42e67361c7d","PROVIDER NPI":1639307010,"PROVIDER NAME":"Blue, Amy","PROVIDER STATE":"Virginia","PROVIDER CITY":"Marion","PROVIDER  ADDRESS":"1020 Terrace Dr, Suite 100","PROVIDER ZIP 5 CD":24354,"PROVIDER ZIP 4 CD":4392,"PROVIDER PHONE NUM":2767835157,"PROVIDER PHONE EXT":"","PROGRAM YEAR":2011},"geometry":{"type":"Point","coordinates":[-80.715745,36.790991]}},{"type":"Feature","id":"5132dd80a288f42e67361c7e","properties":{"_id":"5132dd80a288f42e67361c7e","PROVIDER NPI":1952384984,"PROVIDER NAME":"Bohon, Sonya","PROVIDER STATE":"Virginia","PROVIDER CITY":"Rocky Mount","PROVIDER  ADDRESS":"390 S Main St, Suite 201","PROVIDER ZIP 5 CD":24151,"PROVIDER ZIP 4 CD":1711,"PROVIDER PHONE NUM":5404844800,"PROVIDER PHONE EXT":"","PROGRAM YEAR":2011},"geometry":{"type":"Point","coordinates":[-79.889687,36.993697]}},{"type":"Feature","id":"5132dd80a288f42e67361c7f","properties":{"_id":"5132dd80a288f42e67361c7f","PROVIDER NPI":1225041726,"PROVIDER NAME":"Boland, Brian","PROVIDER STATE":"Virginia","PROVIDER CITY":"Arlington","PROVIDER  ADDRESS":"1625 N George Mason Drive, Suite 434","PROVIDER ZIP 5 CD":22205,"PROVIDER ZIP 4 CD":"","PROVIDER PHONE NUM":7035221860,"PROVIDER PHONE EXT":"","PROGRAM YEAR":2011},"geometry":{"type":"Point","coordinates":[-77.128076,38.887934]}},{"type":"Feature","id":"5132dd80a288f42e67361c80","properties":{"_id":"5132dd80a288f42e67361c80","PROVIDER NPI":1669470662,"PROVIDER NAME":"Bolinger, Brian","PROVIDER STATE":"Virginia","PROVIDER CITY":"Roanoke","PROVIDER  ADDRESS":"1315 2nd St SW, Suite 202","PROVIDER ZIP 5 CD":24016,"PROVIDER ZIP 4 CD":4935,"PROVIDER PHONE NUM":5403443020,"PROVIDER PHONE EXT":"","PROGRAM YEAR":2011},"geometry":{"type":"Point","coordinates":[-79.944182,37.260488]}},{"type":"Feature","id":"5132dd80a288f42e67361c81","properties":{"_id":"5132dd80a288f42e67361c81","PROVIDER NPI":1972661312,"PROVIDER NAME":"Bonsu, Osei","PROVIDER STATE":"Virginia","PROVIDER CITY":"Galax","PROVIDER  ADDRESS":"199 Hospital Dr, Suite 5","PROVIDER ZIP 5 CD":24333,"PROVIDER ZIP 4 CD":"","PROVIDER PHONE NUM":2762366136,"PROVIDER PHONE EXT":"","PROGRAM YEAR":2011},"geometry":{"type":"Point","coordinates":[-80.920362,36.673247]}},{"type":"Feature","id":"5132dd80a288f42e67361c82","properties":{"_id":"5132dd80a288f42e67361c82","PROVIDER NPI":1679546923,"PROVIDER NAME":"Boodram, Kadarnath","PROVIDER STATE":"Virginia","PROVIDER CITY":"Colonial Heights","PROVIDER  ADDRESS":"436 Claremont Ct, Suite 105","PROVIDER ZIP 5 CD":23834,"PROVIDER ZIP 4 CD":1765,"PROVIDER PHONE NUM":8045267900,"PROVIDER PHONE EXT":"","PROGRAM YEAR":2011},"geometry":{"type":"Point","coordinates":[-77.400394,37.267378]}},{"type":"Feature","id":"5132dd80a288f42e67361c83","properties":{"_id":"5132dd80a288f42e67361c83","PROVIDER NPI":1649481730,"PROVIDER NAME":"Boone, John","PROVIDER STATE":"Virginia","PROVIDER CITY":"Narrows","PROVIDER  ADDRESS":"2829 Virginia Ave","PROVIDER ZIP 5 CD":24124,"PROVIDER ZIP 4 CD":"","PROVIDER PHONE NUM":5407267900,"PROVIDER PHONE EXT":"","PROGRAM YEAR":2011},"geometry":{"type":"Point","coordinates":[-80.795778,37.338592]}},{"type":"Feature","id":"5132dd80a288f42e67361c84","properties":{"_id":"5132dd80a288f42e67361c84","PROVIDER NPI":1962466524,"PROVIDER NAME":"Boquist, Christopher","PROVIDER STATE":"Virginia","PROVIDER CITY":"Norfolk","PROVIDER  ADDRESS":"835 Glenrock Road, Suite 100","PROVIDER ZIP 5 CD":23502,"PROVIDER ZIP 4 CD":"","PROVIDER PHONE NUM":7572523060,"PROVIDER PHONE EXT":"","PROGRAM YEAR":2011},"geometry":{"type":"Point","coordinates":[-76.200682,36.851819]}},{"type":"Feature","id":"5132dd80a288f42e67361c85","properties":{"_id":"5132dd80a288f42e67361c85","PROVIDER NPI":1881689719,"PROVIDER NAME":"BOSHER, LINWOOD","PROVIDER STATE":"Virginia","PROVIDER CITY":"Richmond","PROVIDER  ADDRESS":"417 Libbie Ave","PROVIDER ZIP 5 CD":23226,"PROVIDER ZIP 4 CD":2615,"PROVIDER PHONE NUM":8042881953,"PROVIDER PHONE EXT":"","PROGRAM YEAR":2011},"geometry":{"type":"Point","coordinates":[-77.517883,37.574629]}},{"type":"Feature","id":"5132dd80a288f42e67361c86","properties":{"_id":"5132dd80a288f42e67361c86","PROVIDER NPI":1750365813,"PROVIDER NAME":"Boshra, Soheir","PROVIDER STATE":"Virginia","PROVIDER CITY":"Roanoke","PROVIDER  ADDRESS":"2001 Crystal Spring Ave SW, Suite 302","PROVIDER ZIP 5 CD":24014,"PROVIDER ZIP 4 CD":1718,"PROVIDER PHONE NUM":5409817653,"PROVIDER PHONE EXT":"","PROGRAM YEAR":2011},"geometry":{"type":"Point","coordinates":[-79.934013,37.229701]}},{"type":"Feature","id":"5132dd80a288f42e67361c87","properties":{"_id":"5132dd80a288f42e67361c87","PROVIDER NPI":1962439273,"PROVIDER NAME":"Botticelli, Michael","PROVIDER STATE":"Virginia","PROVIDER CITY":"Harrisonburg","PROVIDER  ADDRESS":"2291 Evelyn Byrd Ave","PROVIDER ZIP 5 CD":22801,"PROVIDER ZIP 4 CD":5424,"PROVIDER PHONE NUM":5404343831,"PROVIDER PHONE EXT":"","PROGRAM YEAR":2011},"geometry":{"type":"Point","coordinates":[-78.845091,38.424436]}},{"type":"Feature","id":"5132dd80a288f42e67361c88","properties":{"_id":"5132dd80a288f42e67361c88","PROVIDER NPI":1649309691,"PROVIDER NAME":"Botts, Robert","PROVIDER STATE":"Virginia","PROVIDER CITY":"Big Stone Gap","PROVIDER  ADDRESS":"606 Powell Ave E","PROVIDER ZIP 5 CD":24219,"PROVIDER ZIP 4 CD":2348,"PROVIDER PHONE NUM":2765234414,"PROVIDER PHONE EXT":"","PROGRAM YEAR":2011},"geometry":{"type":"Point","coordinates":[-82.776181,36.869975]}},{"type":"Feature","id":"5132dd80a288f42e67361c89","properties":{"_id":"5132dd80a288f42e67361c89","PROVIDER NPI":1154582492,"PROVIDER NAME":"Bouchard, Christine","PROVIDER STATE":"Virginia","PROVIDER CITY":"Richmond","PROVIDER  ADDRESS":"1051 Johnston Willis Dr, St 200","PROVIDER ZIP 5 CD":23235,"PROVIDER ZIP 4 CD":4871,"PROVIDER PHONE NUM":8043202705,"PROVIDER PHONE EXT":"","PROGRAM YEAR":2011},"geometry":{"type":"Point","coordinates":[-77.593998,37.507469]}},{"type":"Feature","id":"5132dd80a288f42e67361c8a","properties":{"_id":"5132dd80a288f42e67361c8a","PROVIDER NPI":1750386041,"PROVIDER NAME":"Boustany, Marc","PROVIDER STATE":"Virginia","PROVIDER CITY":"Norfolk","PROVIDER  ADDRESS":"835 Glenrock Road, Suite 100","PROVIDER ZIP 5 CD":23502,"PROVIDER ZIP 4 CD":"","PROVIDER PHONE NUM":7572523060,"PROVIDER PHONE EXT":"","PROGRAM YEAR":2011},"geometry":{"type":"Point","coordinates":[-76.200682,36.851819]}},{"type":"Feature","id":"5132dd80a288f42e67361c8b","properties":{"_id":"5132dd80a288f42e67361c8b","PROVIDER NPI":1295700664,"PROVIDER NAME":"Bowers, John","PROVIDER STATE":"Virginia","PROVIDER CITY":"Norfolk","PROVIDER  ADDRESS":"835 Glenrock Road, Suite 100","PROVIDER ZIP 5 CD":23502,"PROVIDER ZIP 4 CD":"","PROVIDER PHONE NUM":7572523060,"PROVIDER PHONE EXT":"","PROGRAM YEAR":2011},"geometry":{"type":"Point","coordinates":[-76.200682,36.851819]}},{"type":"Feature","id":"5132dd80a288f42e67361c8c","properties":{"_id":"5132dd80a288f42e67361c8c","PROVIDER NPI":1619036597,"PROVIDER NAME":"Bowers, Michael","PROVIDER STATE":"Virginia","PROVIDER CITY":"Reston","PROVIDER  ADDRESS":"12110 Sunset Hills Road, LL20","PROVIDER ZIP 5 CD":20190,"PROVIDER ZIP 4 CD":"","PROVIDER PHONE NUM":7038341473,"PROVIDER PHONE EXT":"","PROGRAM YEAR":2011},"geometry":{"type":"Point","coordinates":[-77.363556,38.954044]}},{"type":"Feature","id":"5132dd80a288f42e67361c8d","properties":{"_id":"5132dd80a288f42e67361c8d","PROVIDER NPI":1225037484,"PROVIDER NAME":"Bowles, Mary","PROVIDER STATE":"Virginia","PROVIDER CITY":"Norfolk","PROVIDER  ADDRESS":"6161 Kempsville Cir, Suite 315","PROVIDER ZIP 5 CD":23502,"PROVIDER ZIP 4 CD":3932,"PROVIDER PHONE NUM":7574615400,"PROVIDER PHONE EXT":"","PROGRAM YEAR":2011},"geometry":{"type":"Point","coordinates":[-76.193882,36.852086]}},{"type":"Feature","id":"5132dd80a288f42e67361c8e","properties":{"_id":"5132dd80a288f42e67361c8e","PROVIDER NPI":1821290131,"PROVIDER NAME":"Bowling, Donald","PROVIDER STATE":"Virginia","PROVIDER CITY":"Courtland","PROVIDER  ADDRESS":"22708 Main St","PROVIDER ZIP 5 CD":23837,"PROVIDER ZIP 4 CD":1127,"PROVIDER PHONE NUM":7576532007,"PROVIDER PHONE EXT":"","PROGRAM YEAR":2011},"geometry":{"type":"Point","coordinates":[-77.05716,36.710002]}},{"type":"Feature","id":"5132dd80a288f42e67361c8f","properties":{"_id":"5132dd80a288f42e67361c8f","PROVIDER NPI":1669405718,"PROVIDER NAME":"Bowser, Barrington","PROVIDER STATE":"Virginia","PROVIDER CITY":"Richmond","PROVIDER  ADDRESS":"5500 Monument Ave, Ste E","PROVIDER ZIP 5 CD":23226,"PROVIDER ZIP 4 CD":1542,"PROVIDER PHONE NUM":8044408425,"PROVIDER PHONE EXT":"","PROGRAM YEAR":2011},"geometry":{"type":"Point","coordinates":[-77.506635,37.581821]}},{"type":"Feature","id":"5132dd80a288f42e67361c90","properties":{"_id":"5132dd80a288f42e67361c90","PROVIDER NPI":1700042827,"PROVIDER NAME":"Boyd, David","PROVIDER STATE":"Virginia","PROVIDER CITY":"Midlothian","PROVIDER  ADDRESS":"3742 Winterfield Rd, Family Practice Specialists of Richmond","PROVIDER ZIP 5 CD":23113,"PROVIDER ZIP 4 CD":9230,"PROVIDER PHONE NUM":8043303335,"PROVIDER PHONE EXT":"","PROGRAM YEAR":2011},"geometry":{"type":"Point","coordinates":[-77.675124,37.555487]}},{"type":"Feature","id":"5132dd80a288f42e67361c91","properties":{"_id":"5132dd80a288f42e67361c91","PROVIDER NPI":1487839270,"PROVIDER NAME":"Boyd, Michael","PROVIDER STATE":"Virginia","PROVIDER CITY":"Roanoke","PROVIDER  ADDRESS":"1906 Belleview Ave, SW","PROVIDER ZIP 5 CD":24014,"PROVIDER ZIP 4 CD":1838,"PROVIDER PHONE NUM":5409817000,"PROVIDER PHONE EXT":"","PROGRAM YEAR":2011},"geometry":{"type":"Point","coordinates":[-79.898263,37.260165]}},{"type":"Feature","id":"5132dd80a288f42e67361c92","properties":{"_id":"5132dd80a288f42e67361c92","PROVIDER NPI":1184615262,"PROVIDER NAME":"Boyer, Debra","PROVIDER STATE":"Virginia","PROVIDER CITY":"Hampton","PROVIDER  ADDRESS":"191 Fox Hill Rd, Suite D","PROVIDER ZIP 5 CD":23669,"PROVIDER ZIP 4 CD":2360,"PROVIDER PHONE NUM":7578501311,"PROVIDER PHONE EXT":"","PROGRAM YEAR":2011},"geometry":{"type":"Point","coordinates":[-76.328879,37.056086]}},{"type":"Feature","id":"5132dd80a288f42e67361c93","properties":{"_id":"5132dd80a288f42e67361c93","PROVIDER NPI":1265424972,"PROVIDER NAME":"BOYLE, DANIEL","PROVIDER STATE":"Virginia","PROVIDER CITY":"Chesapeake","PROVIDER  ADDRESS":"4037 Taylor Rd, SUITE A","PROVIDER ZIP 5 CD":23321,"PROVIDER ZIP 4 CD":5535,"PROVIDER PHONE NUM":7574831403,"PROVIDER PHONE EXT":"","PROGRAM YEAR":2011},"geometry":{"type":"Point","coordinates":[-76.394065,36.801397]}},{"type":"Feature","id":"5132dd80a288f42e67361c94","properties":{"_id":"5132dd80a288f42e67361c94","PROVIDER NPI":1447356530,"PROVIDER NAME":"Brackenrich, Wayne","PROVIDER STATE":"Virginia","PROVIDER CITY":"Roanoke","PROVIDER  ADDRESS":"1314 Peters Creek Rd.","PROVIDER ZIP 5 CD":24017,"PROVIDER ZIP 4 CD":"","PROVIDER PHONE NUM":5405625700,"PROVIDER PHONE EXT":"","PROGRAM YEAR":2011},"geometry":{"type":"Point","coordinates":[-80.007725,37.299641]}},{"type":"Feature","id":"5132dd80a288f42e67361c95","properties":{"_id":"5132dd80a288f42e67361c95","PROVIDER NPI":1629037718,"PROVIDER NAME":"Bradd, Floyd","PROVIDER STATE":"Virginia","PROVIDER CITY":"Front Royal","PROVIDER  ADDRESS":"841 N Shenandoah Ave","PROVIDER ZIP 5 CD":22630,"PROVIDER ZIP 4 CD":3501,"PROVIDER PHONE NUM":5406367000,"PROVIDER PHONE EXT":"","PROGRAM YEAR":2011},"geometry":{"type":"Point","coordinates":[-78.19885,38.929466]}},{"type":"Feature","id":"5132dd80a288f42e67361c96","properties":{"_id":"5132dd80a288f42e67361c96","PROVIDER NPI":1275529968,"PROVIDER NAME":"Bradenham, Ben","PROVIDER STATE":"Virginia","PROVIDER CITY":"Richmond","PROVIDER  ADDRESS":"7611 Forest Ave, Ste 410","PROVIDER ZIP 5 CD":23229,"PROVIDER ZIP 4 CD":4920,"PROVIDER PHONE NUM":8042852965,"PROVIDER PHONE EXT":"","PROGRAM YEAR":2011},"geometry":{"type":"Point","coordinates":[-77.544243,37.603635]}},{"type":"Feature","id":"5132dd80a288f42e67361c97","properties":{"_id":"5132dd80a288f42e67361c97","PROVIDER NPI":1043292576,"PROVIDER NAME":"Bradford, Sarah","PROVIDER STATE":"Virginia","PROVIDER CITY":"Christiansburg","PROVIDER  ADDRESS":"205 Roanoke St","PROVIDER ZIP 5 CD":24073,"PROVIDER ZIP 4 CD":3025,"PROVIDER PHONE NUM":5403816000,"PROVIDER PHONE EXT":"","PROGRAM YEAR":2011},"geometry":{"type":"Point","coordinates":[-80.403917,37.130206]}},{"type":"Feature","id":"5132dd80a288f42e67361c98","properties":{"_id":"5132dd80a288f42e67361c98","PROVIDER NPI":1831183128,"PROVIDER NAME":"Bradley, Joan","PROVIDER STATE":"Virginia","PROVIDER CITY":"Vienna","PROVIDER  ADDRESS":"115 Park St SE, Suite 300","PROVIDER ZIP 5 CD":22180,"PROVIDER ZIP 4 CD":4653,"PROVIDER PHONE NUM":7032559100,"PROVIDER PHONE EXT":"","PROGRAM YEAR":2011},"geometry":{"type":"Point","coordinates":[-77.262665,38.903213]}},{"type":"Feature","id":"5132dd80a288f42e67361c99","properties":{"_id":"5132dd80a288f42e67361c99","PROVIDER NPI":1043282965,"PROVIDER NAME":"Brady, Don","PROVIDER STATE":"Virginia","PROVIDER CITY":"Roanoke","PROVIDER  ADDRESS":"3707 Brambleton Ave, #2","PROVIDER ZIP 5 CD":24018,"PROVIDER ZIP 4 CD":3658,"PROVIDER PHONE NUM":5407257800,"PROVIDER PHONE EXT":"","PROGRAM YEAR":2011},"geometry":{"type":"Point","coordinates":[-80.004349,37.235637]}},{"type":"Feature","id":"5132dd80a288f42e67361c9a","properties":{"_id":"5132dd80a288f42e67361c9a","PROVIDER NPI":1639118383,"PROVIDER NAME":"Brady, John","PROVIDER STATE":"Virginia","PROVIDER CITY":"Newport News","PROVIDER  ADDRESS":"10222 Warwick Blvd","PROVIDER ZIP 5 CD":23601,"PROVIDER ZIP 4 CD":4029,"PROVIDER PHONE NUM":7572230124,"PROVIDER PHONE EXT":"","PROGRAM YEAR":2011},"geometry":{"type":"Point","coordinates":[-76.458529,37.031348]}},{"type":"Feature","id":"5132dd80a288f42e67361c9b","properties":{"_id":"5132dd80a288f42e67361c9b","PROVIDER NPI":1184842551,"PROVIDER NAME":"Brand, Laura","PROVIDER STATE":"Virginia","PROVIDER CITY":"Waynesboro","PROVIDER  ADDRESS":"2014 Goose Creek Rd, Suite 106","PROVIDER ZIP 5 CD":22980,"PROVIDER ZIP 4 CD":6523,"PROVIDER PHONE NUM":5409327627,"PROVIDER PHONE EXT":"","PROGRAM YEAR":2011},"geometry":{"type":"Point","coordinates":[-78.987271,38.051806]}},{"type":"Feature","id":"5132dd80a288f42e67361c9c","properties":{"_id":"5132dd80a288f42e67361c9c","PROVIDER NPI":1174511901,"PROVIDER NAME":"Brand, William","PROVIDER STATE":"Virginia","PROVIDER CITY":"Richmond","PROVIDER  ADDRESS":"7611 Forest Ave, Suite 410","PROVIDER ZIP 5 CD":23229,"PROVIDER ZIP 4 CD":4920,"PROVIDER PHONE NUM":8042852965,"PROVIDER PHONE EXT":"","PROGRAM YEAR":2011},"geometry":{"type":"Point","coordinates":[-77.544243,37.603635]}},{"type":"Feature","id":"5132dd80a288f42e67361c9d","properties":{"_id":"5132dd80a288f42e67361c9d","PROVIDER NPI":1033127808,"PROVIDER NAME":"Brandau, Scott","PROVIDER STATE":"Virginia","PROVIDER CITY":"Dublin","PROVIDER  ADDRESS":"5826 Ruebush Road","PROVIDER ZIP 5 CD":24084,"PROVIDER ZIP 4 CD":2252,"PROVIDER PHONE NUM":5406746824,"PROVIDER PHONE EXT":"","PROGRAM YEAR":2011},"geometry":{"type":"Point","coordinates":[-80.671143,37.116644]}},{"type":"Feature","id":"5132dd80a288f42e67361c9e","properties":{"_id":"5132dd80a288f42e67361c9e","PROVIDER NPI":1356371496,"PROVIDER NAME":"Brandwin, Leslie","PROVIDER STATE":"Virginia","PROVIDER CITY":"Springfield","PROVIDER  ADDRESS":"7440 Spring Village Dr","PROVIDER ZIP 5 CD":22150,"PROVIDER ZIP 4 CD":4446,"PROVIDER PHONE NUM":7039234644,"PROVIDER PHONE EXT":"","PROGRAM YEAR":2011},"geometry":{"type":"Point","coordinates":[-77.202199,38.767601]}},{"type":"Feature","id":"5132dd80a288f42e67361c9f","properties":{"_id":"5132dd80a288f42e67361c9f","PROVIDER NPI":1912987728,"PROVIDER NAME":"Brantley, Richard","PROVIDER STATE":"Virginia","PROVIDER CITY":"Charlottesville","PROVIDER  ADDRESS":"916 E High St, Suite 1","PROVIDER ZIP 5 CD":22902,"PROVIDER ZIP 4 CD":4852,"PROVIDER PHONE NUM":4342445684,"PROVIDER PHONE EXT":"","PROGRAM YEAR":2011},"geometry":{"type":"Point","coordinates":[-78.485794,38.022965]}},{"type":"Feature","id":"5132dd80a288f42e67361ca0","properties":{"_id":"5132dd80a288f42e67361ca0","PROVIDER NPI":1790759645,"PROVIDER NAME":"Bravo, Cesar","PROVIDER STATE":"Virginia","PROVIDER CITY":"Roanoke","PROVIDER  ADDRESS":"3 Riverside Cir","PROVIDER ZIP 5 CD":24016,"PROVIDER ZIP 4 CD":4955,"PROVIDER PHONE NUM":5402245170,"PROVIDER PHONE EXT":"","PROGRAM YEAR":2011},"geometry":{"type":"Point","coordinates":[-79.960066,37.269573]}},{"type":"Feature","id":"5132dd80a288f42e67361ca1","properties":{"_id":"5132dd80a288f42e67361ca1","PROVIDER NPI":1154359792,"PROVIDER NAME":"Brengel, George","PROVIDER STATE":"Virginia","PROVIDER CITY":"Richmond","PROVIDER  ADDRESS":"9220 Forest Hill Ave, Suite 1-A","PROVIDER ZIP 5 CD":23235,"PROVIDER ZIP 4 CD":6800,"PROVIDER PHONE NUM":8045608838,"PROVIDER PHONE EXT":"","PROGRAM YEAR":2011},"geometry":{"type":"Point","coordinates":[-77.566924,37.536718]}},{"type":"Feature","id":"5132dd80a288f42e67361ca2","properties":{"_id":"5132dd80a288f42e67361ca2","PROVIDER NPI":1326096272,"PROVIDER NAME":"BRENGMAN, MATTHEW","PROVIDER STATE":"Virginia","PROVIDER CITY":"Richmond","PROVIDER  ADDRESS":"5855 Bremo Rd, SUITE 406","PROVIDER ZIP 5 CD":23226,"PROVIDER ZIP 4 CD":1930,"PROVIDER PHONE NUM":8042854133,"PROVIDER PHONE EXT":"","PROGRAM YEAR":2011},"geometry":{"type":"Point","coordinates":[-77.513113,37.584373]}},{"type":"Feature","id":"5132dd80a288f42e67361ca3","properties":{"_id":"5132dd80a288f42e67361ca3","PROVIDER NPI":1679560254,"PROVIDER NAME":"Brewer-Lord, Amanda","PROVIDER STATE":"Virginia","PROVIDER CITY":"Wytheville","PROVIDER  ADDRESS":"530 W Ridge Rd, Suite B","PROVIDER ZIP 5 CD":24382,"PROVIDER ZIP 4 CD":1042,"PROVIDER PHONE NUM":2762230033,"PROVIDER PHONE EXT":"","PROGRAM YEAR":2011},"geometry":{"type":"Point","coordinates":[-81.092376,36.951242]}},{"type":"Feature","id":"5132dd80a288f42e67361ca4","properties":{"_id":"5132dd80a288f42e67361ca4","PROVIDER NPI":1477529469,"PROVIDER NAME":"Brickhouse, William","PROVIDER STATE":"Virginia","PROVIDER CITY":"Richmond","PROVIDER  ADDRESS":"7858 Shrader Rd","PROVIDER ZIP 5 CD":23294,"PROVIDER ZIP 4 CD":4992,"PROVIDER PHONE NUM":8042701305,"PROVIDER PHONE EXT":"","PROGRAM YEAR":2011},"geometry":{"type":"Point","coordinates":[-77.525705,37.624902]}},{"type":"Feature","id":"5132dd80a288f42e67361ca5","properties":{"_id":"5132dd80a288f42e67361ca5","PROVIDER NPI":1619933447,"PROVIDER NAME":"Brink, William","PROVIDER STATE":"Virginia","PROVIDER CITY":"Winchester","PROVIDER  ADDRESS":"190 Campus Blvd, Suite 200","PROVIDER ZIP 5 CD":22601,"PROVIDER ZIP 4 CD":2872,"PROVIDER PHONE NUM":5406626135,"PROVIDER PHONE EXT":"","PROGRAM YEAR":2011},"geometry":{"type":"Point","coordinates":[-78.195513,39.192648]}},{"type":"Feature","id":"5132dd80a288f42e67361ca6","properties":{"_id":"5132dd80a288f42e67361ca6","PROVIDER NPI":1093780223,"PROVIDER NAME":"Brisland, Catherine","PROVIDER STATE":"Virginia","PROVIDER CITY":"Norfolk","PROVIDER  ADDRESS":"835 Glenrock Road, Suite 100","PROVIDER ZIP 5 CD":23502,"PROVIDER ZIP 4 CD":"","PROVIDER PHONE NUM":7572523060,"PROVIDER PHONE EXT":"","PROGRAM YEAR":2011},"geometry":{"type":"Point","coordinates":[-76.200682,36.851819]}},{"type":"Feature","id":"5132dd80a288f42e67361ca7","properties":{"_id":"5132dd80a288f42e67361ca7","PROVIDER NPI":1144383936,"PROVIDER NAME":"Broach, William","PROVIDER STATE":"Virginia","PROVIDER CITY":"Danville","PROVIDER  ADDRESS":"101 Holbrook St","PROVIDER ZIP 5 CD":24541,"PROVIDER ZIP 4 CD":1732,"PROVIDER PHONE NUM":4347927765,"PROVIDER PHONE EXT":"","PROGRAM YEAR":2011},"geometry":{"type":"Point","coordinates":[-79.40189,36.581775]}},{"type":"Feature","id":"5132dd80a288f42e67361ca8","properties":{"_id":"5132dd80a288f42e67361ca8","PROVIDER NPI":1558381012,"PROVIDER NAME":"Broady, Ronda","PROVIDER STATE":"Virginia","PROVIDER CITY":"Fredericksburg","PROVIDER  ADDRESS":"2300 Fall Hill Ave, Suite 215","PROVIDER ZIP 5 CD":22401,"PROVIDER ZIP 4 CD":"","PROVIDER PHONE NUM":5403745097,"PROVIDER PHONE EXT":3155,"PROGRAM YEAR":2011},"geometry":{"type":"Point","coordinates":[-77.471909,38.312591]}},{"type":"Feature","id":"5132dd80a288f42e67361ca9","properties":{"_id":"5132dd80a288f42e67361ca9","PROVIDER NPI":1225002041,"PROVIDER NAME":"Broocker, Warren","PROVIDER STATE":"Virginia","PROVIDER CITY":"Richmond","PROVIDER  ADDRESS":"10710 Midlothian Turnpike, Ste 200","PROVIDER ZIP 5 CD":23235,"PROVIDER ZIP 4 CD":4759,"PROVIDER PHONE NUM":8048972100,"PROVIDER PHONE EXT":"","PROGRAM YEAR":2011},"geometry":{"type":"Point","coordinates":[-77.595037,37.50705]}},