[{"type":"Feature","id":"5132dd6aa288f42e67352d84","properties":{"_id":"5132dd6aa288f42e67352d84","PROVIDER NPI":1710983267,"PROVIDER NAME":"Abbas, Gregory","PROVIDER STATE":"Kentucky","PROVIDER CITY":"LOUISVILLE","PROVIDER  ADDRESS":"3515 POPLAR LEVEL ROAD","PROVIDER ZIP 5 CD":40213,"PROVIDER ZIP 4 CD":"","PROVIDER PHONE NUM":5024593760,"PROVIDER PHONE EXT":"","PROGRAM YEAR":2011},"geometry":{"type":"Point","coordinates":[-85.716228,38.209015]}},{"type":"Feature","id":"5132dd6aa288f42e67352d85","properties":{"_id":"5132dd6aa288f42e67352d85","PROVIDER NPI":1982658902,"PROVIDER NAME":"Abbas, Syed","PROVIDER STATE":"Kentucky","PROVIDER CITY":"Lexington","PROVIDER  ADDRESS":"1221 S Broadway","PROVIDER ZIP 5 CD":40504,"PROVIDER ZIP 4 CD":2701,"PROVIDER PHONE NUM":8592584450,"PROVIDER PHONE EXT":"","PROGRAM YEAR":2011},"geometry":{"type":"Point","coordinates":[-84.521076,38.035227]}},{"type":"Feature","id":"5132dd6aa288f42e67352d86","properties":{"_id":"5132dd6aa288f42e67352d86","PROVIDER NPI":1265511315,"PROVIDER NAME":"ABBOTT, LESLEY","PROVIDER STATE":"Kentucky","PROVIDER CITY":"Flatwoods","PROVIDER  ADDRESS":"903 Bellefonte Rd, SUITE B","PROVIDER ZIP 5 CD":41139,"PROVIDER ZIP 4 CD":2005,"PROVIDER PHONE NUM":6068360165,"PROVIDER PHONE EXT":"","PROGRAM YEAR":2011},"geometry":{"type":"Point","coordinates":[-82.718782,38.513201]}},{"type":"Feature","id":"5132dd6aa288f42e67352d87","properties":{"_id":"5132dd6aa288f42e67352d87","PROVIDER NPI":1790996080,"PROVIDER NAME":"Abdul-Waheed, Mohammad","PROVIDER STATE":"Kentucky","PROVIDER CITY":"Bowling Green","PROVIDER  ADDRESS":"825 Second Ave,, Ste B1","PROVIDER ZIP 5 CD":42101,"PROVIDER ZIP 4 CD":"","PROVIDER PHONE NUM":2707820151,"PROVIDER PHONE EXT":"","PROGRAM YEAR":2011},"geometry":{"type":"Point","coordinates":[-86.428393,36.995794]}},{"type":"Feature","id":"5132dd6aa288f42e67352d88","properties":{"_id":"5132dd6aa288f42e67352d88","PROVIDER NPI":1487646527,"PROVIDER NAME":"Abney, Larry","PROVIDER STATE":"Kentucky","PROVIDER CITY":"Leitchfield","PROVIDER  ADDRESS":"31 Bobby Bland Way","PROVIDER ZIP 5 CD":42754,"PROVIDER ZIP 4 CD":"","PROVIDER PHONE NUM":2702590500,"PROVIDER PHONE EXT":"","PROGRAM YEAR":2011},"geometry":{"type":"Point","coordinates":[-86.2866,37.470303]}},{"type":"Feature","id":"5132dd6aa288f42e67352d89","properties":{"_id":"5132dd6aa288f42e67352d89","PROVIDER NPI":1083664254,"PROVIDER NAME":"Abul-Khoudoud, Omran","PROVIDER STATE":"Kentucky","PROVIDER CITY":"Ashland","PROVIDER  ADDRESS":"2301 Lexington Ave, Suite 230","PROVIDER ZIP 5 CD":41101,"PROVIDER ZIP 4 CD":2873,"PROVIDER PHONE NUM":6063261675,"PROVIDER PHONE EXT":"","PROGRAM YEAR":2011},"geometry":{"type":"Point","coordinates":[-82.634266,38.469511]}},{"type":"Feature","id":"5132dd6aa288f42e67352d8a","properties":{"_id":"5132dd6aa288f42e67352d8a","PROVIDER NPI":1194829846,"PROVIDER NAME":"Adams, David","PROVIDER STATE":"Kentucky","PROVIDER CITY":"Frankfort","PROVIDER  ADDRESS":"692 Teton Trl","PROVIDER ZIP 5 CD":40601,"PROVIDER ZIP 4 CD":1766,"PROVIDER PHONE NUM":5028751127,"PROVIDER PHONE EXT":"","PROGRAM YEAR":2011},"geometry":{"type":"Point","coordinates":[-84.838092,38.217243]}},{"type":"Feature","id":"5132dd6aa288f42e67352d8b","properties":{"_id":"5132dd6aa288f42e67352d8b","PROVIDER NPI":1841298643,"PROVIDER NAME":"ADAMS, HEIKO","PROVIDER STATE":"Kentucky","PROVIDER CITY":"Shelbyville","PROVIDER  ADDRESS":"1701 Midland Trl","PROVIDER ZIP 5 CD":40065,"PROVIDER ZIP 4 CD":1711,"PROVIDER PHONE NUM":5026333338,"PROVIDER PHONE EXT":"","PROGRAM YEAR":2011},"geometry":{"type":"Point","coordinates":[-85.241543,38.21265]}},{"type":"Feature","id":"5132dd6aa288f42e67352d8c","properties":{"_id":"5132dd6aa288f42e67352d8c","PROVIDER NPI":1619073632,"PROVIDER NAME":"Adams, Susan","PROVIDER STATE":"Kentucky","PROVIDER CITY":"Lexington","PROVIDER  ADDRESS":"3167 Custer Dr, Suite 202","PROVIDER ZIP 5 CD":40517,"PROVIDER ZIP 4 CD":4018,"PROVIDER PHONE NUM":8592712285,"PROVIDER PHONE EXT":"","PROGRAM YEAR":2011},"geometry":{"type":"Point","coordinates":[-84.459452,37.988398]}},{"type":"Feature","id":"5132dd6aa288f42e67352d8d","properties":{"_id":"5132dd6aa288f42e67352d8d","PROVIDER NPI":1720069479,"PROVIDER NAME":"Adams, Thomas","PROVIDER STATE":"Kentucky","PROVIDER CITY":"Murray","PROVIDER  ADDRESS":"1000 South 12th Street","PROVIDER ZIP 5 CD":42071,"PROVIDER ZIP 4 CD":9303,"PROVIDER PHONE NUM":2707599200,"PROVIDER PHONE EXT":"","PROGRAM YEAR":2011},"geometry":{"type":"Point","coordinates":[-88.315271,36.598355]}},{"type":"Feature","id":"5132dd6aa288f42e67352d8e","properties":{"_id":"5132dd6aa288f42e67352d8e","PROVIDER NPI":1154531416,"PROVIDER NAME":"Addasi, Alaa","PROVIDER STATE":"Kentucky","PROVIDER CITY":"Ashland","PROVIDER  ADDRESS":"2301 Lexington Ave, Suite 230","PROVIDER ZIP 5 CD":41101,"PROVIDER ZIP 4 CD":2873,"PROVIDER PHONE NUM":6063261675,"PROVIDER PHONE EXT":"","PROGRAM YEAR":2011},"geometry":{"type":"Point","coordinates":[-82.634266,38.469511]}},{"type":"Feature","id":"5132dd6aa288f42e67352d8f","properties":{"_id":"5132dd6aa288f42e67352d8f","PROVIDER NPI":1932203338,"PROVIDER NAME":"Adkins, Timothy","PROVIDER STATE":"Kentucky","PROVIDER CITY":"Lexington","PROVIDER  ADDRESS":"1401 Harrodsburg Rd, Ste C405","PROVIDER ZIP 5 CD":40504,"PROVIDER ZIP 4 CD":3774,"PROVIDER PHONE NUM":8592772280,"PROVIDER PHONE EXT":"","PROGRAM YEAR":2011},"geometry":{"type":"Point","coordinates":[-84.523614,38.033439]}},{"type":"Feature","id":"5132dd6aa288f42e67352d90","properties":{"_id":"5132dd6aa288f42e67352d90","PROVIDER NPI":1780645564,"PROVIDER NAME":"ADLER, EDWARD","PROVIDER STATE":"Kentucky","PROVIDER CITY":"Louisville","PROVIDER  ADDRESS":"3999 Dutchmans Ln, STE 7B","PROVIDER ZIP 5 CD":40207,"PROVIDER ZIP 4 CD":4739,"PROVIDER PHONE NUM":5028964711,"PROVIDER PHONE EXT":"","PROGRAM YEAR":2011},"geometry":{"type":"Point","coordinates":[-85.651225,38.283425]}},{"type":"Feature","id":"5132dd6aa288f42e67352d91","properties":{"_id":"5132dd6aa288f42e67352d91","PROVIDER NPI":1508946070,"PROVIDER NAME":"ahmed, naveed","PROVIDER STATE":"Kentucky","PROVIDER CITY":"Pikeville","PROVIDER  ADDRESS":"4159 N Mayo Trl, Suite 102","PROVIDER ZIP 5 CD":41501,"PROVIDER ZIP 4 CD":3211,"PROVIDER PHONE NUM":6064325550,"PROVIDER PHONE EXT":"","PROGRAM YEAR":2011},"geometry":{"type":"Point","coordinates":[-82.519538,37.482782]}},{"type":"Feature","id":"5132dd6aa288f42e67352d92","properties":{"_id":"5132dd6aa288f42e67352d92","PROVIDER NPI":1780773275,"PROVIDER NAME":"Ahn, Chadwick","PROVIDER STATE":"Kentucky","PROVIDER CITY":"Frankfort","PROVIDER  ADDRESS":"279 Kings Daughters Dr, 202","PROVIDER ZIP 5 CD":40601,"PROVIDER ZIP 4 CD":6561,"PROVIDER PHONE NUM":5022266494,"PROVIDER PHONE EXT":"","PROGRAM YEAR":2011},"geometry":{"type":"Point","coordinates":[-84.904055,38.161055]}},{"type":"Feature","id":"5132dd6aa288f42e67352d93","properties":{"_id":"5132dd6aa288f42e67352d93","PROVIDER NPI":1669695649,"PROVIDER NAME":"AKHTAR, RIZWAN","PROVIDER STATE":"Kentucky","PROVIDER CITY":"Richmond","PROVIDER  ADDRESS":"793 Eastern Bypass, Suite G03","PROVIDER ZIP 5 CD":40475,"PROVIDER ZIP 4 CD":2422,"PROVIDER PHONE NUM":8596261700,"PROVIDER PHONE EXT":"","PROGRAM YEAR":2011},"geometry":{"type":"Point","coordinates":[-84.305846,37.715026]}},{"type":"Feature","id":"5132dd6aa288f42e67352d94","properties":{"_id":"5132dd6aa288f42e67352d94","PROVIDER NPI":1902803737,"PROVIDER NAME":"Akram, Muhammad","PROVIDER STATE":"Kentucky","PROVIDER CITY":"Madisonville","PROVIDER  ADDRESS":"44 McCoy Ave, Suite 379","PROVIDER ZIP 5 CD":42431,"PROVIDER ZIP 4 CD":2867,"PROVIDER PHONE NUM":2708210677,"PROVIDER PHONE EXT":"","PROGRAM YEAR":2011},"geometry":{"type":"Point","coordinates":[-87.477452,37.31744]}},{"type":"Feature","id":"5132dd6aa288f42e67352d95","properties":{"_id":"5132dd6aa288f42e67352d95","PROVIDER NPI":1548229594,"PROVIDER NAME":"Alexatos-Wilk, Hariklia","PROVIDER STATE":"Kentucky","PROVIDER CITY":"Radcliff","PROVIDER  ADDRESS":"111 N Woodland Dr","PROVIDER ZIP 5 CD":40160,"PROVIDER ZIP 4 CD":2678,"PROVIDER PHONE NUM":2703516036,"PROVIDER PHONE EXT":"","PROGRAM YEAR":2011},"geometry":{"type":"Point","coordinates":[-85.94774,37.836998]}},{"type":"Feature","id":"5132dd6aa288f42e67352d96","properties":{"_id":"5132dd6aa288f42e67352d96","PROVIDER NPI":1487681565,"PROVIDER NAME":"Allen, Michael","PROVIDER STATE":"Kentucky","PROVIDER CITY":"Lexington","PROVIDER  ADDRESS":"1401 Harrodsburg Rd, Suite C115","PROVIDER ZIP 5 CD":40504,"PROVIDER ZIP 4 CD":3751,"PROVIDER PHONE NUM":8592788855,"PROVIDER PHONE EXT":"","PROGRAM YEAR":2011},"geometry":{"type":"Point","coordinates":[-84.523614,38.033439]}},{"type":"Feature","id":"5132dd6aa288f42e67352d97","properties":{"_id":"5132dd6aa288f42e67352d97","PROVIDER NPI":1740286921,"PROVIDER NAME":"ALLEN, WILLIAM","PROVIDER STATE":"Kentucky","PROVIDER CITY":"Richmond","PROVIDER  ADDRESS":"795 Eastern Byp, Suite 4","PROVIDER ZIP 5 CD":40475,"PROVIDER ZIP 4 CD":2406,"PROVIDER PHONE NUM":8596235920,"PROVIDER PHONE EXT":"","PROGRAM YEAR":2011},"geometry":{"type":"Point","coordinates":[-84.295604,37.752711]}},{"type":"Feature","id":"5132dd6aa288f42e67352d98","properties":{"_id":"5132dd6aa288f42e67352d98","PROVIDER NPI":1114954104,"PROVIDER NAME":"Allison, Roberta","PROVIDER STATE":"Kentucky","PROVIDER CITY":"Paris","PROVIDER  ADDRESS":"2017 S Main St, Ste 7","PROVIDER ZIP 5 CD":40361,"PROVIDER ZIP 4 CD":1213,"PROVIDER PHONE NUM":8599872200,"PROVIDER PHONE EXT":"","PROGRAM YEAR":2011},"geometry":{"type":"Point","coordinates":[-84.260658,38.21289]}},{"type":"Feature","id":"5132dd6aa288f42e67352d99","properties":{"_id":"5132dd6aa288f42e67352d99","PROVIDER NPI":1417084351,"PROVIDER NAME":"allison, wes","PROVIDER STATE":"Kentucky","PROVIDER CITY":"Louisville","PROVIDER  ADDRESS":"3515 Poplar Level Rd","PROVIDER ZIP 5 CD":40213,"PROVIDER ZIP 4 CD":"","PROVIDER PHONE NUM":5024593760,"PROVIDER PHONE EXT":"","PROGRAM YEAR":2011},"geometry":{"type":"Point","coordinates":[-85.716228,38.209015]}},{"type":"Feature","id":"5132dd6aa288f42e67352d9a","properties":{"_id":"5132dd6aa288f42e67352d9a","PROVIDER NPI":1588629463,"PROVIDER NAME":"Allnutt, John","PROVIDER STATE":"Kentucky","PROVIDER CITY":"Independence","PROVIDER  ADDRESS":"5290 Madison Pike, Ste 100","PROVIDER ZIP 5 CD":41051,"PROVIDER ZIP 4 CD":"","PROVIDER PHONE NUM":8593638600,"PROVIDER PHONE EXT":"","PROGRAM YEAR":2011},"geometry":{"type":"Point","coordinates":[-84.544449,38.94192]}},{"type":"Feature","id":"5132dd6aa288f42e67352d9b","properties":{"_id":"5132dd6aa288f42e67352d9b","PROVIDER NPI":1447201454,"PROVIDER NAME":"Altaf, Athar","PROVIDER STATE":"Kentucky","PROVIDER CITY":"Lexington","PROVIDER  ADDRESS":"1101 Veterans Dr","PROVIDER ZIP 5 CD":40502,"PROVIDER ZIP 4 CD":2235,"PROVIDER PHONE NUM":8592334511,"PROVIDER PHONE EXT":4663,"PROGRAM YEAR":2011},"geometry":{"type":"Point","coordinates":[-84.486043,38.016674]}},{"type":"Feature","id":"5132dd6aa288f42e67352d9c","properties":{"_id":"5132dd6aa288f42e67352d9c","PROVIDER NPI":1881640621,"PROVIDER NAME":"ALVARADO, RALPH","PROVIDER STATE":"Kentucky","PROVIDER CITY":"Winchester","PROVIDER  ADDRESS":"475 Shoppers Dr","PROVIDER ZIP 5 CD":40391,"PROVIDER ZIP 4 CD":1380,"PROVIDER PHONE NUM":8597445111,"PROVIDER PHONE EXT":"","PROGRAM YEAR":2011},"geometry":{"type":"Point","coordinates":[-84.21669,38.00245]}},{"type":"Feature","id":"5132dd6aa288f42e67352d9d","properties":{"_id":"5132dd6aa288f42e67352d9d","PROVIDER NPI":1952363764,"PROVIDER NAME":"Ambroziak, Donald","PROVIDER STATE":"Kentucky","PROVIDER CITY":"Lexington","PROVIDER  ADDRESS":"141 Prosperous Pl, Suite 22A","PROVIDER ZIP 5 CD":40509,"PROVIDER ZIP 4 CD":1854,"PROVIDER PHONE NUM":8592632230,"PROVIDER PHONE EXT":"","PROGRAM YEAR":2011},"geometry":{"type":"Point","coordinates":[-84.444569,38.000653]}},{"type":"Feature","id":"5132dd6aa288f42e67352d9e","properties":{"_id":"5132dd6aa288f42e67352d9e","PROVIDER NPI":1285626283,"PROVIDER NAME":"Amin-Zimmerman, Falguni","PROVIDER STATE":"Kentucky","PROVIDER CITY":"Lexington","PROVIDER  ADDRESS":"1401 Harrodsburg Rd, Suite A-100","PROVIDER ZIP 5 CD":40504,"PROVIDER ZIP 4 CD":3751,"PROVIDER PHONE NUM":8592586505,"PROVIDER PHONE EXT":"","PROGRAM YEAR":2011},"geometry":{"type":"Point","coordinates":[-84.531416,38.044902]}},{"type":"Feature","id":"5132dd6aa288f42e67352d9f","properties":{"_id":"5132dd6aa288f42e67352d9f","PROVIDER NPI":1861490948,"PROVIDER NAME":"Anderson, William","PROVIDER STATE":"Kentucky","PROVIDER CITY":"Cadiz","PROVIDER  ADDRESS":"245 Main St, P O Box 1249","PROVIDER ZIP 5 CD":42211,"PROVIDER ZIP 4 CD":9154,"PROVIDER PHONE NUM":2705226634,"PROVIDER PHONE EXT":"","PROGRAM YEAR":2011},"geometry":{"type":"Point","coordinates":[-87.83827,36.817943]}},{"type":"Feature","id":"5132dd6aa288f42e67352da0","properties":{"_id":"5132dd6aa288f42e67352da0","PROVIDER NPI":1871584433,"PROVIDER NAME":"Ansinelli, Richard","PROVIDER STATE":"Kentucky","PROVIDER CITY":"Ashland","PROVIDER  ADDRESS":"613 23rd St, Suite 230","PROVIDER ZIP 5 CD":41101,"PROVIDER ZIP 4 CD":2876,"PROVIDER PHONE NUM":6063244745,"PROVIDER PHONE EXT":"","PROGRAM YEAR":2011},"geometry":{"type":"Point","coordinates":[-82.63294,38.471252]}},{"type":"Feature","id":"5132dd6aa288f42e67352da1","properties":{"_id":"5132dd6aa288f42e67352da1","PROVIDER NPI":1831180967,"PROVIDER NAME":"Applegate, Amanda","PROVIDER STATE":"Kentucky","PROVIDER CITY":"Flemingsburg","PROVIDER  ADDRESS":"935 Elizaville Ave","PROVIDER ZIP 5 CD":41041,"PROVIDER ZIP 4 CD":9210,"PROVIDER PHONE NUM":6068493374,"PROVIDER PHONE EXT":"","PROGRAM YEAR":2011},"geometry":{"type":"Point","coordinates":[-83.750154,38.41993]}},{"type":"Feature","id":"5132dd6aa288f42e67352da2","properties":{"_id":"5132dd6aa288f42e67352da2","PROVIDER NPI":1245235795,"PROVIDER NAME":"Applegate, Keith","PROVIDER STATE":"Kentucky","PROVIDER CITY":"Lexington","PROVIDER  ADDRESS":"1775 Alysheba Way, Ste 201","PROVIDER ZIP 5 CD":40509,"PROVIDER ZIP 4 CD":2279,"PROVIDER PHONE NUM":8599772123,"PROVIDER PHONE EXT":"","PROGRAM YEAR":2011},"geometry":{"type":"Point","coordinates":[-84.422045,38.016438]}},{"type":"Feature","id":"5132dd6aa288f42e67352da3","properties":{"_id":"5132dd6aa288f42e67352da3","PROVIDER NPI":1992708663,"PROVIDER NAME":"Arias, Jose","PROVIDER STATE":"Kentucky","PROVIDER CITY":"Owensboro","PROVIDER  ADDRESS":"815 E Parrish Ave, Ste 320","PROVIDER ZIP 5 CD":42303,"PROVIDER ZIP 4 CD":3222,"PROVIDER PHONE NUM":2706881770,"PROVIDER PHONE EXT":"","PROGRAM YEAR":2011},"geometry":{"type":"Point","coordinates":[-87.102115,37.765212]}},{"type":"Feature","id":"5132dd6aa288f42e67352da4","properties":{"_id":"5132dd6aa288f42e67352da4","PROVIDER NPI":1609860501,"PROVIDER NAME":"Arshad, Abrar","PROVIDER STATE":"Kentucky","PROVIDER CITY":"Bowling Green","PROVIDER  ADDRESS":"996 Wilkinson Trce, Suite  A-10","PROVIDER ZIP 5 CD":42103,"PROVIDER ZIP 4 CD":3407,"PROVIDER PHONE NUM":2703939829,"PROVIDER PHONE EXT":"","PROGRAM YEAR":2011},"geometry":{"type":"Point","coordinates":[-86.434258,36.981893]}},{"type":"Feature","id":"5132dd6aa288f42e67352da5","properties":{"_id":"5132dd6aa288f42e67352da5","PROVIDER NPI":1346335197,"PROVIDER NAME":"Arvanitis, Cheryl","PROVIDER STATE":"Kentucky","PROVIDER CITY":"Flatwoods","PROVIDER  ADDRESS":"1107 Bellefonte Rd","PROVIDER ZIP 5 CD":41139,"PROVIDER ZIP 4 CD":2503,"PROVIDER PHONE NUM":6068340125,"PROVIDER PHONE EXT":"","PROGRAM YEAR":2011},"geometry":{"type":"Point","coordinates":[-82.72211,38.515196]}},{"type":"Feature","id":"5132dd6aa288f42e67352da6","properties":{"_id":"5132dd6aa288f42e67352da6","PROVIDER NPI":1033178777,"PROVIDER NAME":"Ashcraft, Troy","PROVIDER STATE":"Kentucky","PROVIDER CITY":"Edgewood","PROVIDER  ADDRESS":"334 Thomas More Parkway, Suite 200","PROVIDER ZIP 5 CD":41017,"PROVIDER ZIP 4 CD":3496,"PROVIDER PHONE NUM":8593445555,"PROVIDER PHONE EXT":"","PROGRAM YEAR":2011},"geometry":{"type":"Point","coordinates":[-84.574242,39.004733]}},{"type":"Feature","id":"5132dd6aa288f42e67352da7","properties":{"_id":"5132dd6aa288f42e67352da7","PROVIDER NPI":1912948225,"PROVIDER NAME":"Ashmun, Matthew","PROVIDER STATE":"Kentucky","PROVIDER CITY":"Lexington","PROVIDER  ADDRESS":"1221 S Broadway, Lexington Clinic - Department of Gastroenterology","PROVIDER ZIP 5 CD":40504,"PROVIDER ZIP 4 CD":2701,"PROVIDER PHONE NUM":8592584950,"PROVIDER PHONE EXT":"","PROGRAM YEAR":2011},"geometry":{"type":"Point","coordinates":[-84.521076,38.035227]}},{"type":"Feature","id":"5132dd6aa288f42e67352da8","properties":{"_id":"5132dd6aa288f42e67352da8","PROVIDER NPI":1841278660,"PROVIDER NAME":"Aslam, Uzma","PROVIDER STATE":"Kentucky","PROVIDER CITY":"Lexington","PROVIDER  ADDRESS":"1055 Dove Run Rd, Ste 200","PROVIDER ZIP 5 CD":40502,"PROVIDER ZIP 4 CD":"","PROVIDER PHONE NUM":8592694668,"PROVIDER PHONE EXT":"","PROGRAM YEAR":2011},"geometry":{"type":"Point","coordinates":[-84.495183,37.995486]}},{"type":"Feature","id":"5132dd6aa288f42e67352da9","properties":{"_id":"5132dd6aa288f42e67352da9","PROVIDER NPI":1821040643,"PROVIDER NAME":"Atkins, Lori","PROVIDER STATE":"Kentucky","PROVIDER CITY":"Louisville","PROVIDER  ADDRESS":"4004 DuPont Cir, Suite 230","PROVIDER ZIP 5 CD":40207,"PROVIDER ZIP 4 CD":4819,"PROVIDER PHONE NUM":5028931333,"PROVIDER PHONE EXT":"","PROGRAM YEAR":2011},"geometry":{"type":"Point","coordinates":[-85.631879,38.232807]}},{"type":"Feature","id":"5132dd6aa288f42e67352daa","properties":{"_id":"5132dd6aa288f42e67352daa","PROVIDER NPI":1639157456,"PROVIDER NAME":"Bacha, Fadi","PROVIDER STATE":"Kentucky","PROVIDER CITY":"Lexington","PROVIDER  ADDRESS":"1055 Dove Run Rd","PROVIDER ZIP 5 CD":40502,"PROVIDER ZIP 4 CD":"","PROVIDER PHONE NUM":8592694668,"PROVIDER PHONE EXT":"","PROGRAM YEAR":2011},"geometry":{"type":"Point","coordinates":[-84.495183,37.995486]}},{"type":"Feature","id":"5132dd6aa288f42e67352dab","properties":{"_id":"5132dd6aa288f42e67352dab","PROVIDER NPI":1396765251,"PROVIDER NAME":"Back, W Douglas","PROVIDER STATE":"Kentucky","PROVIDER CITY":"Lexington","PROVIDER  ADDRESS":"715 Shaker Drive, Suite 120","PROVIDER ZIP 5 CD":40504,"PROVIDER ZIP 4 CD":3674,"PROVIDER PHONE NUM":8592788443,"PROVIDER PHONE EXT":"","PROGRAM YEAR":2011},"geometry":{"type":"Point","coordinates":[-84.528748,38.03132]}},{"type":"Feature","id":"5132dd6aa288f42e67352dac","properties":{"_id":"5132dd6aa288f42e67352dac","PROVIDER NPI":1457342354,"PROVIDER NAME":"Bacon, William","PROVIDER STATE":"Kentucky","PROVIDER CITY":"Flemingsburg","PROVIDER  ADDRESS":"935 Elizaville Ave","PROVIDER ZIP 5 CD":41041,"PROVIDER ZIP 4 CD":9210,"PROVIDER PHONE NUM":6068493374,"PROVIDER PHONE EXT":"","PROGRAM YEAR":2011},"geometry":{"type":"Point","coordinates":[-83.750154,38.41993]}},{"type":"Feature","id":"5132dd6aa288f42e67352dad","properties":{"_id":"5132dd6aa288f42e67352dad","PROVIDER NPI":1346211653,"PROVIDER NAME":"Bagley, Michele","PROVIDER STATE":"Kentucky","PROVIDER CITY":"Ashland","PROVIDER  ADDRESS":"2222 Winchester Ave","PROVIDER ZIP 5 CD":41101,"PROVIDER ZIP 4 CD":7847,"PROVIDER PHONE NUM":6063259644,"PROVIDER PHONE EXT":"","PROGRAM YEAR":2011},"geometry":{"type":"Point","coordinates":[-82.631976,38.474716]}},{"type":"Feature","id":"5132dd6aa288f42e67352dae","properties":{"_id":"5132dd6aa288f42e67352dae","PROVIDER NPI":1265436141,"PROVIDER NAME":"Bailey, Brian","PROVIDER STATE":"Kentucky","PROVIDER CITY":"Ashland","PROVIDER  ADDRESS":"500 14th St","PROVIDER ZIP 5 CD":41101,"PROVIDER ZIP 4 CD":2622,"PROVIDER PHONE NUM":6063243668,"PROVIDER PHONE EXT":"","PROGRAM YEAR":2011},"geometry":{"type":"Point","coordinates":[-82.643356,38.477953]}},{"type":"Feature","id":"5132dd6aa288f42e67352daf","properties":{"_id":"5132dd6aa288f42e67352daf","PROVIDER NPI":1952381683,"PROVIDER NAME":"Bajorek, Joseph","PROVIDER STATE":"Kentucky","PROVIDER CITY":"Ashland","PROVIDER  ADDRESS":"2222 Winchester Ave, Suite C","PROVIDER ZIP 5 CD":41101,"PROVIDER ZIP 4 CD":7847,"PROVIDER PHONE NUM":6063258364,"PROVIDER PHONE EXT":"","PROGRAM YEAR":2011},"geometry":{"type":"Point","coordinates":[-82.631976,38.474716]}},{"type":"Feature","id":"5132dd6aa288f42e67352db0","properties":{"_id":"5132dd6aa288f42e67352db0","PROVIDER NPI":1205929155,"PROVIDER NAME":"Baker, Gregory","PROVIDER STATE":"Kentucky","PROVIDER CITY":"Ashland","PROVIDER  ADDRESS":"613 23rd Street, Suite 420","PROVIDER ZIP 5 CD":41101,"PROVIDER ZIP 4 CD":"","PROVIDER PHONE NUM":6067889304,"PROVIDER PHONE EXT":"","PROGRAM YEAR":2011},"geometry":{"type":"Point","coordinates":[-82.63294,38.471252]}},{"type":"Feature","id":"5132dd6aa288f42e67352db1","properties":{"_id":"5132dd6aa288f42e67352db1","PROVIDER NPI":1912982927,"PROVIDER NAME":"Baker, Michael","PROVIDER STATE":"Kentucky","PROVIDER CITY":"Louisville","PROVIDER  ADDRESS":"4452 Dixie Hwy","PROVIDER ZIP 5 CD":40216,"PROVIDER ZIP 4 CD":2866,"PROVIDER PHONE NUM":5024485241,"PROVIDER PHONE EXT":"","PROGRAM YEAR":2011},"geometry":{"type":"Point","coordinates":[-85.816546,38.180475]}},{"type":"Feature","id":"5132dd6aa288f42e67352db2","properties":{"_id":"5132dd6aa288f42e67352db2","PROVIDER NPI":1285720425,"PROVIDER NAME":"Baker, Richard","PROVIDER STATE":"Kentucky","PROVIDER CITY":"Louisville","PROVIDER  ADDRESS":"1169 Eastern Pkwy, Ste 3310","PROVIDER ZIP 5 CD":40217,"PROVIDER ZIP 4 CD":1417,"PROVIDER PHONE NUM":5024599127,"PROVIDER PHONE EXT":"","PROGRAM YEAR":2011},"geometry":{"type":"Point","coordinates":[-85.725929,38.225375]}},{"type":"Feature","id":"5132dd6aa288f42e67352db3","properties":{"_id":"5132dd6aa288f42e67352db3","PROVIDER NPI":1205896503,"PROVIDER NAME":"Baker, Robert","PROVIDER STATE":"Kentucky","PROVIDER CITY":"Edgewood","PROVIDER  ADDRESS":"334 Thomas More Parkway, Suite 200","PROVIDER ZIP 5 CD":41017,"PROVIDER ZIP 4 CD":3496,"PROVIDER PHONE NUM":8593445555,"PROVIDER PHONE EXT":"","PROGRAM YEAR":2011},"geometry":{"type":"Point","coordinates":[-84.574242,39.004733]}},{"type":"Feature","id":"5132dd6aa288f42e67352db4","properties":{"_id":"5132dd6aa288f42e67352db4","PROVIDER NPI":1144225657,"PROVIDER NAME":"Baldock, Kimberly","PROVIDER STATE":"Kentucky","PROVIDER CITY":"Ashland","PROVIDER  ADDRESS":"1816 Carter Ave","PROVIDER ZIP 5 CD":41101,"PROVIDER ZIP 4 CD":7643,"PROVIDER PHONE NUM":6069209595,"PROVIDER PHONE EXT":"","PROGRAM YEAR":2011},"geometry":{"type":"Point","coordinates":[-82.637927,38.476438]}},{"type":"Feature","id":"5132dd6aa288f42e67352db5","properties":{"_id":"5132dd6aa288f42e67352db5","PROVIDER NPI":1831304088,"PROVIDER NAME":"Ballert, John","PROVIDER STATE":"Kentucky","PROVIDER CITY":"Paducah","PROVIDER  ADDRESS":"2605 Kentucky Aveue, DOB 3, Suite 601","PROVIDER ZIP 5 CD":42003,"PROVIDER ZIP 4 CD":"","PROVIDER PHONE NUM":2704084368,"PROVIDER PHONE EXT":"","PROGRAM YEAR":2011},"geometry":{"type":"Point","coordinates":[-88.580106,37.035923]}},{"type":"Feature","id":"5132dd6aa288f42e67352db6","properties":{"_id":"5132dd6aa288f42e67352db6","PROVIDER NPI":1730248535,"PROVIDER NAME":"BANISTER, KAREN","PROVIDER STATE":"Kentucky","PROVIDER CITY":"Paducah","PROVIDER  ADDRESS":"2850 Lone Oak Rd, BAYLEY SQUARE, SUITE 4","PROVIDER ZIP 5 CD":42003,"PROVIDER ZIP 4 CD":8043,"PROVIDER PHONE NUM":2705543904,"PROVIDER PHONE EXT":"","PROGRAM YEAR":2011},"geometry":{"type":"Point","coordinates":[-88.582178,37.067547]}},{"type":"Feature","id":"5132dd6aa288f42e67352db7","properties":{"_id":"5132dd6aa288f42e67352db7","PROVIDER NPI":1649244781,"PROVIDER NAME":"Banuru, Sridhar","PROVIDER STATE":"Kentucky","PROVIDER CITY":"Henderson","PROVIDER  ADDRESS":"1138 N Elm St","PROVIDER ZIP 5 CD":42420,"PROVIDER ZIP 4 CD":2715,"PROVIDER PHONE NUM":2708278811,"PROVIDER PHONE EXT":"","PROGRAM YEAR":2011},"geometry":{"type":"Point","coordinates":[-87.582394,37.851951]}},{"type":"Feature","id":"5132dd6aa288f42e67352db8","properties":{"_id":"5132dd6aa288f42e67352db8","PROVIDER NPI":1972508869,"PROVIDER NAME":"Bardgett, James","PROVIDER STATE":"Kentucky","PROVIDER CITY":"EDGEWOOD","PROVIDER  ADDRESS":"580 SOUTH LOOP ROAD, SUITE 201","PROVIDER ZIP 5 CD":41017,"PROVIDER ZIP 4 CD":3415,"PROVIDER PHONE NUM":8593441600,"PROVIDER PHONE EXT":"","PROGRAM YEAR":2011},"geometry":{"type":"Point","coordinates":[-83.643005,38.253029]}},{"type":"Feature","id":"5132dd6aa288f42e67352db9","properties":{"_id":"5132dd6aa288f42e67352db9","PROVIDER NPI":1205807500,"PROVIDER NAME":"Barker, Lisa","PROVIDER STATE":"Kentucky","PROVIDER CITY":"Ashland","PROVIDER  ADDRESS":"2222 Winchester Ave","PROVIDER ZIP 5 CD":41101,"PROVIDER ZIP 4 CD":7847,"PROVIDER PHONE NUM":6063259644,"PROVIDER PHONE EXT":"","PROGRAM YEAR":2011},"geometry":{"type":"Point","coordinates":[-82.631976,38.474716]}},{"type":"Feature","id":"5132dd6aa288f42e67352dba","properties":{"_id":"5132dd6aa288f42e67352dba","PROVIDER NPI":1891796314,"PROVIDER NAME":"Barker-Sutton, TeShawna","PROVIDER STATE":"Kentucky","PROVIDER CITY":"London","PROVIDER  ADDRESS":"930 E 4th St","PROVIDER ZIP 5 CD":40741,"PROVIDER ZIP 4 CD":2521,"PROVIDER PHONE NUM":6068787500,"PROVIDER PHONE EXT":"","PROGRAM YEAR":2011},"geometry":{"type":"Point","coordinates":[-84.064787,37.128583]}},{"type":"Feature","id":"5132dd6aa288f42e67352dbb","properties":{"_id":"5132dd6aa288f42e67352dbb","PROVIDER NPI":1316903941,"PROVIDER NAME":"Barnes, Anthony","PROVIDER STATE":"Kentucky","PROVIDER CITY":"Frankfort","PROVIDER  ADDRESS":"#4 HMB Circle","PROVIDER ZIP 5 CD":40601,"PROVIDER ZIP 4 CD":"","PROVIDER PHONE NUM":5026957725,"PROVIDER PHONE EXT":"","PROGRAM YEAR":2011},"geometry":{"type":"Point","coordinates":[-84.815861,38.210029]}},{"type":"Feature","id":"5132dd6aa288f42e67352dbc","properties":{"_id":"5132dd6aa288f42e67352dbc","PROVIDER NPI":1407838493,"PROVIDER NAME":"Barrett, Melissa","PROVIDER STATE":"Kentucky","PROVIDER CITY":"Louisville","PROVIDER  ADDRESS":"4003 Kresge Way, Suite 410","PROVIDER ZIP 5 CD":40207,"PROVIDER ZIP 4 CD":4652,"PROVIDER PHONE NUM":5028937462,"PROVIDER PHONE EXT":"","PROGRAM YEAR":2011},"geometry":{"type":"Point","coordinates":[-85.637656,38.239913]}},{"type":"Feature","id":"5132dd6aa288f42e67352dbd","properties":{"_id":"5132dd6aa288f42e67352dbd","PROVIDER NPI":1013955822,"PROVIDER NAME":"Barrett, William","PROVIDER STATE":"Kentucky","PROVIDER CITY":"Maysville","PROVIDER  ADDRESS":"1340 Medical Park Dr, Ste 7","PROVIDER ZIP 5 CD":41056,"PROVIDER ZIP 4 CD":8725,"PROVIDER PHONE NUM":6067590077,"PROVIDER PHONE EXT":"","PROGRAM YEAR":2011},"geometry":{"type":"Point","coordinates":[-83.782844,38.647938]}},{"type":"Feature","id":"5132dd6aa288f42e67352dbe","properties":{"_id":"5132dd6aa288f42e67352dbe","PROVIDER NPI":1376542860,"PROVIDER NAME":"Beard, Mark","PROVIDER STATE":"Kentucky","PROVIDER CITY":"Lexington","PROVIDER  ADDRESS":"1760 Nicholasville Rd, Suite 301","PROVIDER ZIP 5 CD":40503,"PROVIDER ZIP 4 CD":1471,"PROVIDER PHONE NUM":8592775766,"PROVIDER PHONE EXT":"","PROGRAM YEAR":2011},"geometry":{"type":"Point","coordinates":[-84.521099,37.999859]}},{"type":"Feature","id":"5132dd6aa288f42e67352dbf","properties":{"_id":"5132dd6aa288f42e67352dbf","PROVIDER NPI":1578565784,"PROVIDER NAME":"Bebout, William","PROVIDER STATE":"Kentucky","PROVIDER CITY":"Morganfield","PROVIDER  ADDRESS":"1700 US Highway 60 W","PROVIDER ZIP 5 CD":42437,"PROVIDER ZIP 4 CD":6242,"PROVIDER PHONE NUM":2703890031,"PROVIDER PHONE EXT":"","PROGRAM YEAR":2011},"geometry":{"type":"Point","coordinates":[-87.935978,37.662237]}},{"type":"Feature","id":"5132dd6aa288f42e67352dc0","properties":{"_id":"5132dd6aa288f42e67352dc0","PROVIDER NPI":1508935966,"PROVIDER NAME":"Beebe, Morris","PROVIDER STATE":"Kentucky","PROVIDER CITY":"Ashland","PROVIDER  ADDRESS":"1200 Central Ave","PROVIDER ZIP 5 CD":41101,"PROVIDER ZIP 4 CD":7575,"PROVIDER PHONE NUM":6063271760,"PROVIDER PHONE EXT":"","PROGRAM YEAR":2011},"geometry":{"type":"Point","coordinates":[-82.645619,38.479074]}},{"type":"Feature","id":"5132dd6aa288f42e67352dc1","properties":{"_id":"5132dd6aa288f42e67352dc1","PROVIDER NPI":1760439954,"PROVIDER NAME":"Beers, Ann","PROVIDER STATE":"Kentucky","PROVIDER CITY":"EDGEWOOD","PROVIDER  ADDRESS":"334 THOMAS MORE PARKWAY, SUITE 200","PROVIDER ZIP 5 CD":41017,"PROVIDER ZIP 4 CD":3496,"PROVIDER PHONE NUM":8593445555,"PROVIDER PHONE EXT":"","PROGRAM YEAR":2011},"geometry":{"type":"Point","coordinates":[-84.574242,39.004733]}},{"type":"Feature","id":"5132dd6aa288f42e67352dc2","properties":{"_id":"5132dd6aa288f42e67352dc2","PROVIDER NPI":1467409656,"PROVIDER NAME":"Beers, William","PROVIDER STATE":"Kentucky","PROVIDER CITY":"EDGEWOOD","PROVIDER  ADDRESS":"334 THOMAS MORE PARKWAY, Suite 200","PROVIDER ZIP 5 CD":41017,"PROVIDER ZIP 4 CD":3496,"PROVIDER PHONE NUM":8593445555,"PROVIDER PHONE EXT":"","PROGRAM YEAR":2011},"geometry":{"type":"Point","coordinates":[-84.574242,39.004733]}},{"type":"Feature","id":"5132dd6aa288f42e67352dc3","properties":{"_id":"5132dd6aa288f42e67352dc3","PROVIDER NPI":1285682518,"PROVIDER NAME":"BEGAY, RAY","PROVIDER STATE":"Kentucky","PROVIDER CITY":"Leitchfield","PROVIDER  ADDRESS":"508 William Thomason Byway","PROVIDER ZIP 5 CD":42754,"PROVIDER ZIP 4 CD":1489,"PROVIDER PHONE NUM":2702590352,"PROVIDER PHONE EXT":"","PROGRAM YEAR":2011},"geometry":{"type":"Point","coordinates":[-86.288462,37.470751]}},{"type":"Feature","id":"5132dd6aa288f42e67352dc4","properties":{"_id":"5132dd6aa288f42e67352dc4","PROVIDER NPI":1407882913,"PROVIDER NAME":"Beiting, Clarissa","PROVIDER STATE":"Kentucky","PROVIDER CITY":"Lexington","PROVIDER  ADDRESS":"160 N Eagle Creek Dr, Suite 400","PROVIDER ZIP 5 CD":40509,"PROVIDER ZIP 4 CD":2121,"PROVIDER PHONE NUM":8592585220,"PROVIDER PHONE EXT":"","PROGRAM YEAR":2011},"geometry":{"type":"Point","coordinates":[-84.441832,37.999126]}},{"type":"Feature","id":"5132dd6aa288f42e67352dc5","properties":{"_id":"5132dd6aa288f42e67352dc5","PROVIDER NPI":1891789749,"PROVIDER NAME":"Berberich, Susan","PROVIDER STATE":"Kentucky","PROVIDER CITY":"Louisville","PROVIDER  ADDRESS":"6400 Dutchmans Pkwy, Suite 125","PROVIDER ZIP 5 CD":40205,"PROVIDER ZIP 4 CD":3340,"PROVIDER PHONE NUM":5028968700,"PROVIDER PHONE EXT":"","PROGRAM YEAR":2011},"geometry":{"type":"Point","coordinates":[-85.641682,38.230123]}},{"type":"Feature","id":"5132dd6aa288f42e67352dc6","properties":{"_id":"5132dd6aa288f42e67352dc6","PROVIDER NPI":1477654937,"PROVIDER NAME":"Bernard, Clark","PROVIDER STATE":"Kentucky","PROVIDER CITY":"Ashland","PROVIDER  ADDRESS":"613 23rd St, Suite G20","PROVIDER ZIP 5 CD":41101,"PROVIDER ZIP 4 CD":2878,"PROVIDER PHONE NUM":6063291770,"PROVIDER PHONE EXT":"","PROGRAM YEAR":2011},"geometry":{"type":"Point","coordinates":[-82.63294,38.471252]}},{"type":"Feature","id":"5132dd6aa288f42e67352dc7","properties":{"_id":"5132dd6aa288f42e67352dc7","PROVIDER NPI":1538114830,"PROVIDER NAME":"Bibi, Zouhair","PROVIDER STATE":"Kentucky","PROVIDER CITY":"Owensboro","PROVIDER  ADDRESS":"2200 E. Parrish Avenue, Bldg. E, Suite 101","PROVIDER ZIP 5 CD":42303,"PROVIDER ZIP 4 CD":1449,"PROVIDER PHONE NUM":2708521655,"PROVIDER PHONE EXT":"","PROGRAM YEAR":2011},"geometry":{"type":"Point","coordinates":[-87.076872,37.759979]}},{"type":"Feature","id":"5132dd6aa288f42e67352dc8","properties":{"_id":"5132dd6aa288f42e67352dc8","PROVIDER NPI":1548248016,"PROVIDER NAME":"BLAIR, DAVID","PROVIDER STATE":"Kentucky","PROVIDER CITY":"Burlington","PROVIDER  ADDRESS":"1821 Florence Pike, SUITE 1","PROVIDER ZIP 5 CD":41005,"PROVIDER ZIP 4 CD":7941,"PROVIDER PHONE NUM":8595863937,"PROVIDER PHONE EXT":"","PROGRAM YEAR":2011},"geometry":{"type":"Point","coordinates":[-84.761581,39.079042]}},{"type":"Feature","id":"5132dd6aa288f42e67352dc9","properties":{"_id":"5132dd6aa288f42e67352dc9","PROVIDER NPI":1699702308,"PROVIDER NAME":"Blake, Richard","PROVIDER STATE":"Kentucky","PROVIDER CITY":"Lexington","PROVIDER  ADDRESS":"100 N Eagle Creek Dr","PROVIDER ZIP 5 CD":40509,"PROVIDER ZIP 4 CD":1805,"PROVIDER PHONE NUM":8592585300,"PROVIDER PHONE EXT":"","PROGRAM YEAR":2011},"geometry":{"type":"Point","coordinates":[-84.442655,37.998213]}},{"type":"Feature","id":"5132dd6aa288f42e67352dca","properties":{"_id":"5132dd6aa288f42e67352dca","PROVIDER NPI":1295723328,"PROVIDER NAME":"BLALOCK, RICHARD","PROVIDER STATE":"Kentucky","PROVIDER CITY":"Murray","PROVIDER  ADDRESS":"1000 S 12th St","PROVIDER ZIP 5 CD":42071,"PROVIDER ZIP 4 CD":9303,"PROVIDER PHONE NUM":2707599200,"PROVIDER PHONE EXT":"","PROGRAM YEAR":2011},"geometry":{"type":"Point","coordinates":[-88.315271,36.598355]}},{"type":"Feature","id":"5132dd6aa288f42e67352dcb","properties":{"_id":"5132dd6aa288f42e67352dcb","PROVIDER NPI":1861446031,"PROVIDER NAME":"Blau, Jeffrey","PROVIDER STATE":"Kentucky","PROVIDER CITY":"Edgewood","PROVIDER  ADDRESS":"334 Thomas More Parkway, Suite 200","PROVIDER ZIP 5 CD":41017,"PROVIDER ZIP 4 CD":3496,"PROVIDER PHONE NUM":8593445555,"PROVIDER PHONE EXT":"","PROGRAM YEAR":2011},"geometry":{"type":"Point","coordinates":[-84.574242,39.004733]}},{"type":"Feature","id":"5132dd6aa288f42e67352dcc","properties":{"_id":"5132dd6aa288f42e67352dcc","PROVIDER NPI":1659471167,"PROVIDER NAME":"Blevins, Marshall","PROVIDER STATE":"Kentucky","PROVIDER CITY":"Ashland","PROVIDER  ADDRESS":"6572 Midland Trail Rd","PROVIDER ZIP 5 CD":41102,"PROVIDER ZIP 4 CD":9286,"PROVIDER PHONE NUM":6069280054,"PROVIDER PHONE EXT":"","PROGRAM YEAR":2011},"geometry":{"type":"Point","coordinates":[-82.693017,38.432445]}},{"type":"Feature","id":"5132dd6aa288f42e67352dcd","properties":{"_id":"5132dd6aa288f42e67352dcd","PROVIDER NPI":1285720433,"PROVIDER NAME":"Boatwright, George","PROVIDER STATE":"Kentucky","PROVIDER CITY":"Louisville","PROVIDER  ADDRESS":"1169 Eastern Pkwy, Ste 3310","PROVIDER ZIP 5 CD":40217,"PROVIDER ZIP 4 CD":1417,"PROVIDER PHONE NUM":5024599127,"PROVIDER PHONE EXT":"","PROGRAM YEAR":2011},"geometry":{"type":"Point","coordinates":[-85.725929,38.225375]}},{"type":"Feature","id":"5132dd6aa288f42e67352dce","properties":{"_id":"5132dd6aa288f42e67352dce","PROVIDER NPI":1033196084,"PROVIDER NAME":"Bodnarchuk, Gary","PROVIDER STATE":"Kentucky","PROVIDER CITY":"Paducah","PROVIDER  ADDRESS":"1528 Lone Oak Rd","PROVIDER ZIP 5 CD":42003,"PROVIDER ZIP 4 CD":7901,"PROVIDER PHONE NUM":2704430777,"PROVIDER PHONE EXT":"","PROGRAM YEAR":2011},"geometry":{"type":"Point","coordinates":[-88.647072,37.053403]}},{"type":"Feature","id":"5132dd6aa288f42e67352dcf","properties":{"_id":"5132dd6aa288f42e67352dcf","PROVIDER NPI":1912909581,"PROVIDER NAME":"Bolton, Mary","PROVIDER STATE":"Kentucky","PROVIDER CITY":"Lexington","PROVIDER  ADDRESS":"1401 Harrodsburg Rd, Ste C115","PROVIDER ZIP 5 CD":40504,"PROVIDER ZIP 4 CD":3751,"PROVIDER PHONE NUM":8592788855,"PROVIDER PHONE EXT":"","PROGRAM YEAR":2011},"geometry":{"type":"Point","coordinates":[-84.523614,38.033439]}},{"type":"Feature","id":"5132dd6aa288f42e67352dd0","properties":{"_id":"5132dd6aa288f42e67352dd0","PROVIDER NPI":1285729889,"PROVIDER NAME":"Booth, Rebecca","PROVIDER STATE":"Kentucky","PROVIDER CITY":"Louisville","PROVIDER  ADDRESS":"3900 Kresge Way, #30","PROVIDER ZIP 5 CD":40207,"PROVIDER ZIP 4 CD":"","PROVIDER PHONE NUM":5028918700,"PROVIDER PHONE EXT":141,"PROGRAM YEAR":2011},"geometry":{"type":"Point","coordinates":[-85.637786,38.239701]}},{"type":"Feature","id":"5132dd6aa288f42e67352dd1","properties":{"_id":"5132dd6aa288f42e67352dd1","PROVIDER NPI":1699769869,"PROVIDER NAME":"Boucher, Rene","PROVIDER STATE":"Kentucky","PROVIDER CITY":"Bowling Green","PROVIDER  ADDRESS":"165 Natchez Trace Ave, Suite 205","PROVIDER ZIP 5 CD":42103,"PROVIDER ZIP 4 CD":7940,"PROVIDER PHONE NUM":2702822024,"PROVIDER PHONE EXT":"","PROGRAM YEAR":2011},"geometry":{"type":"Point","coordinates":[-86.357171,36.744495]}},{"type":"Feature","id":"5132dd6aa288f42e67352dd2","properties":{"_id":"5132dd6aa288f42e67352dd2","PROVIDER NPI":1376582221,"PROVIDER NAME":"BOUGHABA, DOLLY","PROVIDER STATE":"Kentucky","PROVIDER CITY":"Crestview Hills","PROVIDER  ADDRESS":"320 Thomas More Pkwy","PROVIDER ZIP 5 CD":41017,"PROVIDER ZIP 4 CD":"","PROVIDER PHONE NUM":8593414266,"PROVIDER PHONE EXT":"","PROGRAM YEAR":2011},"geometry":{"type":"Point","coordinates":[-84.570361,39.022943]}},{"type":"Feature","id":"5132dd6aa288f42e67352dd3","properties":{"_id":"5132dd6aa288f42e67352dd3","PROVIDER NPI":1245412568,"PROVIDER NAME":"Bowers, C.","PROVIDER STATE":"Kentucky","PROVIDER CITY":"Lexington","PROVIDER  ADDRESS":"715 Shaker Dr, Suite 120","PROVIDER ZIP 5 CD":40504,"PROVIDER ZIP 4 CD":3662,"PROVIDER PHONE NUM":8592788443,"PROVIDER PHONE EXT":"","PROGRAM YEAR":2011},"geometry":{"type":"Point","coordinates":[-84.528748,38.03132]}},{"type":"Feature","id":"5132dd6aa288f42e67352dd4","properties":{"_id":"5132dd6aa288f42e67352dd4","PROVIDER NPI":1790767689,"PROVIDER NAME":"Bowlds, Charles","PROVIDER STATE":"Kentucky","PROVIDER CITY":"Louisville","PROVIDER  ADDRESS":"4003 Kresge Way, Suite 410","PROVIDER ZIP 5 CD":40207,"PROVIDER ZIP 4 CD":4652,"PROVIDER PHONE NUM":5028937462,"PROVIDER PHONE EXT":"","PROGRAM YEAR":2011},"geometry":{"type":"Point","coordinates":[-85.637656,38.239913]}},{"type":"Feature","id":"5132dd6aa288f42e67352dd5","properties":{"_id":"5132dd6aa288f42e67352dd5","PROVIDER NPI":1740270115,"PROVIDER NAME":"Boyd, Michael","PROVIDER STATE":"Kentucky","PROVIDER CITY":"Flemingsburg","PROVIDER  ADDRESS":"935 Elizaville Ave","PROVIDER ZIP 5 CD":41041,"PROVIDER ZIP 4 CD":9210,"PROVIDER PHONE NUM":6068493374,"PROVIDER PHONE EXT":"","PROGRAM YEAR":2011},"geometry":{"type":"Point","coordinates":[-83.750154,38.41993]}},{"type":"Feature","id":"5132dd6aa288f42e67352dd6","properties":{"_id":"5132dd6aa288f42e67352dd6","PROVIDER NPI":1922077460,"PROVIDER NAME":"BOYKIN, WILLIAM","PROVIDER STATE":"Kentucky","PROVIDER CITY":"Ashland","PROVIDER  ADDRESS":"336 29th St","PROVIDER ZIP 5 CD":41101,"PROVIDER ZIP 4 CD":1900,"PROVIDER PHONE NUM":6063244404,"PROVIDER PHONE EXT":"","PROGRAM YEAR":2011},"geometry":{"type":"Point","coordinates":[-82.623835,38.469791]}},{"type":"Feature","id":"5132dd6aa288f42e67352dd7","properties":{"_id":"5132dd6aa288f42e67352dd7","PROVIDER NPI":1972559714,"PROVIDER NAME":"BRADBURN, ERIC","PROVIDER STATE":"Kentucky","PROVIDER CITY":"Winchester","PROVIDER  ADDRESS":"475 Shoppers Dr","PROVIDER ZIP 5 CD":40391,"PROVIDER ZIP 4 CD":1380,"PROVIDER PHONE NUM":8597445111,"PROVIDER PHONE EXT":"","PROGRAM YEAR":2011},"geometry":{"type":"Point","coordinates":[-84.21669,38.00245]}},{"type":"Feature","id":"5132dd6aa288f42e67352dd8","properties":{"_id":"5132dd6aa288f42e67352dd8","PROVIDER NPI":1932262268,"PROVIDER NAME":"Brazil, James","PROVIDER STATE":"Kentucky","PROVIDER CITY":"Cadiz","PROVIDER  ADDRESS":"250 Main Street, Medical Arts Center Suite B","PROVIDER ZIP 5 CD":42211,"PROVIDER ZIP 4 CD":"","PROVIDER PHONE NUM":2705223444,"PROVIDER PHONE EXT":"","PROGRAM YEAR":2011},"geometry":{"type":"Point","coordinates":[-87.822552,36.867019]}},{"type":"Feature","id":"5132dd6aa288f42e67352dd9","properties":{"_id":"5132dd6aa288f42e67352dd9","PROVIDER NPI":1659392207,"PROVIDER NAME":"Breiwa, John","PROVIDER STATE":"Kentucky","PROVIDER CITY":"Bowling Green","PROVIDER  ADDRESS":"811 Fairview Ave","PROVIDER ZIP 5 CD":42101,"PROVIDER ZIP 4 CD":4969,"PROVIDER PHONE NUM":2708420383,"PROVIDER PHONE EXT":"","PROGRAM YEAR":2011},"geometry":{"type":"Point","coordinates":[-86.433917,36.992022]}},{"type":"Feature","id":"5132dd6aa288f42e67352dda","properties":{"_id":"5132dd6aa288f42e67352dda","PROVIDER NPI":1679568661,"PROVIDER NAME":"BRISCOE, STEPHEN","PROVIDER STATE":"Kentucky","PROVIDER CITY":"Corbin","PROVIDER  ADDRESS":"1470 Cumberland Falls Hwy","PROVIDER ZIP 5 CD":40701,"PROVIDER ZIP 4 CD":2721,"PROVIDER PHONE NUM":2707449600,"PROVIDER PHONE EXT":345,"PROGRAM YEAR":2011},"geometry":{"type":"Point","coordinates":[-84.110041,36.927087]}},{"type":"Feature","id":"5132dd6aa288f42e67352ddb","properties":{"_id":"5132dd6aa288f42e67352ddb","PROVIDER NPI":1821028481,"PROVIDER NAME":"Broudy, Bruce","PROVIDER STATE":"Kentucky","PROVIDER CITY":"Lexington","PROVIDER  ADDRESS":"1221 S Broadway","PROVIDER ZIP 5 CD":40504,"PROVIDER ZIP 4 CD":2701,"PROVIDER PHONE NUM":8592584568,"PROVIDER PHONE EXT":"","PROGRAM YEAR":2011},"geometry":{"type":"Point","coordinates":[-84.521076,38.035227]}},{"type":"Feature","id":"5132dd6aa288f42e67352ddc","properties":{"_id":"5132dd6aa288f42e67352ddc","PROVIDER NPI":1043250343,"PROVIDER NAME":"Brown, Alexander","PROVIDER STATE":"Kentucky","PROVIDER CITY":"Lexington","PROVIDER  ADDRESS":"330 Waller Ave, Suite 100","PROVIDER ZIP 5 CD":40504,"PROVIDER ZIP 4 CD":2931,"PROVIDER PHONE NUM":8592547000,"PROVIDER PHONE EXT":"","PROGRAM YEAR":2011},"geometry":{"type":"Point","coordinates":[-84.517406,38.029574]}},{"type":"Feature","id":"5132dd6aa288f42e67352ddd","properties":{"_id":"5132dd6aa288f42e67352ddd","PROVIDER NPI":1811980246,"PROVIDER NAME":"BROWN, HOLLY","PROVIDER STATE":"Kentucky","PROVIDER CITY":"Louisville","PROVIDER  ADDRESS":"3900 Kresge Way  Ste. 30","PROVIDER ZIP 5 CD":40207,"PROVIDER ZIP 4 CD":"","PROVIDER PHONE NUM":5028918700,"PROVIDER PHONE EXT":"","PROGRAM YEAR":2011},"geometry":{"type":"Point","coordinates":[-85.637786,38.239701]}},{"type":"Feature","id":"5132dd6aa288f42e67352dde","properties":{"_id":"5132dd6aa288f42e67352dde","PROVIDER NPI":1740273341,"PROVIDER NAME":"Brown, William","PROVIDER STATE":"Kentucky","PROVIDER CITY":"Louisville","PROVIDER  ADDRESS":"9110 Leesgate Rd","PROVIDER ZIP 5 CD":40222,"PROVIDER ZIP 4 CD":5053,"PROVIDER PHONE NUM":5024267222,"PROVIDER PHONE EXT":303,"PROGRAM YEAR":2011},"geometry":{"type":"Point","coordinates":[-85.583354,38.242649]}},{"type":"Feature","id":"5132dd6aa288f42e67352ddf","properties":{"_id":"5132dd6aa288f42e67352ddf","PROVIDER NPI":1790767515,"PROVIDER NAME":"Brown-Puryear, Latonya","PROVIDER STATE":"Kentucky","PROVIDER CITY":"EDGEWOOD","PROVIDER  ADDRESS":"334 THOMAS MORE PARKWAY, SUITE 200","PROVIDER ZIP 5 CD":41071,"PROVIDER ZIP 4 CD":3496,"PROVIDER PHONE NUM":8593445555,"PROVIDER PHONE EXT":"","PROGRAM YEAR":2011},"geometry":{"type":"Point","coordinates":[-84.48053,39.079076]}},{"type":"Feature","id":"5132dd6aa288f42e67352de0","properties":{"_id":"5132dd6aa288f42e67352de0","PROVIDER NPI":1053386060,"PROVIDER NAME":"Brunner, Mark","PROVIDER STATE":"Kentucky","PROVIDER CITY":"Danville","PROVIDER  ADDRESS":"212 S 2nd St","PROVIDER ZIP 5 CD":40422,"PROVIDER ZIP 4 CD":1804,"PROVIDER PHONE NUM":8592365302,"PROVIDER PHONE EXT":"","PROGRAM YEAR":2011},"geometry":{"type":"Point","coordinates":[-84.771036,37.64445]}},{"type":"Feature","id":"5132dd6aa288f42e67352de1","properties":{"_id":"5132dd6aa288f42e67352de1","PROVIDER NPI":1962419663,"PROVIDER NAME":"Bryant, Mary","PROVIDER STATE":"Kentucky","PROVIDER CITY":"Louisville","PROVIDER  ADDRESS":"4002 Kresge Way, #100","PROVIDER ZIP 5 CD":40207,"PROVIDER ZIP 4 CD":"","PROVIDER PHONE NUM":5028971121,"PROVIDER PHONE EXT":"","PROGRAM YEAR":2011},"geometry":{"type":"Point","coordinates":[-85.637568,38.239792]}},{"type":"Feature","id":"5132dd6aa288f42e67352de2","properties":{"_id":"5132dd6aa288f42e67352de2","PROVIDER NPI":1295939791,"PROVIDER NAME":"Bucher, Matthew","PROVIDER STATE":"Kentucky","PROVIDER CITY":"Frankfort","PROVIDER  ADDRESS":"1001 Leawood Dr","PROVIDER ZIP 5 CD":40601,"PROVIDER ZIP 4 CD":3375,"PROVIDER PHONE NUM":5022230231,"PROVIDER PHONE EXT":"","PROGRAM YEAR":2011},"geometry":{"type":"Point","coordinates":[-84.884739,38.183754]}},{"type":"Feature","id":"5132dd6aa288f42e67352de3","properties":{"_id":"5132dd6aa288f42e67352de3","PROVIDER NPI":1609079540,"PROVIDER NAME":"Budhani, Irfan","PROVIDER STATE":"Kentucky","PROVIDER CITY":"EDGEWOOD","PROVIDER  ADDRESS":"334 THOMAS MORE PARKWAY, SUITE 200","PROVIDER ZIP 5 CD":41071,"PROVIDER ZIP 4 CD":3496,"PROVIDER PHONE NUM":8593445555,"PROVIDER PHONE EXT":"","PROGRAM YEAR":2011},"geometry":{"type":"Point","coordinates":[-84.48053,39.079076]}},{"type":"Feature","id":"5132dd6aa288f42e67352de4","properties":{"_id":"5132dd6aa288f42e67352de4","PROVIDER NPI":1063482214,"PROVIDER NAME":"burch, andrea","PROVIDER STATE":"Kentucky","PROVIDER CITY":"Louisville","PROVIDER  ADDRESS":"444 S 1st St., Suite 100","PROVIDER ZIP 5 CD":40202,"PROVIDER ZIP 4 CD":"","PROVIDER PHONE NUM":5024951162,"PROVIDER PHONE EXT":"","PROGRAM YEAR":2011},"geometry":{"type":"Point","coordinates":[-85.752356,38.251948]}},{"type":"Feature","id":"5132dd6aa288f42e67352de5","properties":{"_id":"5132dd6aa288f42e67352de5","PROVIDER NPI":1619978418,"PROVIDER NAME":"Burchell, Del","PROVIDER STATE":"Kentucky","PROVIDER CITY":"EDGEWOOD","PROVIDER  ADDRESS":"334 THOMAS MORE PARKWAY, SUITE 200","PROVIDER ZIP 5 CD":41017,"PROVIDER ZIP 4 CD":3496,"PROVIDER PHONE NUM":8593445555,"PROVIDER PHONE EXT":"","PROGRAM YEAR":2011},"geometry":{"type":"Point","coordinates":[-84.574242,39.004733]}},{"type":"Feature","id":"5132dd6aa288f42e67352de6","properties":{"_id":"5132dd6aa288f42e67352de6","PROVIDER NPI":1750371886,"PROVIDER NAME":"Burchett, Blake","PROVIDER STATE":"Kentucky","PROVIDER CITY":"Prestonsburg","PROVIDER  ADDRESS":"535 N Lake Dr","PROVIDER ZIP 5 CD":41653,"PROVIDER ZIP 4 CD":1278,"PROVIDER PHONE NUM":6068868466,"PROVIDER PHONE EXT":"","PROGRAM YEAR":2011},"geometry":{"type":"Point","coordinates":[-82.778561,37.675817]}},{"type":"Feature","id":"5132dd6aa288f42e67352de7","properties":{"_id":"5132dd6aa288f42e67352de7","PROVIDER NPI":1184738965,"PROVIDER NAME":"Burchett, Thomas","PROVIDER STATE":"Kentucky","PROVIDER CITY":"Winchester","PROVIDER  ADDRESS":"1124 Mccann Drive","PROVIDER ZIP 5 CD":40391,"PROVIDER ZIP 4 CD":"","PROVIDER PHONE NUM":8597457700,"PROVIDER PHONE EXT":"","PROGRAM YEAR":2011},"geometry":{"type":"Point","coordinates":[-84.194662,38.003974]}},{"type":"Feature","id":"5132dd6aa288f42e67352de8","properties":{"_id":"5132dd6aa288f42e67352de8","PROVIDER NPI":1922045186,"PROVIDER NAME":"Burgher, Charles","PROVIDER STATE":"Kentucky","PROVIDER CITY":"EDGEWOOD","PROVIDER  ADDRESS":"334 THOMAS MORE PARKWAY, Suite 200","PROVIDER ZIP 5 CD":41017,"PROVIDER ZIP 4 CD":3496,"PROVIDER PHONE NUM":8593445555,"PROVIDER PHONE EXT":"","PROGRAM YEAR":2011},"geometry":{"type":"Point","coordinates":[-84.574242,39.004733]}},{"type":"Feature","id":"5132dd6aa288f42e67352de9","properties":{"_id":"5132dd6aa288f42e67352de9","PROVIDER NPI":1942265814,"PROVIDER NAME":"Burke, Brennan","PROVIDER STATE":"Kentucky","PROVIDER CITY":"Edgewood","PROVIDER  ADDRESS":"334 Thomas More Parkway, Suite 200","PROVIDER ZIP 5 CD":41017,"PROVIDER ZIP 4 CD":3496,"PROVIDER PHONE NUM":8593445555,"PROVIDER PHONE EXT":"","PROGRAM YEAR":2011},"geometry":{"type":"Point","coordinates":[-84.574242,39.004733]}},{"type":"Feature","id":"5132dd6aa288f42e67352dea","properties":{"_id":"5132dd6aa288f42e67352dea","PROVIDER NPI":1477637015,"PROVIDER NAME":"Burns, Larry","PROVIDER STATE":"Kentucky","PROVIDER CITY":"Lexington","PROVIDER  ADDRESS":"3174 Custer Dr, Suite 100","PROVIDER ZIP 5 CD":40517,"PROVIDER ZIP 4 CD":4000,"PROVIDER PHONE NUM":8592724882,"PROVIDER PHONE EXT":"","PROGRAM YEAR":2011},"geometry":{"type":"Point","coordinates":[-84.459369,37.988206]}},{"type":"Feature","id":"5132dd6aa288f42e67352deb","properties":{"_id":"5132dd6aa288f42e67352deb","PROVIDER NPI":1548220817,"PROVIDER NAME":"Burns, Patrick","PROVIDER STATE":"Kentucky","PROVIDER CITY":"Edgewood","PROVIDER  ADDRESS":"334 Thomas More Parkway, Suite 200","PROVIDER ZIP 5 CD":41017,"PROVIDER ZIP 4 CD":3496,"PROVIDER PHONE NUM":8593445555,"PROVIDER PHONE EXT":"","PROGRAM YEAR":2011},"geometry":{"type":"Point","coordinates":[-84.574242,39.004733]}},{"type":"Feature","id":"5132dd6aa288f42e67352dec","properties":{"_id":"5132dd6aa288f42e67352dec","PROVIDER NPI":1619958097,"PROVIDER NAME":"Butler, Daniel","PROVIDER STATE":"Kentucky","PROVIDER CITY":"Murray","PROVIDER  ADDRESS":"1000 S 12th St","PROVIDER ZIP 5 CD":42071,"PROVIDER ZIP 4 CD":9303,"PROVIDER PHONE NUM":2707599200,"PROVIDER PHONE EXT":"","PROGRAM YEAR":2011},"geometry":{"type":"Point","coordinates":[-88.315271,36.598355]}},{"type":"Feature","id":"5132dd6aa288f42e67352ded","properties":{"_id":"5132dd6aa288f42e67352ded","PROVIDER NPI":1902902372,"PROVIDER NAME":"Byrnes, Abigail","PROVIDER STATE":"Kentucky","PROVIDER CITY":"Corbin","PROVIDER  ADDRESS":"1707 Cumberland Falls Hwy, Suite U2","PROVIDER ZIP 5 CD":40701,"PROVIDER ZIP 4 CD":2743,"PROVIDER PHONE NUM":8595232200,"PROVIDER PHONE EXT":"","PROGRAM YEAR":2011},"geometry":{"type":"Point","coordinates":[-84.112822,36.923881]}},{"type":"Feature","id":"5132dd6aa288f42e67352dee","properties":{"_id":"5132dd6aa288f42e67352dee","PROVIDER NPI":1093730772,"PROVIDER NAME":"Calderon, Danilo","PROVIDER STATE":"Kentucky","PROVIDER CITY":"EDGEWOOD","PROVIDER  ADDRESS":"334 THOMAS MORE PARKWAY, SUITE 200","PROVIDER ZIP 5 CD":41017,"PROVIDER ZIP 4 CD":3496,"PROVIDER PHONE NUM":8583445555,"PROVIDER PHONE EXT":"","PROGRAM YEAR":2011},"geometry":{"type":"Point","coordinates":[-84.574242,39.004733]}},{"type":"Feature","id":"5132dd6aa288f42e67352def","properties":{"_id":"5132dd6aa288f42e67352def","PROVIDER NPI":1750347001,"PROVIDER NAME":"Caldwell, Charles","PROVIDER STATE":"Kentucky","PROVIDER CITY":"Edgewood","PROVIDER  ADDRESS":"334 Thomas More Parkway, Suite 200","PROVIDER ZIP 5 CD":41017,"PROVIDER ZIP 4 CD":3496,"PROVIDER PHONE NUM":8593445555,"PROVIDER PHONE EXT":"","PROGRAM YEAR":2011},"geometry":{"type":"Point","coordinates":[-84.574242,39.004733]}},{"type":"Feature","id":"5132dd6aa288f42e67352df0","properties":{"_id":"5132dd6aa288f42e67352df0","PROVIDER NPI":1780621961,"PROVIDER NAME":"Callahan, Randi","PROVIDER STATE":"Kentucky","PROVIDER CITY":"Edgewood","PROVIDER  ADDRESS":"334 Thomas More Parkway, Suite 200","PROVIDER ZIP 5 CD":41017,"PROVIDER ZIP 4 CD":3496,"PROVIDER PHONE NUM":8593445555,"PROVIDER PHONE EXT":"","PROGRAM YEAR":2011},"geometry":{"type":"Point","coordinates":[-84.574242,39.004733]}},{"type":"Feature","id":"5132dd6aa288f42e67352df1","properties":{"_id":"5132dd6aa288f42e67352df1","PROVIDER NPI":1710917364,"PROVIDER NAME":"Camp, William","PROVIDER STATE":"Kentucky","PROVIDER CITY":"Lexington","PROVIDER  ADDRESS":"1401 Harrodsburg Rd, Suite A-120","PROVIDER ZIP 5 CD":40504,"PROVIDER ZIP 4 CD":3751,"PROVIDER PHONE NUM":8592586520,"PROVIDER PHONE EXT":"","PROGRAM YEAR":2011},"geometry":{"type":"Point","coordinates":[-84.531416,38.044902]}},{"type":"Feature","id":"5132dd6aa288f42e67352df2","properties":{"_id":"5132dd6aa288f42e67352df2","PROVIDER NPI":1063415826,"PROVIDER NAME":"Cannon, Harold","PROVIDER STATE":"Kentucky","PROVIDER CITY":"Owensboro","PROVIDER  ADDRESS":"815 E Parrish Ave, Ste 320","PROVIDER ZIP 5 CD":42303,"PROVIDER ZIP 4 CD":3222,"PROVIDER PHONE NUM":2706881770,"PROVIDER PHONE EXT":"","PROGRAM YEAR":2011},"geometry":{"type":"Point","coordinates":[-87.102115,37.765212]}},{"type":"Feature","id":"5132dd6aa288f42e67352df3","properties":{"_id":"5132dd6aa288f42e67352df3","PROVIDER NPI":1114138401,"PROVIDER NAME":"Canos, Michael","PROVIDER STATE":"Kentucky","PROVIDER CITY":"EDGEWOOD","PROVIDER  ADDRESS":"334 THOMAS MORE PARKWAY, SUITE 200","PROVIDER ZIP 5 CD":41017,"PROVIDER ZIP 4 CD":3496,"PROVIDER PHONE NUM":8593445555,"PROVIDER PHONE EXT":"","PROGRAM YEAR":2011},"geometry":{"type":"Point","coordinates":[-84.574242,39.004733]}},{"type":"Feature","id":"5132dd6aa288f42e67352df4","properties":{"_id":"5132dd6aa288f42e67352df4","PROVIDER NPI":1114181526,"PROVIDER NAME":"Cartwright, Ehryn","PROVIDER STATE":"Kentucky","PROVIDER CITY":"Alexandria","PROVIDER  ADDRESS":"7517 Alexandria Pike","PROVIDER ZIP 5 CD":41001,"PROVIDER ZIP 4 CD":1051,"PROVIDER PHONE NUM":8596357600,"PROVIDER PHONE EXT":"","PROGRAM YEAR":2011},"geometry":{"type":"Point","coordinates":[-84.39425,38.979903]}},{"type":"Feature","id":"5132dd6aa288f42e67352df5","properties":{"_id":"5132dd6aa288f42e67352df5","PROVIDER NPI":1679669451,"PROVIDER NAME":"Cartwright, Mollie","PROVIDER STATE":"Kentucky","PROVIDER CITY":"Louisville","PROVIDER  ADDRESS":"3900 Kresge Way","PROVIDER ZIP 5 CD":40207,"PROVIDER ZIP 4 CD":"","PROVIDER PHONE NUM":5028918700,"PROVIDER PHONE EXT":141,"PROGRAM YEAR":2011},"geometry":{"type":"Point","coordinates":[-85.637786,38.239701]}},{"type":"Feature","id":"5132dd6aa288f42e67352df6","properties":{"_id":"5132dd6aa288f42e67352df6","PROVIDER NPI":1962408088,"PROVIDER NAME":"Cassis, Tamella","PROVIDER STATE":"Kentucky","PROVIDER CITY":"Prospect","PROVIDER  ADDRESS":"9301 Dayflower St, Suite 100","PROVIDER ZIP 5 CD":40059,"PROVIDER ZIP 4 CD":7585,"PROVIDER PHONE NUM":5023268588,"PROVIDER PHONE EXT":"","PROGRAM YEAR":2011},"geometry":{"type":"Point","coordinates":[-85.569094,38.323403]}},{"type":"Feature","id":"5132dd6aa288f42e67352df7","properties":{"_id":"5132dd6aa288f42e67352df7","PROVIDER NPI":1629177738,"PROVIDER NAME":"Cassity, Abbe","PROVIDER STATE":"Kentucky","PROVIDER CITY":"Ashland","PROVIDER  ADDRESS":"1816 Carter Ave","PROVIDER ZIP 5 CD":41101,"PROVIDER ZIP 4 CD":7643,"PROVIDER PHONE NUM":6069209595,"PROVIDER PHONE EXT":"","PROGRAM YEAR":2011},"geometry":{"type":"Point","coordinates":[-82.637927,38.476438]}},{"type":"Feature","id":"5132dd6aa288f42e67352df8","properties":{"_id":"5132dd6aa288f42e67352df8","PROVIDER NPI":1356545354,"PROVIDER NAME":"Catanzaro, Lori","PROVIDER STATE":"Kentucky","PROVIDER CITY":"Edgewood","PROVIDER  ADDRESS":"334 Thomas More Parkway, Suite 200","PROVIDER ZIP 5 CD":41017,"PROVIDER ZIP 4 CD":3496,"PROVIDER PHONE NUM":8593445555,"PROVIDER PHONE EXT":"","PROGRAM YEAR":2011},"geometry":{"type":"Point","coordinates":[-84.574242,39.004733]}},{"type":"Feature","id":"5132dd6aa288f42e67352df9","properties":{"_id":"5132dd6aa288f42e67352df9","PROVIDER NPI":1922101492,"PROVIDER NAME":"Caudill, William","PROVIDER STATE":"Kentucky","PROVIDER CITY":"Lexington","PROVIDER  ADDRESS":"1401 Harrodsburg Rd, C335","PROVIDER ZIP 5 CD":40504,"PROVIDER ZIP 4 CD":"","PROVIDER PHONE NUM":8592765355,"PROVIDER PHONE EXT":"","PROGRAM YEAR":2011},"geometry":{"type":"Point","coordinates":[-84.523614,38.033439]}},{"type":"Feature","id":"5132dd6aa288f42e67352dfa","properties":{"_id":"5132dd6aa288f42e67352dfa","PROVIDER NPI":1285616730,"PROVIDER NAME":"Cecil, Joseph","PROVIDER STATE":"Kentucky","PROVIDER CITY":"Louisville","PROVIDER  ADDRESS":"4003 Kresge Way, Suite 410","PROVIDER ZIP 5 CD":40207,"PROVIDER ZIP 4 CD":4652,"PROVIDER PHONE NUM":5028937462,"PROVIDER PHONE EXT":"","PROGRAM YEAR":2011},"geometry":{"type":"Point","coordinates":[-85.637656,38.239913]}},{"type":"Feature","id":"5132dd6aa288f42e67352dfb","properties":{"_id":"5132dd6aa288f42e67352dfb","PROVIDER NPI":1295737955,"PROVIDER NAME":"Cecil, Michael","PROVIDER STATE":"Kentucky","PROVIDER CITY":"Lexington","PROVIDER  ADDRESS":"1221 S Broadway","PROVIDER ZIP 5 CD":40504,"PROVIDER ZIP 4 CD":2701,"PROVIDER PHONE NUM":8592584371,"PROVIDER PHONE EXT":"","PROGRAM YEAR":2011},"geometry":{"type":"Point","coordinates":[-84.521076,38.035227]}},{"type":"Feature","id":"5132dd6aa288f42e67352dfc","properties":{"_id":"5132dd6aa288f42e67352dfc","PROVIDER NPI":1982819728,"PROVIDER NAME":"Chatham, Rebecca","PROVIDER STATE":"Kentucky","PROVIDER CITY":"Danville","PROVIDER  ADDRESS":"640 E Lexington Ave","PROVIDER ZIP 5 CD":40422,"PROVIDER ZIP 4 CD":1719,"PROVIDER PHONE NUM":8592361250,"PROVIDER PHONE EXT":"","PROGRAM YEAR":2011},"geometry":{"type":"Point","coordinates":[-84.75532,37.653785]}},{"type":"Feature","id":"5132dd6aa288f42e67352dfd","properties":{"_id":"5132dd6aa288f42e67352dfd","PROVIDER NPI":1992731269,"PROVIDER NAME":"Chen, An-Yu","PROVIDER STATE":"Kentucky","PROVIDER CITY":"Lexington","PROVIDER  ADDRESS":"1221 S Broadway","PROVIDER ZIP 5 CD":40504,"PROVIDER ZIP 4 CD":2701,"PROVIDER PHONE NUM":8592584950,"PROVIDER PHONE EXT":"","PROGRAM YEAR":2011},"geometry":{"type":"Point","coordinates":[-84.521076,38.035227]}},{"type":"Feature","id":"5132dd6aa288f42e67352dfe","properties":{"_id":"5132dd6aa288f42e67352dfe","PROVIDER NPI":1871599399,"PROVIDER NAME":"Cherry, Allison","PROVIDER STATE":"Kentucky","PROVIDER CITY":"Somerset","PROVIDER  ADDRESS":"10 Tower Circle","PROVIDER ZIP 5 CD":42503,"PROVIDER ZIP 4 CD":"","PROVIDER PHONE NUM":6066784288,"PROVIDER PHONE EXT":"","PROGRAM YEAR":2011},"geometry":{"type":"Point","coordinates":[-84.65153,37.287925]}},{"type":"Feature","id":"5132dd6aa288f42e67352dff","properties":{"_id":"5132dd6aa288f42e67352dff","PROVIDER NPI":1013094978,"PROVIDER NAME":"Childress, Thomas","PROVIDER STATE":"Kentucky","PROVIDER CITY":"Louisville","PROVIDER  ADDRESS":"3 Audubon Plaza Dr, Suite 510","PROVIDER ZIP 5 CD":40217,"PROVIDER ZIP 4 CD":1319,"PROVIDER PHONE NUM":5028931844,"PROVIDER PHONE EXT":"","PROGRAM YEAR":2011},"geometry":{"type":"Point","coordinates":[-85.721093,38.208872]}},{"type":"Feature","id":"5132dd6aa288f42e67352e00","properties":{"_id":"5132dd6aa288f42e67352e00","PROVIDER NPI":1578538427,"PROVIDER NAME":"Chirravuri, Veerabhadra","PROVIDER STATE":"Kentucky","PROVIDER CITY":"Hopkinsville","PROVIDER  ADDRESS":"315 Cool Water Ct","PROVIDER ZIP 5 CD":42240,"PROVIDER ZIP 4 CD":8738,"PROVIDER PHONE NUM":2708870700,"PROVIDER PHONE EXT":"","PROGRAM YEAR":2011},"geometry":{"type":"Point","coordinates":[-87.505208,36.825028]}},{"type":"Feature","id":"5132dd6aa288f42e67352e01","properties":{"_id":"5132dd6aa288f42e67352e01","PROVIDER NPI":1184623290,"PROVIDER NAME":"Chou, Jeffrey","PROVIDER STATE":"Kentucky","PROVIDER CITY":"Louisville","PROVIDER  ADDRESS":"117 S Hubbards Ln, Suite 102","PROVIDER ZIP 5 CD":40207,"PROVIDER ZIP 4 CD":3937,"PROVIDER PHONE NUM":5028953840,"PROVIDER PHONE EXT":"","PROGRAM YEAR":2011},"geometry":{"type":"Point","coordinates":[-85.639945,38.251337]}},{"type":"Feature","id":"5132dd6aa288f42e67352e02","properties":{"_id":"5132dd6aa288f42e67352e02","PROVIDER NPI":1265651566,"PROVIDER NAME":"Choutka, Ondrej","PROVIDER STATE":"Kentucky","PROVIDER CITY":"Ashland","PROVIDER  ADDRESS":"613 23rd St., Suite G20","PROVIDER ZIP 5 CD":41101,"PROVIDER ZIP 4 CD":"","PROVIDER PHONE NUM":6064083794,"PROVIDER PHONE EXT":"","PROGRAM YEAR":2011},"geometry":{"type":"Point","coordinates":[-82.63294,38.471252]}},{"type":"Feature","id":"5132dd6aa288f42e67352e03","properties":{"_id":"5132dd6aa288f42e67352e03","PROVIDER NPI":1982666830,"PROVIDER NAME":"Ciochetty, David","PROVIDER STATE":"Kentucky","PROVIDER CITY":"Bowling Green","PROVIDER  ADDRESS":"165 Natchez Trace, Ste 205","PROVIDER ZIP 5 CD":42103,"PROVIDER ZIP 4 CD":794,"PROVIDER PHONE NUM":2702822024,"PROVIDER PHONE EXT":"","PROGRAM YEAR":2011},"geometry":{"type":"Point","coordinates":[-85.930093,36.991021]}},{"type":"Feature","id":"5132dd6aa288f42e67352e04","properties":{"_id":"5132dd6aa288f42e67352e04","PROVIDER NPI":1508841487,"PROVIDER NAME":"Clark, Erika","PROVIDER STATE":"Kentucky","PROVIDER CITY":"Lexington","PROVIDER  ADDRESS":"1451 Harrodsburg Rd, Suite D-502","PROVIDER ZIP 5 CD":40504,"PROVIDER ZIP 4 CD":3758,"PROVIDER PHONE NUM":8592778560,"PROVIDER PHONE EXT":"","PROGRAM YEAR":2011},"geometry":{"type":"Point","coordinates":[-84.531416,38.044902]}},{"type":"Feature","id":"5132dd6aa288f42e67352e05","properties":{"_id":"5132dd6aa288f42e67352e05","PROVIDER NPI":1790766178,"PROVIDER NAME":"Clark, Hollis","PROVIDER STATE":"Kentucky","PROVIDER CITY":"Murray","PROVIDER  ADDRESS":"1000 S 12th St","PROVIDER ZIP 5 CD":42071,"PROVIDER ZIP 4 CD":9303,"PROVIDER PHONE NUM":2707599200,"PROVIDER PHONE EXT":"","PROGRAM YEAR":2011},"geometry":{"type":"Point","coordinates":[-88.315271,36.598355]}},{"type":"Feature","id":"5132dd6aa288f42e67352e06","properties":{"_id":"5132dd6aa288f42e67352e06","PROVIDER NPI":1548282742,"PROVIDER NAME":"Cole, Diana","PROVIDER STATE":"Kentucky","PROVIDER CITY":"Shelbyville","PROVIDER  ADDRESS":"30 Stonecrest Ct, Ste 102","PROVIDER ZIP 5 CD":40065,"PROVIDER ZIP 4 CD":8128,"PROVIDER PHONE NUM":5026474600,"PROVIDER PHONE EXT":"","PROGRAM YEAR":2011},"geometry":{"type":"Point","coordinates":[-85.25235,38.211174]}},{"type":"Feature","id":"5132dd6aa288f42e67352e07","properties":{"_id":"5132dd6aa288f42e67352e07","PROVIDER NPI":1124092234,"PROVIDER NAME":"Cole, Kelly","PROVIDER STATE":"Kentucky","PROVIDER CITY":"Lexington","PROVIDER  ADDRESS":"330 Waller Ave, Suite 100","PROVIDER ZIP 5 CD":40504,"PROVIDER ZIP 4 CD":2931,"PROVIDER PHONE NUM":8592547000,"PROVIDER PHONE EXT":"","PROGRAM YEAR":2011},"geometry":{"type":"Point","coordinates":[-84.517406,38.029574]}},{"type":"Feature","id":"5132dd6aa288f42e67352e08","properties":{"_id":"5132dd6aa288f42e67352e08","PROVIDER NPI":1912937939,"PROVIDER NAME":"Colin, Wayne","PROVIDER STATE":"Kentucky","PROVIDER CITY":"Lexington","PROVIDER  ADDRESS":"1221 S Broadway","PROVIDER ZIP 5 CD":40504,"PROVIDER ZIP 4 CD":2701,"PROVIDER PHONE NUM":8592584371,"PROVIDER PHONE EXT":"","PROGRAM YEAR":2011},"geometry":{"type":"Point","coordinates":[-84.521076,38.035227]}},{"type":"Feature","id":"5132dd6aa288f42e67352e09","properties":{"_id":"5132dd6aa288f42e67352e09","PROVIDER NPI":1972618106,"PROVIDER NAME":"Collard, Nga","PROVIDER STATE":"Kentucky","PROVIDER CITY":"Elizabethtown","PROVIDER  ADDRESS":"1239 Woodland Dr, Suite 106","PROVIDER ZIP 5 CD":42701,"PROVIDER ZIP 4 CD":2770,"PROVIDER PHONE NUM":2707657676,"PROVIDER PHONE EXT":"","PROGRAM YEAR":2011},"geometry":{"type":"Point","coordinates":[-85.884271,37.721024]}},{"type":"Feature","id":"5132dd6aa288f42e67352e0a","properties":{"_id":"5132dd6aa288f42e67352e0a","PROVIDER NPI":1346252939,"PROVIDER NAME":"Combs, Pamela","PROVIDER STATE":"Kentucky","PROVIDER CITY":"Paris","PROVIDER  ADDRESS":"24 Clinic Dr Ste A","PROVIDER ZIP 5 CD":40361,"PROVIDER ZIP 4 CD":2166,"PROVIDER PHONE NUM":8599870302,"PROVIDER PHONE EXT":"","PROGRAM YEAR":2011},"geometry":{"type":"Point","coordinates":[-84.237346,38.221079]}},{"type":"Feature","id":"5132dd6aa288f42e67352e0b","properties":{"_id":"5132dd6aa288f42e67352e0b","PROVIDER NPI":1699774596,"PROVIDER NAME":"COMPTON, STEVEN","PROVIDER STATE":"Kentucky","PROVIDER CITY":"Franklin","PROVIDER  ADDRESS":"403 N College St","PROVIDER ZIP 5 CD":42134,"PROVIDER ZIP 4 CD":1829,"PROVIDER PHONE NUM":2705865181,"PROVIDER PHONE EXT":"","PROGRAM YEAR":2011},"geometry":{"type":"Point","coordinates":[-86.578891,36.724899]}},{"type":"Feature","id":"5132dd6aa288f42e67352e0c","properties":{"_id":"5132dd6aa288f42e67352e0c","PROVIDER NPI":1215987227,"PROVIDER NAME":"Connors, Marilyn","PROVIDER STATE":"Kentucky","PROVIDER CITY":"Grayson","PROVIDER  ADDRESS":"609 N Carol Malone Blvd","PROVIDER ZIP 5 CD":41143,"PROVIDER ZIP 4 CD":1123,"PROVIDER PHONE NUM":6064747892,"PROVIDER PHONE EXT":"","PROGRAM YEAR":2011},"geometry":{"type":"Point","coordinates":[-82.94358,38.338698]}},{"type":"Feature","id":"5132dd6aa288f42e67352e0d","properties":{"_id":"5132dd6aa288f42e67352e0d","PROVIDER NPI":1154346369,"PROVIDER NAME":"cooper, carol","PROVIDER STATE":"Kentucky","PROVIDER CITY":"Ashland","PROVIDER  ADDRESS":"1200 Central Ave, Suite 4","PROVIDER ZIP 5 CD":41101,"PROVIDER ZIP 4 CD":7575,"PROVIDER PHONE NUM":6064083794,"PROVIDER PHONE EXT":"","PROGRAM YEAR":2011},"geometry":{"type":"Point","coordinates":[-82.645619,38.479074]}},{"type":"Feature","id":"5132dd6aa288f42e67352e0e","properties":{"_id":"5132dd6aa288f42e67352e0e","PROVIDER NPI":1710067905,"PROVIDER NAME":"Cooper, Jaime","PROVIDER STATE":"Kentucky","PROVIDER CITY":"Lawrenceburg","PROVIDER  ADDRESS":"1080 Glensboro Road","PROVIDER ZIP 5 CD":40342,"PROVIDER ZIP 4 CD":"","PROVIDER PHONE NUM":5028394091,"PROVIDER PHONE EXT":"","PROGRAM YEAR":2011},"geometry":{"type":"Point","coordinates":[-84.914371,38.031932]}},{"type":"Feature","id":"5132dd6aa288f42e67352e0f","properties":{"_id":"5132dd6aa288f42e67352e0f","PROVIDER NPI":1104916162,"PROVIDER NAME":"Copeland, Charles","PROVIDER STATE":"Kentucky","PROVIDER CITY":"Louisville","PROVIDER  ADDRESS":"1525 Bardstown Rd","PROVIDER ZIP 5 CD":40205,"PROVIDER ZIP 4 CD":1109,"PROVIDER PHONE NUM":5024545000,"PROVIDER PHONE EXT":"","PROGRAM YEAR":2011},"geometry":{"type":"Point","coordinates":[-85.707865,38.231561]}},{"type":"Feature","id":"5132dd6aa288f42e67352e10","properties":{"_id":"5132dd6aa288f42e67352e10","PROVIDER NPI":1578597936,"PROVIDER NAME":"Cornish, Allen","PROVIDER STATE":"Kentucky","PROVIDER CITY":"Lexington","PROVIDER  ADDRESS":"1221 S Broadway","PROVIDER ZIP 5 CD":40504,"PROVIDER ZIP 4 CD":2701,"PROVIDER PHONE NUM":8592584661,"PROVIDER PHONE EXT":"","PROGRAM YEAR":2011},"geometry":{"type":"Point","coordinates":[-84.521076,38.035227]}},{"type":"Feature","id":"5132dd6aa288f42e67352e11","properties":{"_id":"5132dd6aa288f42e67352e11","PROVIDER NPI":1790799427,"PROVIDER NAME":"Costel, Esther","PROVIDER STATE":"Kentucky","PROVIDER CITY":"Louisville","PROVIDER  ADDRESS":"4002 Kresge Way, Suite 100","PROVIDER ZIP 5 CD":40207,"PROVIDER ZIP 4 CD":"","PROVIDER PHONE NUM":5028971121,"PROVIDER PHONE EXT":"","PROGRAM YEAR":2011},"geometry":{"type":"Point","coordinates":[-85.637568,38.239792]}},{"type":"Feature","id":"5132dd6aa288f42e67352e12","properties":{"_id":"5132dd6aa288f42e67352e12","PROVIDER NPI":1902080559,"PROVIDER NAME":"Cowan, John","PROVIDER STATE":"Kentucky","PROVIDER CITY":"Bowling Green","PROVIDER  ADDRESS":"1106 Fairway St","PROVIDER ZIP 5 CD":42103,"PROVIDER ZIP 4 CD":2418,"PROVIDER PHONE NUM":2707838003,"PROVIDER PHONE EXT":"","PROGRAM YEAR":2011},"geometry":{"type":"Point","coordinates":[-86.431702,36.972132]}},{"type":"Feature","id":"5132dd6aa288f42e67352e13","properties":{"_id":"5132dd6aa288f42e67352e13","PROVIDER NPI":1194717397,"PROVIDER NAME":"Creque, Ron","PROVIDER STATE":"Kentucky","PROVIDER CITY":"Shelbyville","PROVIDER  ADDRESS":"101 Stonecrest Road, Suite 3","PROVIDER ZIP 5 CD":40065,"PROVIDER ZIP 4 CD":"","PROVIDER PHONE NUM":5026335565,"PROVIDER PHONE EXT":"","PROGRAM YEAR":2011},"geometry":{"type":"Point","coordinates":[-85.250973,38.212403]}},{"type":"Feature","id":"5132dd6aa288f42e67352e14","properties":{"_id":"5132dd6aa288f42e67352e14","PROVIDER NPI":1750387239,"PROVIDER NAME":"Crowe, William","PROVIDER STATE":"Kentucky","PROVIDER CITY":"Lexington","PROVIDER  ADDRESS":"1760 Nicholasville Rd, Ste 301","PROVIDER ZIP 5 CD":40503,"PROVIDER ZIP 4 CD":1472,"PROVIDER PHONE NUM":8592775766,"PROVIDER PHONE EXT":"","PROGRAM YEAR":2011},"geometry":{"type":"Point","coordinates":[-84.521099,37.999859]}},{"type":"Feature","id":"5132dd6aa288f42e67352e15","properties":{"_id":"5132dd6aa288f42e67352e15","PROVIDER NPI":1275599755,"PROVIDER NAME":"Crum, Steven","PROVIDER STATE":"Kentucky","PROVIDER CITY":"Frankfort","PROVIDER  ADDRESS":"4 HMB Circle","PROVIDER ZIP 5 CD":40601,"PROVIDER ZIP 4 CD":"","PROVIDER PHONE NUM":5026957725,"PROVIDER PHONE EXT":"","PROGRAM YEAR":2011},"geometry":{"type":"Point","coordinates":[-84.815861,38.210029]}},{"type":"Feature","id":"5132dd6aa288f42e67352e16","properties":{"_id":"5132dd6aa288f42e67352e16","PROVIDER NPI":1801895883,"PROVIDER NAME":"Culbertson, Robert","PROVIDER STATE":"Kentucky","PROVIDER CITY":"Georgetown","PROVIDER  ADDRESS":"1138 Lexington Rd, Ste 290","PROVIDER ZIP 5 CD":40324,"PROVIDER ZIP 4 CD":9672,"PROVIDER PHONE NUM":5028630721,"PROVIDER PHONE EXT":"","PROGRAM YEAR":2011},"geometry":{"type":"Point","coordinates":[-84.563696,38.207022]}},{"type":"Feature","id":"5132dd6aa288f42e67352e17","properties":{"_id":"5132dd6aa288f42e67352e17","PROVIDER NPI":1457456881,"PROVIDER NAME":"Dalati, Ghassan","PROVIDER STATE":"Kentucky","PROVIDER CITY":"Prestonsburg","PROVIDER  ADDRESS":"400 University Dr, Suite 206","PROVIDER ZIP 5 CD":41653,"PROVIDER ZIP 4 CD":1080,"PROVIDER PHONE NUM":6068860892,"PROVIDER PHONE EXT":"","PROGRAM YEAR":2011},"geometry":{"type":"Point","coordinates":[-82.780914,37.682397]}},{"type":"Feature","id":"5132dd6aa288f42e67352e18","properties":{"_id":"5132dd6aa288f42e67352e18","PROVIDER NPI":1629054952,"PROVIDER NAME":"Dankwa, Vibeke","PROVIDER STATE":"Kentucky","PROVIDER CITY":"Lexington","PROVIDER  ADDRESS":"3174 Custer Dr, Ste 100","PROVIDER ZIP 5 CD":40517,"PROVIDER ZIP 4 CD":4000,"PROVIDER PHONE NUM":8592724882,"PROVIDER PHONE EXT":"","PROGRAM YEAR":2011},"geometry":{"type":"Point","coordinates":[-84.459369,37.988206]}},{"type":"Feature","id":"5132dd6aa288f42e67352e19","properties":{"_id":"5132dd6aa288f42e67352e19","PROVIDER NPI":1356330732,"PROVIDER NAME":"Darnell, Zane","PROVIDER STATE":"Kentucky","PROVIDER CITY":"Ashland","PROVIDER  ADDRESS":"613 23rd St, Ste 230","PROVIDER ZIP 5 CD":41101,"PROVIDER ZIP 4 CD":2876,"PROVIDER PHONE NUM":6063244745,"PROVIDER PHONE EXT":"","PROGRAM YEAR":2011},"geometry":{"type":"Point","coordinates":[-82.63294,38.471252]}},{"type":"Feature","id":"5132dd6aa288f42e67352e1a","properties":{"_id":"5132dd6aa288f42e67352e1a","PROVIDER NPI":1710982517,"PROVIDER NAME":"Davenport, Michael","PROVIDER STATE":"Kentucky","PROVIDER CITY":"Edgewood","PROVIDER  ADDRESS":"580 SOUTH LOOP ROAD, SUITE 201","PROVIDER ZIP 5 CD":41017,"PROVIDER ZIP 4 CD":3415,"PROVIDER PHONE NUM":8593441600,"PROVIDER PHONE EXT":"","PROGRAM YEAR":2011},"geometry":{"type":"Point","coordinates":[-83.643005,38.253029]}},{"type":"Feature","id":"5132dd6aa288f42e67352e1b","properties":{"_id":"5132dd6aa288f42e67352e1b","PROVIDER NPI":1780618041,"PROVIDER NAME":"Davenport, Robert","PROVIDER STATE":"Kentucky","PROVIDER CITY":"Lexington","PROVIDER  ADDRESS":"100 N Eagle Creek Dr","PROVIDER ZIP 5 CD":40509,"PROVIDER ZIP 4 CD":1805,"PROVIDER PHONE NUM":8592585107,"PROVIDER PHONE EXT":"","PROGRAM YEAR":2011},"geometry":{"type":"Point","coordinates":[-84.442655,37.998213]}},{"type":"Feature","id":"5132dd6aa288f42e67352e1c","properties":{"_id":"5132dd6aa288f42e67352e1c","PROVIDER NPI":1972574978,"PROVIDER NAME":"Davis, Melissa","PROVIDER STATE":"Kentucky","PROVIDER CITY":"Ashland","PROVIDER  ADDRESS":"2222 Winchester Ave","PROVIDER ZIP 5 CD":41101,"PROVIDER ZIP 4 CD":7847,"PROVIDER PHONE NUM":6063259644,"PROVIDER PHONE EXT":"","PROGRAM YEAR":2011},"geometry":{"type":"Point","coordinates":[-82.631976,38.474716]}},{"type":"Feature","id":"5132dd6aa288f42e67352e1d","properties":{"_id":"5132dd6aa288f42e67352e1d","PROVIDER NPI":1972599660,"PROVIDER NAME":"De Los Reyes, Eduardo","PROVIDER STATE":"Kentucky","PROVIDER CITY":"Bowling Green","PROVIDER  ADDRESS":"165 Natchez Trace, Ste 205","PROVIDER ZIP 5 CD":42103,"PROVIDER ZIP 4 CD":7947,"PROVIDER PHONE NUM":2702822024,"PROVIDER PHONE EXT":2037,"PROGRAM YEAR":2011},"geometry":{"type":"Point","coordinates":[-85.930093,36.991021]}},{"type":"Feature","id":"5132dd6aa288f42e67352e1e","properties":{"_id":"5132dd6aa288f42e67352e1e","PROVIDER NPI":1912003781,"PROVIDER NAME":"DEITCH, STEVEN","PROVIDER STATE":"Kentucky","PROVIDER CITY":"Ashland","PROVIDER  ADDRESS":"617 23rd St","PROVIDER ZIP 5 CD":41101,"PROVIDER ZIP 4 CD":2880,"PROVIDER PHONE NUM":6064083794,"PROVIDER PHONE EXT":"","PROGRAM YEAR":2011},"geometry":{"type":"Point","coordinates":[-82.632964,38.471215]}},{"type":"Feature","id":"5132dd6aa288f42e67352e1f","properties":{"_id":"5132dd6aa288f42e67352e1f","PROVIDER NPI":1730155094,"PROVIDER NAME":"DeLair, Sean","PROVIDER STATE":"Kentucky","PROVIDER CITY":"Somerset","PROVIDER  ADDRESS":"100 Hardin Ln, Suite C","PROVIDER ZIP 5 CD":42503,"PROVIDER ZIP 4 CD":3812,"PROVIDER PHONE NUM":6066795679,"PROVIDER PHONE EXT":"","PROGRAM YEAR":2011},"geometry":{"type":"Point","coordinates":[-84.657026,37.119614]}},{"type":"Feature","id":"5132dd6aa288f42e67352e20","properties":{"_id":"5132dd6aa288f42e67352e20","PROVIDER NPI":1942207295,"PROVIDER NAME":"DELOMAS, MARK","PROVIDER STATE":"Kentucky","PROVIDER CITY":"Lexington","PROVIDER  ADDRESS":"141 N Eagle Creek Dr, Suite 200","PROVIDER ZIP 5 CD":40509,"PROVIDER ZIP 4 CD":1827,"PROVIDER PHONE NUM":8595431000,"PROVIDER PHONE EXT":"","PROGRAM YEAR":2011},"geometry":{"type":"Point","coordinates":[-84.441354,37.999633]}},{"type":"Feature","id":"5132dd6aa288f42e67352e21","properties":{"_id":"5132dd6aa288f42e67352e21","PROVIDER NPI":1942284377,"PROVIDER NAME":"DeMaria, Anthony","PROVIDER STATE":"Kentucky","PROVIDER CITY":"Richmond","PROVIDER  ADDRESS":"322 Highland Park Dr, Suite 9","PROVIDER ZIP 5 CD":40475,"PROVIDER ZIP 4 CD":3487,"PROVIDER PHONE NUM":8596233550,"PROVIDER PHONE EXT":"","PROGRAM YEAR":2011},"geometry":{"type":"Point","coordinates":[-84.334694,37.779341]}},{"type":"Feature","id":"5132dd6aa288f42e67352e22","properties":{"_id":"5132dd6aa288f42e67352e22","PROVIDER NPI":1548290596,"PROVIDER NAME":"Derderian, Harry","PROVIDER STATE":"Kentucky","PROVIDER CITY":"Lexington","PROVIDER  ADDRESS":"100 N Eagle Creek Dr","PROVIDER ZIP 5 CD":40509,"PROVIDER ZIP 4 CD":1805,"PROVIDER PHONE NUM":8592585225,"PROVIDER PHONE EXT":"","PROGRAM YEAR":2011},"geometry":{"type":"Point","coordinates":[-84.442655,37.998213]}},{"type":"Feature","id":"5132dd6aa288f42e67352e23","properties":{"_id":"5132dd6aa288f42e67352e23","PROVIDER NPI":1831180769,"PROVIDER NAME":"Desai, Neel","PROVIDER STATE":"Kentucky","PROVIDER CITY":"Edgewood","PROVIDER  ADDRESS":"334 Thomas More Parkway, Suite 200","PROVIDER ZIP 5 CD":41017,"PROVIDER ZIP 4 CD":3496,"PROVIDER PHONE NUM":8593445555,"PROVIDER PHONE EXT":"","PROGRAM YEAR":2011},"geometry":{"type":"Point","coordinates":[-84.574242,39.004733]}},{"type":"Feature","id":"5132dd6aa288f42e67352e24","properties":{"_id":"5132dd6aa288f42e67352e24","PROVIDER NPI":1881608867,"PROVIDER NAME":"Detherage, James","PROVIDER STATE":"Kentucky","PROVIDER CITY":"Ashland","PROVIDER  ADDRESS":"2421 Winchester Ave","PROVIDER ZIP 5 CD":41101,"PROVIDER ZIP 4 CD":7835,"PROVIDER PHONE NUM":6063258485,"PROVIDER PHONE EXT":"","PROGRAM YEAR":2011},"geometry":{"type":"Point","coordinates":[-82.62898,38.47336]}},{"type":"Feature","id":"5132dd6aa288f42e67352e25","properties":{"_id":"5132dd6aa288f42e67352e25","PROVIDER NPI":1194711150,"PROVIDER NAME":"Dick, Barry","PROVIDER STATE":"Kentucky","PROVIDER CITY":"Edgewood","PROVIDER  ADDRESS":"580 South Loop Road, Ste 201","PROVIDER ZIP 5 CD":41017,"PROVIDER ZIP 4 CD":5412,"PROVIDER PHONE NUM":8593441600,"PROVIDER PHONE EXT":"","PROGRAM YEAR":2011},"geometry":{"type":"Point","coordinates":[-84.728149,39.074262]}},{"type":"Feature","id":"5132dd6aa288f42e67352e26","properties":{"_id":"5132dd6aa288f42e67352e26","PROVIDER NPI":1912050519,"PROVIDER NAME":"DICKEN, EVAN","PROVIDER STATE":"Kentucky","PROVIDER CITY":"Frankfort","PROVIDER  ADDRESS":"601 Versailles Rd","PROVIDER ZIP 5 CD":40601,"PROVIDER ZIP 4 CD":3857,"PROVIDER PHONE NUM":5026953946,"PROVIDER PHONE EXT":"","PROGRAM YEAR":2011},"geometry":{"type":"Point","coordinates":[-84.829439,38.196095]}},{"type":"Feature","id":"5132dd6aa288f42e67352e27","properties":{"_id":"5132dd6aa288f42e67352e27","PROVIDER NPI":1629286257,"PROVIDER NAME":"Didyk, Adam","PROVIDER STATE":"Kentucky","PROVIDER CITY":"Louisville","PROVIDER  ADDRESS":"10301 Champion Farms Dr","PROVIDER ZIP 5 CD":40241,"PROVIDER ZIP 4 CD":6129,"PROVIDER PHONE NUM":5024264228,"PROVIDER PHONE EXT":"","PROGRAM YEAR":2011},"geometry":{"type":"Point","coordinates":[-85.562383,38.29612]}},{"type":"Feature","id":"5132dd6aa288f42e67352e28","properties":{"_id":"5132dd6aa288f42e67352e28","PROVIDER NPI":1063611952,"PROVIDER NAME":"Didyk, Angela","PROVIDER STATE":"Kentucky","PROVIDER CITY":"Louisville","PROVIDER  ADDRESS":"10301 Champion Farms Dr","PROVIDER ZIP 5 CD":40241,"PROVIDER ZIP 4 CD":6129,"PROVIDER PHONE NUM":5024264228,"PROVIDER PHONE EXT":"","PROGRAM YEAR":2011},"geometry":{"type":"Point","coordinates":[-85.562383,38.29612]}},{"type":"Feature","id":"5132dd6aa288f42e67352e29","properties":{"_id":"5132dd6aa288f42e67352e29","PROVIDER NPI":1558468462,"PROVIDER NAME":"Dietz, Danielle","PROVIDER STATE":"Kentucky","PROVIDER CITY":"Georgetown","PROVIDER  ADDRESS":"1140 Lexington Road, Suite 203","PROVIDER ZIP 5 CD":40324,"PROVIDER ZIP 4 CD":"","PROVIDER PHONE NUM":5028674955,"PROVIDER PHONE EXT":"","PROGRAM YEAR":2011},"geometry":{"type":"Point","coordinates":[-84.563696,38.207022]}},{"type":"Feature","id":"5132dd6aa288f42e67352e2a","properties":{"_id":"5132dd6aa288f42e67352e2a","PROVIDER NPI":1700810074,"PROVIDER NAME":"Dineen, John","PROVIDER STATE":"Kentucky","PROVIDER CITY":"Lexington","PROVIDER  ADDRESS":"1221 S Broadway","PROVIDER ZIP 5 CD":40504,"PROVIDER ZIP 4 CD":2701,"PROVIDER PHONE NUM":8592584568,"PROVIDER PHONE EXT":"","PROGRAM YEAR":2011},"geometry":{"type":"Point","coordinates":[-84.521076,38.035227]}},{"type":"Feature","id":"5132dd6aa288f42e67352e2b","properties":{"_id":"5132dd6aa288f42e67352e2b","PROVIDER NPI":1417988742,"PROVIDER NAME":"Dixon, Kimberly","PROVIDER STATE":"Kentucky","PROVIDER CITY":"Lexington","PROVIDER  ADDRESS":"100 N Eagle Creek Dr","PROVIDER ZIP 5 CD":40509,"PROVIDER ZIP 4 CD":1805,"PROVIDER PHONE NUM":8592585140,"PROVIDER PHONE EXT":"","PROGRAM YEAR":2011},"geometry":{"type":"Point","coordinates":[-84.442655,37.998213]}},{"type":"Feature","id":"5132dd6aa288f42e67352e2c","properties":{"_id":"5132dd6aa288f42e67352e2c","PROVIDER NPI":1225026438,"PROVIDER NAME":"DIXON, TIMOTHY","PROVIDER STATE":"Kentucky","PROVIDER CITY":"Ashland","PROVIDER  ADDRESS":"336 29th St","PROVIDER ZIP 5 CD":41101,"PROVIDER ZIP 4 CD":1900,"PROVIDER PHONE NUM":6063244404,"PROVIDER PHONE EXT":"","PROGRAM YEAR":2011},"geometry":{"type":"Point","coordinates":[-82.623835,38.469791]}},{"type":"Feature","id":"5132dd6aa288f42e67352e2d","properties":{"_id":"5132dd6aa288f42e67352e2d","PROVIDER NPI":1154375897,"PROVIDER NAME":"DODDS, JAMES","PROVIDER STATE":"Kentucky","PROVIDER CITY":"Madisonville","PROVIDER  ADDRESS":"44 McCoy Avenue, Suite 442","PROVIDER ZIP 5 CD":42431,"PROVIDER ZIP 4 CD":2963,"PROVIDER PHONE NUM":2708246655,"PROVIDER PHONE EXT":"","PROGRAM YEAR":2011},"geometry":{"type":"Point","coordinates":[-87.477452,37.31744]}},{"type":"Feature","id":"5132dd6aa288f42e67352e2e","properties":{"_id":"5132dd6aa288f42e67352e2e","PROVIDER NPI":1710005087,"PROVIDER NAME":"Doerger, Joseph","PROVIDER STATE":"Kentucky","PROVIDER CITY":"EDGEWOOD","PROVIDER  ADDRESS":"580 SOUTH LOOP ROAD, SUITE 201","PROVIDER ZIP 5 CD":41017,"PROVIDER ZIP 4 CD":3415,"PROVIDER PHONE NUM":8593441600,"PROVIDER PHONE EXT":"","PROGRAM YEAR":2011},"geometry":{"type":"Point","coordinates":[-83.643005,38.253029]}},{"type":"Feature","id":"5132dd6aa288f42e67352e2f","properties":{"_id":"5132dd6aa288f42e67352e2f","PROVIDER NPI":1801826862,"PROVIDER NAME":"Dome, David","PROVIDER STATE":"Kentucky","PROVIDER CITY":"Lexington","PROVIDER  ADDRESS":"700 Bob O Link Dr","PROVIDER ZIP 5 CD":40504,"PROVIDER ZIP 4 CD":3756,"PROVIDER PHONE NUM":8592588575,"PROVIDER PHONE EXT":"","PROGRAM YEAR":2011},"geometry":{"type":"Point","coordinates":[-84.527699,38.032842]}},{"type":"Feature","id":"5132dd6aa288f42e67352e30","properties":{"_id":"5132dd6aa288f42e67352e30","PROVIDER NPI":1669438917,"PROVIDER NAME":"Dorsch, Curtis","PROVIDER STATE":"Kentucky","PROVIDER CITY":"Edgewood","PROVIDER  ADDRESS":"334 Thomas More Parkway, Suite 200","PROVIDER ZIP 5 CD":41017,"PROVIDER ZIP 4 CD":3496,"PROVIDER PHONE NUM":8593445555,"PROVIDER PHONE EXT":"","PROGRAM YEAR":2011},"geometry":{"type":"Point","coordinates":[-84.574242,39.004733]}},{"type":"Feature","id":"5132dd6aa288f42e67352e31","properties":{"_id":"5132dd6aa288f42e67352e31","PROVIDER NPI":1053416313,"PROVIDER NAME":"Douglas, Donald","PROVIDER STATE":"Kentucky","PROVIDER CITY":"Lexington","PROVIDER  ADDRESS":"101 Prosperous Place, Suite 300","PROVIDER ZIP 5 CD":40509,"PROVIDER ZIP 4 CD":9013,"PROVIDER PHONE NUM":8592713114,"PROVIDER PHONE EXT":"","PROGRAM YEAR":2011},"geometry":{"type":"Point","coordinates":[-84.444895,38.000278]}},{"type":"Feature","id":"5132dd6aa288f42e67352e32","properties":{"_id":"5132dd6aa288f42e67352e32","PROVIDER NPI":1295964468,"PROVIDER NAME":"Doyle, John","PROVIDER STATE":"Kentucky","PROVIDER CITY":"Flemingsburg","PROVIDER  ADDRESS":"732 Elizaville Road","PROVIDER ZIP 5 CD":41041,"PROVIDER ZIP 4 CD":"","PROVIDER PHONE NUM":6068492323,"PROVIDER PHONE EXT":201,"PROGRAM YEAR":2011},"geometry":{"type":"Point","coordinates":[-83.74999,38.420074]}},{"type":"Feature","id":"5132dd6aa288f42e67352e33","properties":{"_id":"5132dd6aa288f42e67352e33","PROVIDER NPI":1053370791,"PROVIDER NAME":"Dragan, Michael","PROVIDER STATE":"Kentucky","PROVIDER CITY":"Edgewood","PROVIDER  ADDRESS":"334 Thomas More Parkway, Suite 200","PROVIDER ZIP 5 CD":41017,"PROVIDER ZIP 4 CD":3496,"PROVIDER PHONE NUM":8593445555,"PROVIDER PHONE EXT":"","PROGRAM YEAR":2011},"geometry":{"type":"Point","coordinates":[-84.574242,39.004733]}},{"type":"Feature","id":"5132dd6aa288f42e67352e34","properties":{"_id":"5132dd6aa288f42e67352e34","PROVIDER NPI":1528151685,"PROVIDER NAME":"Drake, Robert","PROVIDER STATE":"Kentucky","PROVIDER CITY":"Somerset","PROVIDER  ADDRESS":"79 Imaging Dr","PROVIDER ZIP 5 CD":42503,"PROVIDER ZIP 4 CD":1794,"PROVIDER PHONE NUM":6066791449,"PROVIDER PHONE EXT":"","PROGRAM YEAR":2011},"geometry":{"type":"Point","coordinates":[-84.524653,37.155209]}},{"type":"Feature","id":"5132dd6aa288f42e67352e35","properties":{"_id":"5132dd6aa288f42e67352e35","PROVIDER NPI":1982603353,"PROVIDER NAME":"Dubal, Saroj","PROVIDER STATE":"Kentucky","PROVIDER CITY":"Lexington","PROVIDER  ADDRESS":"101 Prosperous Place, Suite 300","PROVIDER ZIP 5 CD":40509,"PROVIDER ZIP 4 CD":2279,"PROVIDER PHONE NUM":8592713114,"PROVIDER PHONE EXT":"","PROGRAM YEAR":2011},"geometry":{"type":"Point","coordinates":[-84.444895,38.000278]}},{"type":"Feature","id":"5132dd6aa288f42e67352e36","properties":{"_id":"5132dd6aa288f42e67352e36","PROVIDER NPI":1932104403,"PROVIDER NAME":"Dubocq, David","PROVIDER STATE":"Kentucky","PROVIDER CITY":"Lexington","PROVIDER  ADDRESS":"1775 Alysheba Way, Ste 201","PROVIDER ZIP 5 CD":40509,"PROVIDER ZIP 4 CD":2279,"PROVIDER PHONE NUM":8599772123,"PROVIDER PHONE EXT":"","PROGRAM YEAR":2011},"geometry":{"type":"Point","coordinates":[-84.422045,38.016438]}},{"type":"Feature","id":"5132dd6aa288f42e67352e37","properties":{"_id":"5132dd6aa288f42e67352e37","PROVIDER NPI":1598725020,"PROVIDER NAME":"Duncan, James","PROVIDER STATE":"Kentucky","PROVIDER CITY":"Danville","PROVIDER  ADDRESS":"478 Whirlaway Dr, ste 100","PROVIDER ZIP 5 CD":40422,"PROVIDER ZIP 4 CD":9037,"PROVIDER PHONE NUM":8592366613,"PROVIDER PHONE EXT":103,"PROGRAM YEAR":2011},"geometry":{"type":"Point","coordinates":[-84.801987,37.655035]}},{"type":"Feature","id":"5132dd6aa288f42e67352e38","properties":{"_id":"5132dd6aa288f42e67352e38","PROVIDER NPI":1932120094,"PROVIDER NAME":"Duplechan, Lester","PROVIDER STATE":"Kentucky","PROVIDER CITY":"Crestview Hills","PROVIDER  ADDRESS":"500 Thomas More Pkwy, Ste 2","PROVIDER ZIP 5 CD":41017,"PROVIDER ZIP 4 CD":3471,"PROVIDER PHONE NUM":5138715571,"PROVIDER PHONE EXT":"","PROGRAM YEAR":2011},"geometry":{"type":"Point","coordinates":[-84.571565,39.001281]}},{"type":"Feature","id":"5132dd6aa288f42e67352e39","properties":{"_id":"5132dd6aa288f42e67352e39","PROVIDER NPI":1235222704,"PROVIDER NAME":"Dutton, Margaret.","PROVIDER STATE":"Kentucky","PROVIDER CITY":"Louisville","PROVIDER  ADDRESS":"3900 Kresge Way Ste 30","PROVIDER ZIP 5 CD":40207,"PROVIDER ZIP 4 CD":4680,"PROVIDER PHONE NUM":5028918700,"PROVIDER PHONE EXT":"","PROGRAM YEAR":2011},"geometry":{"type":"Point","coordinates":[-85.637786,38.239701]}},{"type":"Feature","id":"5132dd6aa288f42e67352e3a","properties":{"_id":"5132dd6aa288f42e67352e3a","PROVIDER NPI":1699772335,"PROVIDER NAME":"Eade, Joel","PROVIDER STATE":"Kentucky","PROVIDER CITY":"Campbellsville","PROVIDER  ADDRESS":"95 Kingswood Dr","PROVIDER ZIP 5 CD":42718,"PROVIDER ZIP 4 CD":9604,"PROVIDER PHONE NUM":2704653812,"PROVIDER PHONE EXT":"","PROGRAM YEAR":2011},"geometry":{"type":"Point","coordinates":[-85.339185,37.364792]}},{"type":"Feature","id":"5132dd6aa288f42e67352e3b","properties":{"_id":"5132dd6aa288f42e67352e3b","PROVIDER NPI":1447284724,"PROVIDER NAME":"Eden, Michael","PROVIDER STATE":"Kentucky","PROVIDER CITY":"Lexington","PROVIDER  ADDRESS":"100 N Eagle Creek Dr","PROVIDER ZIP 5 CD":40509,"PROVIDER ZIP 4 CD":1805,"PROVIDER PHONE NUM":8592585102,"PROVIDER PHONE EXT":"","PROGRAM YEAR":2011},"geometry":{"type":"Point","coordinates":[-84.442655,37.998213]}},{"type":"Feature","id":"5132dd6aa288f42e67352e3c","properties":{"_id":"5132dd6aa288f42e67352e3c","PROVIDER NPI":1679540702,"PROVIDER NAME":"Edmunds, Mark","PROVIDER STATE":"Kentucky","PROVIDER CITY":"Hopkinsville","PROVIDER  ADDRESS":"1610 S Main St","PROVIDER ZIP 5 CD":42240,"PROVIDER ZIP 4 CD":1974,"PROVIDER PHONE NUM":2708851203,"PROVIDER PHONE EXT":"","PROGRAM YEAR":2011},"geometry":{"type":"Point","coordinates":[-87.491506,36.861702]}},{"type":"Feature","id":"5132dd6aa288f42e67352e3d","properties":{"_id":"5132dd6aa288f42e67352e3d","PROVIDER NPI":1871567263,"PROVIDER NAME":"Egan, Rita","PROVIDER STATE":"Kentucky","PROVIDER CITY":"Lexington","PROVIDER  ADDRESS":"330 Waller Ave, Suite 100","PROVIDER ZIP 5 CD":40504,"PROVIDER ZIP 4 CD":2931,"PROVIDER PHONE NUM":8592547000,"PROVIDER PHONE EXT":"","PROGRAM YEAR":2011},"geometry":{"type":"Point","coordinates":[-84.517406,38.029574]}},{"type":"Feature","id":"5132dd6aa288f42e67352e3e","properties":{"_id":"5132dd6aa288f42e67352e3e","PROVIDER NPI":1750375135,"PROVIDER NAME":"Egel, James","PROVIDER STATE":"Kentucky","PROVIDER CITY":"Ashland","PROVIDER  ADDRESS":"432 16th St, Suite B","PROVIDER ZIP 5 CD":41101,"PROVIDER ZIP 4 CD":7693,"PROVIDER PHONE NUM":6064089013,"PROVIDER PHONE EXT":"","PROGRAM YEAR":2011},"geometry":{"type":"Point","coordinates":[-82.640489,38.477368]}},{"type":"Feature","id":"5132dd6aa288f42e67352e3f","properties":{"_id":"5132dd6aa288f42e67352e3f","PROVIDER NPI":1518960483,"PROVIDER NAME":"Eggers, David","PROVIDER STATE":"Kentucky","PROVIDER CITY":"Owensboro","PROVIDER  ADDRESS":"815 E Parrish Ave, Ste 320","PROVIDER ZIP 5 CD":42303,"PROVIDER ZIP 4 CD":3222,"PROVIDER PHONE NUM":2706881770,"PROVIDER PHONE EXT":"","PROGRAM YEAR":2011},"geometry":{"type":"Point","coordinates":[-87.102115,37.765212]}},{"type":"Feature","id":"5132dd6aa288f42e67352e40","properties":{"_id":"5132dd6aa288f42e67352e40","PROVIDER NPI":1053353607,"PROVIDER NAME":"Eichenberger, Rhonda","PROVIDER STATE":"Kentucky","PROVIDER CITY":"Louisville","PROVIDER  ADDRESS":"110 N Hubbards Ln","PROVIDER ZIP 5 CD":40207,"PROVIDER ZIP 4 CD":3903,"PROVIDER PHONE NUM":5028999771,"PROVIDER PHONE EXT":"","PROGRAM YEAR":2011},"geometry":{"type":"Point","coordinates":[-85.640035,38.251913]}},{"type":"Feature","id":"5132dd6aa288f42e67352e41","properties":{"_id":"5132dd6aa288f42e67352e41","PROVIDER NPI":1841389822,"PROVIDER NAME":"Eilerman, Bradley","PROVIDER STATE":"Kentucky","PROVIDER CITY":"EDGEWOOD","PROVIDER  ADDRESS":"334 THOMAS MORE PARKWAY, SUITE 200","PROVIDER ZIP 5 CD":41017,"PROVIDER ZIP 4 CD":3496,"PROVIDER PHONE NUM":8593445555,"PROVIDER PHONE EXT":"","PROGRAM YEAR":2011},"geometry":{"type":"Point","coordinates":[-84.574242,39.004733]}},{"type":"Feature","id":"5132dd6aa288f42e67352e42","properties":{"_id":"5132dd6aa288f42e67352e42","PROVIDER NPI":1336469576,"PROVIDER NAME":"Ekens, Julie","PROVIDER STATE":"Kentucky","PROVIDER CITY":"LOUISVILLE","PROVIDER  ADDRESS":"4004 DUPONT CIRCLE, SUITE 230","PROVIDER ZIP 5 CD":40207,"PROVIDER ZIP 4 CD":4819,"PROVIDER PHONE NUM":5028931333,"PROVIDER PHONE EXT":"","PROGRAM YEAR":2011},"geometry":{"type":"Point","coordinates":[-85.631879,38.232807]}},{"type":"Feature","id":"5132dd6aa288f42e67352e43","properties":{"_id":"5132dd6aa288f42e67352e43","PROVIDER NPI":1609817394,"PROVIDER NAME":"Eldridge, John","PROVIDER STATE":"Kentucky","PROVIDER CITY":"EDGEWOOD","PROVIDER  ADDRESS":"580 SOUTH LOOP ROAD, SUITE 201","PROVIDER ZIP 5 CD":41017,"PROVIDER ZIP 4 CD":3415,"PROVIDER PHONE NUM":8593441600,"PROVIDER PHONE EXT":"","PROGRAM YEAR":2011},"geometry":{"type":"Point","coordinates":[-83.643005,38.253029]}},{"type":"Feature","id":"5132dd6aa288f42e67352e44","properties":{"_id":"5132dd6aa288f42e67352e44","PROVIDER NPI":1235343286,"PROVIDER NAME":"Elkins-Smith, Melinda","PROVIDER STATE":"Kentucky","PROVIDER CITY":"Ashland","PROVIDER  ADDRESS":"2028 Winchester Ave","PROVIDER ZIP 5 CD":41101,"PROVIDER ZIP 4 CD":7744,"PROVIDER PHONE NUM":6063269001,"PROVIDER PHONE EXT":"","PROGRAM YEAR":2011},"geometry":{"type":"Point","coordinates":[-82.634833,38.47616]}},{"type":"Feature","id":"5132dd6aa288f42e67352e45","properties":{"_id":"5132dd6aa288f42e67352e45","PROVIDER NPI":1174597934,"PROVIDER NAME":"Ellis, Joe","PROVIDER STATE":"Kentucky","PROVIDER CITY":"Benton","PROVIDER  ADDRESS":"109 W 5th St","PROVIDER ZIP 5 CD":42025,"PROVIDER ZIP 4 CD":1123,"PROVIDER PHONE NUM":2705277421,"PROVIDER PHONE EXT":"","PROGRAM YEAR":2011},"geometry":{"type":"Point","coordinates":[-88.356363,36.865659]}},{"type":"Feature","id":"5132dd6aa288f42e67352e46","properties":{"_id":"5132dd6aa288f42e67352e46","PROVIDER NPI":1083655047,"PROVIDER NAME":"Emanuele, Tullio","PROVIDER STATE":"Kentucky","PROVIDER CITY":"Bowling Green","PROVIDER  ADDRESS":"825 Second Ave., Ste B1","PROVIDER ZIP 5 CD":42101,"PROVIDER ZIP 4 CD":"","PROVIDER PHONE NUM":2707820151,"PROVIDER PHONE EXT":"","PROGRAM YEAR":2011},"geometry":{"type":"Point","coordinates":[-86.428393,36.995794]}},{"type":"Feature","id":"5132dd6aa288f42e67352e47","properties":{"_id":"5132dd6aa288f42e67352e47","PROVIDER NPI":1497792584,"PROVIDER NAME":"Engel, Jeremy","PROVIDER STATE":"Kentucky","PROVIDER CITY":"EDGEWOOD","PROVIDER  ADDRESS":"334 THOMAS MORE PARKWAY, SUITE 200","PROVIDER ZIP 5 CD":41017,"PROVIDER ZIP 4 CD":3496,"PROVIDER PHONE NUM":8593445555,"PROVIDER PHONE EXT":"","PROGRAM YEAR":2011},"geometry":{"type":"Point","coordinates":[-84.574242,39.004733]}},{"type":"Feature","id":"5132dd6aa288f42e67352e48","properties":{"_id":"5132dd6aa288f42e67352e48","PROVIDER NPI":1649269101,"PROVIDER NAME":"Epling, Christopher","PROVIDER STATE":"Kentucky","PROVIDER CITY":"Ashland","PROVIDER  ADDRESS":"613 23rd St, Ste 230","PROVIDER ZIP 5 CD":41101,"PROVIDER ZIP 4 CD":2876,"PROVIDER PHONE NUM":6063244745,"PROVIDER PHONE EXT":"","PROGRAM YEAR":2011},"geometry":{"type":"Point","coordinates":[-82.63294,38.471252]}},{"type":"Feature","id":"5132dd6aa288f42e67352e49","properties":{"_id":"5132dd6aa288f42e67352e49","PROVIDER NPI":1689736506,"PROVIDER NAME":"Ernst, James","PROVIDER STATE":"Kentucky","PROVIDER CITY":"Alexandria","PROVIDER  ADDRESS":"7517 Alexandria Pike","PROVIDER ZIP 5 CD":41001,"PROVIDER ZIP 4 CD":1051,"PROVIDER PHONE NUM":8596357600,"PROVIDER PHONE EXT":"","PROGRAM YEAR":2011},"geometry":{"type":"Point","coordinates":[-84.39425,38.979903]}},{"type":"Feature","id":"5132dd6aa288f42e67352e4a","properties":{"_id":"5132dd6aa288f42e67352e4a","PROVIDER NPI":1851511158,"PROVIDER NAME":"Ernst, Jennifer","PROVIDER STATE":"Kentucky","PROVIDER CITY":"EDGEWOOD","PROVIDER  ADDRESS":"334 THOMAS MORE PARKWAY, Suite 200","PROVIDER ZIP 5 CD":41017,"PROVIDER ZIP 4 CD":3496,"PROVIDER PHONE NUM":8593445555,"PROVIDER PHONE EXT":"","PROGRAM YEAR":2011},"geometry":{"type":"Point","coordinates":[-84.574242,39.004733]}},{"type":"Feature","id":"5132dd6aa288f42e67352e4b","properties":{"_id":"5132dd6aa288f42e67352e4b","PROVIDER NPI":1952389777,"PROVIDER NAME":"Estus, Janice","PROVIDER STATE":"Kentucky","PROVIDER CITY":"Lexington","PROVIDER  ADDRESS":"1055 Dave Run Rd","PROVIDER ZIP 5 CD":40502,"PROVIDER ZIP 4 CD":"","PROVIDER PHONE NUM":8592694668,"PROVIDER PHONE EXT":"","PROGRAM YEAR":2011},"geometry":{"type":"Point","coordinates":[-84.495183,37.995486]}},{"type":"Feature","id":"5132dd6aa288f42e67352e4c","properties":{"_id":"5132dd6aa288f42e67352e4c","PROVIDER NPI":1376501700,"PROVIDER NAME":"Evans, Tamea","PROVIDER STATE":"Kentucky","PROVIDER CITY":"Lexington","PROVIDER  ADDRESS":"1401 Harrodsburg Rd, Suite B-280","PROVIDER ZIP 5 CD":40504,"PROVIDER ZIP 4 CD":3751,"PROVIDER PHONE NUM":8599778855,"PROVIDER PHONE EXT":"","PROGRAM YEAR":2011},"geometry":{"type":"Point","coordinates":[-84.523614,38.033439]}},{"type":"Feature","id":"5132dd6aa288f42e67352e4d","properties":{"_id":"5132dd6aa288f42e67352e4d","PROVIDER NPI":1447367156,"PROVIDER NAME":"Farrell, James","PROVIDER STATE":"Kentucky","PROVIDER CITY":"Crestview Hills","PROVIDER  ADDRESS":"320 Thomas More Pkwy","PROVIDER ZIP 5 CD":41017,"PROVIDER ZIP 4 CD":3410,"PROVIDER PHONE NUM":8593414266,"PROVIDER PHONE EXT":"","PROGRAM YEAR":2011},"geometry":{"type":"Point","coordinates":[-84.570361,39.022943]}},{"type":"Feature","id":"5132dd6aa288f42e67352e4e","properties":{"_id":"5132dd6aa288f42e67352e4e","PROVIDER NPI":1538162409,"PROVIDER NAME":"Farrer, Ann","PROVIDER STATE":"Kentucky","PROVIDER CITY":"Winchester","PROVIDER  ADDRESS":"172 Pedro Way","PROVIDER ZIP 5 CD":40391,"PROVIDER ZIP 4 CD":8354,"PROVIDER PHONE NUM":8597457890,"PROVIDER PHONE EXT":"","PROGRAM YEAR":2011},"geometry":{"type":"Point","coordinates":[-84.212428,37.988906]}},{"type":"Feature","id":"5132dd6aa288f42e67352e4f","properties":{"_id":"5132dd6aa288f42e67352e4f","PROVIDER NPI":1417904293,"PROVIDER NAME":"Fawns, Tina","PROVIDER STATE":"Kentucky","PROVIDER CITY":"Richmond","PROVIDER  ADDRESS":"858 Eastern Byp","PROVIDER ZIP 5 CD":40475,"PROVIDER ZIP 4 CD":2512,"PROVIDER PHONE NUM":8596260072,"PROVIDER PHONE EXT":"","PROGRAM YEAR":2011},"geometry":{"type":"Point","coordinates":[-84.273025,37.734021]}},{"type":"Feature","id":"5132dd6aa288f42e67352e50","properties":{"_id":"5132dd6aa288f42e67352e50","PROVIDER NPI":1679504104,"PROVIDER NAME":"Feng, Qi","PROVIDER STATE":"Kentucky","PROVIDER CITY":"Lexington","PROVIDER  ADDRESS":"100 N Eagle Creek Dr","PROVIDER ZIP 5 CD":40509,"PROVIDER ZIP 4 CD":1805,"PROVIDER PHONE NUM":8592585353,"PROVIDER PHONE EXT":"","PROGRAM YEAR":2011},"geometry":{"type":"Point","coordinates":[-84.442655,37.998213]}},{"type":"Feature","id":"5132dd6aa288f42e67352e51","properties":{"_id":"5132dd6aa288f42e67352e51","PROVIDER NPI":1831292309,"PROVIDER NAME":"Ferguson, Thomas","PROVIDER STATE":"Kentucky","PROVIDER CITY":"Lexington","PROVIDER  ADDRESS":"1401Harrodsburg Rd, C335","PROVIDER ZIP 5 CD":40504,"PROVIDER ZIP 4 CD":"","PROVIDER PHONE NUM":8592765355,"PROVIDER PHONE EXT":"","PROGRAM YEAR":2011},"geometry":{"type":"Point","coordinates":[-84.358171,38.033796]}},{"type":"Feature","id":"5132dd6aa288f42e67352e52","properties":{"_id":"5132dd6aa288f42e67352e52","PROVIDER NPI":1891770301,"PROVIDER NAME":"Fibel, Debbie","PROVIDER STATE":"Kentucky","PROVIDER CITY":"Lexington","PROVIDER  ADDRESS":"1451 Harrodsburg Rd, Suite D-502","PROVIDER ZIP 5 CD":40504,"PROVIDER ZIP 4 CD":3758,"PROVIDER PHONE NUM":8592778560,"PROVIDER PHONE EXT":"","PROGRAM YEAR":2011},"geometry":{"type":"Point","coordinates":[-84.531416,38.044902]}},{"type":"Feature","id":"5132dd6aa288f42e67352e53","properties":{"_id":"5132dd6aa288f42e67352e53","PROVIDER NPI":1659319721,"PROVIDER NAME":"Fine, Bradford","PROVIDER STATE":"Kentucky","PROVIDER CITY":"Lexington","PROVIDER  ADDRESS":"1401 Harrodsburg Rd, C115","PROVIDER ZIP 5 CD":40504,"PROVIDER ZIP 4 CD":3751,"PROVIDER PHONE NUM":8592788855,"PROVIDER PHONE EXT":"","PROGRAM YEAR":2011},"geometry":{"type":"Point","coordinates":[-84.523614,38.033439]}},{"type":"Feature","id":"5132dd6aa288f42e67352e54","properties":{"_id":"5132dd6aa288f42e67352e54","PROVIDER NPI":1982601399,"PROVIDER NAME":"Fine, Joseph","PROVIDER STATE":"Kentucky","PROVIDER CITY":"Lexington","PROVIDER  ADDRESS":"1221 S Broadway, Department of Surgery","PROVIDER ZIP 5 CD":40504,"PROVIDER ZIP 4 CD":2701,"PROVIDER PHONE NUM":8592584271,"PROVIDER PHONE EXT":"","PROGRAM YEAR":2011},"geometry":{"type":"Point","coordinates":[-84.521076,38.035227]}},{"type":"Feature","id":"5132dd6aa288f42e67352e55","properties":{"_id":"5132dd6aa288f42e67352e55","PROVIDER NPI":1740284348,"PROVIDER NAME":"FLEENOR-FORD, ANITA","PROVIDER STATE":"Kentucky","PROVIDER CITY":"Paducah","PROVIDER  ADDRESS":"2601 Kentucky Ave, Suite 404","PROVIDER ZIP 5 CD":42003,"PROVIDER ZIP 4 CD":3817,"PROVIDER PHONE NUM":2704448477,"PROVIDER PHONE EXT":107,"PROGRAM YEAR":2011},"geometry":{"type":"Point","coordinates":[-88.514816,36.973233]}},{"type":"Feature","id":"5132dd6aa288f42e67352e56","properties":{"_id":"5132dd6aa288f42e67352e56","PROVIDER NPI":1063476216,"PROVIDER NAME":"Fletcher, Michael","PROVIDER STATE":"Kentucky","PROVIDER CITY":"Crestview Hills","PROVIDER  ADDRESS":"340 Thomas More Pkwy, STE 260","PROVIDER ZIP 5 CD":41017,"PROVIDER ZIP 4 CD":5100,"PROVIDER PHONE NUM":8599570700,"PROVIDER PHONE EXT":"","PROGRAM YEAR":2011},"geometry":{"type":"Point","coordinates":[-84.57,39.023078]}},{"type":"Feature","id":"5132dd6aa288f42e67352e57","properties":{"_id":"5132dd6aa288f42e67352e57","PROVIDER NPI":1750316444,"PROVIDER NAME":"Floyd, Richard","PROVIDER STATE":"Kentucky","PROVIDER CITY":"Lexington","PROVIDER  ADDRESS":"1401 Harrodsburg Rd, Suite A-220","PROVIDER ZIP 5 CD":40504,"PROVIDER ZIP 4 CD":3751,"PROVIDER PHONE NUM":8592586769,"PROVIDER PHONE EXT":"","PROGRAM YEAR":2011},"geometry":{"type":"Point","coordinates":[-84.531416,38.044902]}},{"type":"Feature","id":"5132dd6aa288f42e67352e58","properties":{"_id":"5132dd6aa288f42e67352e58","PROVIDER NPI":1134155617,"PROVIDER NAME":"Fluskey, Robert","PROVIDER STATE":"Kentucky","PROVIDER CITY":"Morehead","PROVIDER  ADDRESS":"547A W Main St, PO Box 992","PROVIDER ZIP 5 CD":40351,"PROVIDER ZIP 4 CD":1539,"PROVIDER PHONE NUM":6067807400,"PROVIDER PHONE EXT":"","PROGRAM YEAR":2011},"geometry":{"type":"Point","coordinates":[-83.42039,38.210471]}},{"type":"Feature","id":"5132dd6aa288f42e67352e59","properties":{"_id":"5132dd6aa288f42e67352e59","PROVIDER NPI":1952408676,"PROVIDER NAME":"Flynn, Ronald","PROVIDER STATE":"Kentucky","PROVIDER CITY":"Shepherdsville","PROVIDER  ADDRESS":"1451 Highway 44 E","PROVIDER ZIP 5 CD":40165,"PROVIDER ZIP 4 CD":5128,"PROVIDER PHONE NUM":5029555328,"PROVIDER PHONE EXT":"","PROGRAM YEAR":2011},"geometry":{"type":"Point","coordinates":[-85.630932,38.02073]}},{"type":"Feature","id":"5132dd6aa288f42e67352e5a","properties":{"_id":"5132dd6aa288f42e67352e5a","PROVIDER NPI":1396747846,"PROVIDER NAME":"Ford, Halden","PROVIDER STATE":"Kentucky","PROVIDER CITY":"Paducah","PROVIDER  ADDRESS":"2601 Kentucky Ave, Suite 402","PROVIDER ZIP 5 CD":42003,"PROVIDER ZIP 4 CD":3817,"PROVIDER PHONE NUM":2704448477,"PROVIDER PHONE EXT":107,"PROGRAM YEAR":2011},"geometry":{"type":"Point","coordinates":[-88.514816,36.973233]}},{"type":"Feature","id":"5132dd6aa288f42e67352e5b","properties":{"_id":"5132dd6aa288f42e67352e5b","PROVIDER NPI":1801849435,"PROVIDER NAME":"Ford, Timothy","PROVIDER STATE":"Kentucky","PROVIDER CITY":"Louisville","PROVIDER  ADDRESS":"142 Chenoweth Ln","PROVIDER ZIP 5 CD":40207,"PROVIDER ZIP 4 CD":2651,"PROVIDER PHONE NUM":5028971616,"PROVIDER PHONE EXT":"","PROGRAM YEAR":2011},"geometry":{"type":"Point","coordinates":[-85.657396,38.255163]}},{"type":"Feature","id":"5132dd6aa288f42e67352e5c","properties":{"_id":"5132dd6aa288f42e67352e5c","PROVIDER NPI":1467458083,"PROVIDER NAME":"Forwith, Keith","PROVIDER STATE":"Kentucky","PROVIDER CITY":"Louisville","PROVIDER  ADDRESS":"4004 DuPont Cir, Ste 220","PROVIDER ZIP 5 CD":40207,"PROVIDER ZIP 4 CD":4819,"PROVIDER PHONE NUM":5028930159,"PROVIDER PHONE EXT":"","PROGRAM YEAR":2011},"geometry":{"type":"Point","coordinates":[-85.651225,38.283425]}},{"type":"Feature","id":"5132dd6aa288f42e67352e5d","properties":{"_id":"5132dd6aa288f42e67352e5d","PROVIDER NPI":1801891353,"PROVIDER NAME":"Foxx, William","PROVIDER STATE":"Kentucky","PROVIDER CITY":"Lexington","PROVIDER  ADDRESS":"1775 Alysheba Way, Ste 201","PROVIDER ZIP 5 CD":40509,"PROVIDER ZIP 4 CD":2279,"PROVIDER PHONE NUM":8599772123,"PROVIDER PHONE EXT":"","PROGRAM YEAR":2011},"geometry":{"type":"Point","coordinates":[-84.422045,38.016438]}},{"type":"Feature","id":"5132dd6aa288f42e67352e5e","properties":{"_id":"5132dd6aa288f42e67352e5e","PROVIDER NPI":1508878349,"PROVIDER NAME":"Francis, James","PROVIDER STATE":"Kentucky","PROVIDER CITY":"Lexington","PROVIDER  ADDRESS":"1401 Harrodsburg Rd, C-335","PROVIDER ZIP 5 CD":40504,"PROVIDER ZIP 4 CD":3751,"PROVIDER PHONE NUM":8592765355,"PROVIDER PHONE EXT":"","PROGRAM YEAR":2011},"geometry":{"type":"Point","coordinates":[-84.523614,38.033439]}},{"type":"Feature","id":"5132dd6aa288f42e67352e5f","properties":{"_id":"5132dd6aa288f42e67352e5f","PROVIDER NPI":1467655696,"PROVIDER NAME":"Freels, Nicole","PROVIDER STATE":"Kentucky","PROVIDER CITY":"Lexington","PROVIDER  ADDRESS":"216 Fountain Ct, Suite 160","PROVIDER ZIP 5 CD":40509,"PROVIDER ZIP 4 CD":2511,"PROVIDER PHONE NUM":8592641141,"PROVIDER PHONE EXT":"","PROGRAM YEAR":2011},"geometry":{"type":"Point","coordinates":[-84.438543,38.003359]}},