[{"type":"Feature","id":"5132dd79a288f42e6735cc84","properties":{"_id":"5132dd79a288f42e6735cc84","PROVIDER NPI":1326032731,"PROVIDER NAME":"Abbas, Syed","PROVIDER STATE":"Oklahoma","PROVIDER CITY":"Oklahoma City","PROVIDER  ADDRESS":"5701 SE 74th St, Suite H","PROVIDER ZIP 5 CD":73135,"PROVIDER ZIP 4 CD":1106,"PROVIDER PHONE NUM":4057333900,"PROVIDER PHONE EXT":"","PROGRAM YEAR":2011},"geometry":{"type":"Point","coordinates":[-97.423369,35.392137]}},{"type":"Feature","id":"5132dd79a288f42e6735cc85","properties":{"_id":"5132dd79a288f42e6735cc85","PROVIDER NPI":1578674503,"PROVIDER NAME":"Adams, Andrea","PROVIDER STATE":"Oklahoma","PROVIDER CITY":"Sapulpa","PROVIDER  ADDRESS":"550 West 121st Street South","PROVIDER ZIP 5 CD":74066,"PROVIDER ZIP 4 CD":8677,"PROVIDER PHONE NUM":9182915200,"PROVIDER PHONE EXT":"","PROGRAM YEAR":2011},"geometry":{"type":"Point","coordinates":[-96.138992,35.98845]}},{"type":"Feature","id":"5132dd79a288f42e6735cc86","properties":{"_id":"5132dd79a288f42e6735cc86","PROVIDER NPI":1487755898,"PROVIDER NAME":"Adams, Daniel","PROVIDER STATE":"Oklahoma","PROVIDER CITY":"Stillwater","PROVIDER  ADDRESS":"2123 W 6th Ave","PROVIDER ZIP 5 CD":74074,"PROVIDER ZIP 4 CD":4136,"PROVIDER PHONE NUM":4053723724,"PROVIDER PHONE EXT":"","PROGRAM YEAR":2011},"geometry":{"type":"Point","coordinates":[-97.083817,36.115778]}},{"type":"Feature","id":"5132dd79a288f42e6735cc87","properties":{"_id":"5132dd79a288f42e6735cc87","PROVIDER NPI":1184889446,"PROVIDER NAME":"Adams, Jared","PROVIDER STATE":"Oklahoma","PROVIDER CITY":"Cushing","PROVIDER  ADDRESS":"1030 E. Cherry, Suite 200","PROVIDER ZIP 5 CD":74023,"PROVIDER ZIP 4 CD":4102,"PROVIDER PHONE NUM":9182250616,"PROVIDER PHONE EXT":"","PROGRAM YEAR":2011},"geometry":{"type":"Point","coordinates":[-96.758176,35.978994]}},{"type":"Feature","id":"5132dd79a288f42e6735cc88","properties":{"_id":"5132dd79a288f42e6735cc88","PROVIDER NPI":1407840689,"PROVIDER NAME":"Adamson, Philip","PROVIDER STATE":"Oklahoma","PROVIDER CITY":"Oklahoma City","PROVIDER  ADDRESS":"4050 W Memorial Rd","PROVIDER ZIP 5 CD":73120,"PROVIDER ZIP 4 CD":8382,"PROVIDER PHONE NUM":4056083800,"PROVIDER PHONE EXT":"","PROGRAM YEAR":2011},"geometry":{"type":"Point","coordinates":[-97.593522,35.608945]}},{"type":"Feature","id":"5132dd79a288f42e6735cc89","properties":{"_id":"5132dd79a288f42e6735cc89","PROVIDER NPI":1346349404,"PROVIDER NAME":"ADLER, STEPHEN","PROVIDER STATE":"Oklahoma","PROVIDER CITY":"OKLAHOMA CITY","PROVIDER  ADDRESS":"4140 W MEMORIAL ROAD, SUITE 208","PROVIDER ZIP 5 CD":73120,"PROVIDER ZIP 4 CD":"","PROVIDER PHONE NUM":4057554290,"PROVIDER PHONE EXT":"","PROGRAM YEAR":2011},"geometry":{"type":"Point","coordinates":[-97.5959,35.608956]}},{"type":"Feature","id":"5132dd79a288f42e6735cc8a","properties":{"_id":"5132dd79a288f42e6735cc8a","PROVIDER NPI":1902935729,"PROVIDER NAME":"Agrawal, Neil","PROVIDER STATE":"Oklahoma","PROVIDER CITY":"Tulsa","PROVIDER  ADDRESS":"1265 S Utica Ave, Suite 300","PROVIDER ZIP 5 CD":74104,"PROVIDER ZIP 4 CD":"","PROVIDER PHONE NUM":9185920999,"PROVIDER PHONE EXT":"","PROGRAM YEAR":2011},"geometry":{"type":"Point","coordinates":[-95.967087,36.144801]}},{"type":"Feature","id":"5132dd79a288f42e6735cc8b","properties":{"_id":"5132dd79a288f42e6735cc8b","PROVIDER NPI":1720036122,"PROVIDER NAME":"Agte, Suhas","PROVIDER STATE":"Oklahoma","PROVIDER CITY":"Lawton","PROVIDER  ADDRESS":"5108 W Gore Blvd, Suite 2","PROVIDER ZIP 5 CD":73505,"PROVIDER ZIP 4 CD":6025,"PROVIDER PHONE NUM":5803578330,"PROVIDER PHONE EXT":"","PROGRAM YEAR":2011},"geometry":{"type":"Point","coordinates":[-98.454506,34.608941]}},{"type":"Feature","id":"5132dd79a288f42e6735cc8c","properties":{"_id":"5132dd79a288f42e6735cc8c","PROVIDER NPI":1053460923,"PROVIDER NAME":"Ahmed, Mohammed","PROVIDER STATE":"Oklahoma","PROVIDER CITY":"Midwest City","PROVIDER  ADDRESS":"8121 National Ave, Suite 300","PROVIDER ZIP 5 CD":73110,"PROVIDER ZIP 4 CD":7530,"PROVIDER PHONE NUM":4057379820,"PROVIDER PHONE EXT":"","PROGRAM YEAR":2011},"geometry":{"type":"Point","coordinates":[-97.387243,35.466442]}},{"type":"Feature","id":"5132dd79a288f42e6735cc8d","properties":{"_id":"5132dd79a288f42e6735cc8d","PROVIDER NPI":1740270305,"PROVIDER NAME":"Ajanaku, Olakunle","PROVIDER STATE":"Oklahoma","PROVIDER CITY":"Okmulgee","PROVIDER  ADDRESS":"1101 S Belmont Ave, Suite 104","PROVIDER ZIP 5 CD":74447,"PROVIDER ZIP 4 CD":6315,"PROVIDER PHONE NUM":9187583536,"PROVIDER PHONE EXT":"","PROGRAM YEAR":2011},"geometry":{"type":"Point","coordinates":[-95.952262,35.613514]}},{"type":"Feature","id":"5132dd79a288f42e6735cc8e","properties":{"_id":"5132dd79a288f42e6735cc8e","PROVIDER NPI":1427067628,"PROVIDER NAME":"Alamian, Seyed","PROVIDER STATE":"Oklahoma","PROVIDER CITY":"Oklahoma City","PROVIDER  ADDRESS":"4140 W Memorial Rd, Suite 208","PROVIDER ZIP 5 CD":73120,"PROVIDER ZIP 4 CD":8366,"PROVIDER PHONE NUM":4057554290,"PROVIDER PHONE EXT":"","PROGRAM YEAR":2011},"geometry":{"type":"Point","coordinates":[-97.5959,35.608956]}},{"type":"Feature","id":"5132dd79a288f42e6735cc8f","properties":{"_id":"5132dd79a288f42e6735cc8f","PROVIDER NPI":1700878378,"PROVIDER NAME":"Aldridge, Jack","PROVIDER STATE":"Oklahoma","PROVIDER CITY":"Tulsa","PROVIDER  ADDRESS":"7600 S. Lewis Ave.","PROVIDER ZIP 5 CD":74136,"PROVIDER ZIP 4 CD":6836,"PROVIDER PHONE NUM":9184932229,"PROVIDER PHONE EXT":"","PROGRAM YEAR":2011},"geometry":{"type":"Point","coordinates":[-95.957897,36.053515]}},{"type":"Feature","id":"5132dd79a288f42e6735cc90","properties":{"_id":"5132dd79a288f42e6735cc90","PROVIDER NPI":1952340572,"PROVIDER NAME":"Allee, Brian","PROVIDER STATE":"Oklahoma","PROVIDER CITY":"Pauls Valley","PROVIDER  ADDRESS":"106 N Cedar St","PROVIDER ZIP 5 CD":73075,"PROVIDER ZIP 4 CD":2805,"PROVIDER PHONE NUM":4052079800,"PROVIDER PHONE EXT":"","PROGRAM YEAR":2011},"geometry":{"type":"Point","coordinates":[-97.225238,34.73656]}},{"type":"Feature","id":"5132dd79a288f42e6735cc91","properties":{"_id":"5132dd79a288f42e6735cc91","PROVIDER NPI":1548360779,"PROVIDER NAME":"Allen, Erin","PROVIDER STATE":"Oklahoma","PROVIDER CITY":"Clinton","PROVIDER  ADDRESS":"90 N 30th St, Suite 7","PROVIDER ZIP 5 CD":73601,"PROVIDER ZIP 4 CD":3101,"PROVIDER PHONE NUM":5803238460,"PROVIDER PHONE EXT":"","PROGRAM YEAR":2011},"geometry":{"type":"Point","coordinates":[-98.996936,35.514404]}},{"type":"Feature","id":"5132dd79a288f42e6735cc92","properties":{"_id":"5132dd79a288f42e6735cc92","PROVIDER NPI":1154382299,"PROVIDER NAME":"ALLEN, HENRY","PROVIDER STATE":"Oklahoma","PROVIDER CITY":"Oklahoma City","PROVIDER  ADDRESS":"2200 SW 59TH STREET","PROVIDER ZIP 5 CD":73119,"PROVIDER ZIP 4 CD":7033,"PROVIDER PHONE NUM":4056820721,"PROVIDER PHONE EXT":"","PROGRAM YEAR":2011},"geometry":{"type":"Point","coordinates":[-97.551046,35.406203]}},{"type":"Feature","id":"5132dd79a288f42e6735cc93","properties":{"_id":"5132dd79a288f42e6735cc93","PROVIDER NPI":1215062799,"PROVIDER NAME":"Alnabhan, Nabhan","PROVIDER STATE":"Oklahoma","PROVIDER CITY":"Midwest City","PROVIDER  ADDRESS":"8121 National Ave Ste 400","PROVIDER ZIP 5 CD":73110,"PROVIDER ZIP 4 CD":7572,"PROVIDER PHONE NUM":4057306007,"PROVIDER PHONE EXT":"","PROGRAM YEAR":2011},"geometry":{"type":"Point","coordinates":[-97.387243,35.466442]}},{"type":"Feature","id":"5132dd79a288f42e6735cc94","properties":{"_id":"5132dd79a288f42e6735cc94","PROVIDER NPI":1952334955,"PROVIDER NAME":"Aly, Khalid","PROVIDER STATE":"Oklahoma","PROVIDER CITY":"Pryor","PROVIDER  ADDRESS":"562 S Elliott St","PROVIDER ZIP 5 CD":74361,"PROVIDER ZIP 4 CD":6411,"PROVIDER PHONE NUM":9188253389,"PROVIDER PHONE EXT":"","PROGRAM YEAR":2011},"geometry":{"type":"Point","coordinates":[-95.309908,36.295955]}},{"type":"Feature","id":"5132dd79a288f42e6735cc95","properties":{"_id":"5132dd79a288f42e6735cc95","PROVIDER NPI":1487684072,"PROVIDER NAME":"Anderson, Michael","PROVIDER STATE":"Oklahoma","PROVIDER CITY":"Yukon","PROVIDER  ADDRESS":"520 S Mustang Rd","PROVIDER ZIP 5 CD":73099,"PROVIDER ZIP 4 CD":6737,"PROVIDER PHONE NUM":4059365910,"PROVIDER PHONE EXT":"","PROGRAM YEAR":2011},"geometry":{"type":"Point","coordinates":[-97.724645,35.459655]}},{"type":"Feature","id":"5132dd79a288f42e6735cc96","properties":{"_id":"5132dd79a288f42e6735cc96","PROVIDER NPI":1346226164,"PROVIDER NAME":"ANDERSON, MICHAEL","PROVIDER STATE":"Oklahoma","PROVIDER CITY":"Midwest City","PROVIDER  ADDRESS":"1201 S Douglas Blvd","PROVIDER ZIP 5 CD":73130,"PROVIDER ZIP 4 CD":5239,"PROVIDER PHONE NUM":4057396840,"PROVIDER PHONE EXT":"","PROGRAM YEAR":2011},"geometry":{"type":"Point","coordinates":[-97.370902,35.479834]}},{"type":"Feature","id":"5132dd79a288f42e6735cc97","properties":{"_id":"5132dd79a288f42e6735cc97","PROVIDER NPI":1902915721,"PROVIDER NAME":"Arroyo, Michael","PROVIDER STATE":"Oklahoma","PROVIDER CITY":"Tulsa","PROVIDER  ADDRESS":"1725 E 19th St, #800","PROVIDER ZIP 5 CD":74104,"PROVIDER ZIP 4 CD":5472,"PROVIDER PHONE NUM":9183012505,"PROVIDER PHONE EXT":"","PROGRAM YEAR":2011},"geometry":{"type":"Point","coordinates":[-95.966969,36.135121]}},{"type":"Feature","id":"5132dd79a288f42e6735cc98","properties":{"_id":"5132dd79a288f42e6735cc98","PROVIDER NPI":1225008550,"PROVIDER NAME":"Aspenson, Donald","PROVIDER STATE":"Oklahoma","PROVIDER CITY":"Tulsa","PROVIDER  ADDRESS":"1265 S Utica Ave, Suite 300","PROVIDER ZIP 5 CD":74104,"PROVIDER ZIP 4 CD":4243,"PROVIDER PHONE NUM":9185920999,"PROVIDER PHONE EXT":"","PROGRAM YEAR":2011},"geometry":{"type":"Point","coordinates":[-95.967087,36.144801]}},{"type":"Feature","id":"5132dd79a288f42e6735cc99","properties":{"_id":"5132dd79a288f42e6735cc99","PROVIDER NPI":1912935644,"PROVIDER NAME":"Atherton, Justin","PROVIDER STATE":"Oklahoma","PROVIDER CITY":"Tulsa","PROVIDER  ADDRESS":"1725 E 19th St, Suite 800","PROVIDER ZIP 5 CD":74104,"PROVIDER ZIP 4 CD":5472,"PROVIDER PHONE NUM":9183012505,"PROVIDER PHONE EXT":"","PROGRAM YEAR":2011},"geometry":{"type":"Point","coordinates":[-95.966969,36.135121]}},{"type":"Feature","id":"5132dd79a288f42e6735cc9a","properties":{"_id":"5132dd79a288f42e6735cc9a","PROVIDER NPI":1700883808,"PROVIDER NAME":"Atkinson, Dean","PROVIDER STATE":"Oklahoma","PROVIDER CITY":"Oklahoma City","PROVIDER  ADDRESS":"750 NE 13th St","PROVIDER ZIP 5 CD":73104,"PROVIDER ZIP 4 CD":5010,"PROVIDER PHONE NUM":4052350040,"PROVIDER PHONE EXT":313,"PROGRAM YEAR":2011},"geometry":{"type":"Point","coordinates":[-97.500025,35.4824]}},{"type":"Feature","id":"5132dd79a288f42e6735cc9b","properties":{"_id":"5132dd79a288f42e6735cc9b","PROVIDER NPI":1881664399,"PROVIDER NAME":"Auerbach, Eric","PROVIDER STATE":"Oklahoma","PROVIDER CITY":"Tulsa","PROVIDER  ADDRESS":"9228 S Mingo Rd, Suite 200","PROVIDER ZIP 5 CD":74133,"PROVIDER ZIP 4 CD":5718,"PROVIDER PHONE NUM":9185920999,"PROVIDER PHONE EXT":"","PROGRAM YEAR":2011},"geometry":{"type":"Point","coordinates":[-95.868577,36.030099]}},{"type":"Feature","id":"5132dd79a288f42e6735cc9c","properties":{"_id":"5132dd79a288f42e6735cc9c","PROVIDER NPI":1265426498,"PROVIDER NAME":"Ayers, Norman","PROVIDER STATE":"Oklahoma","PROVIDER CITY":"Norman","PROVIDER  ADDRESS":"3400 W Tecumseh Rd, Suite 300","PROVIDER ZIP 5 CD":73072,"PROVIDER ZIP 4 CD":1812,"PROVIDER PHONE NUM":4055152222,"PROVIDER PHONE EXT":"","PROGRAM YEAR":2011},"geometry":{"type":"Point","coordinates":[-97.493201,35.261829]}},{"type":"Feature","id":"5132dd79a288f42e6735cc9d","properties":{"_id":"5132dd79a288f42e6735cc9d","PROVIDER NPI":1730238601,"PROVIDER NAME":"Baber, Zaheer","PROVIDER STATE":"Oklahoma","PROVIDER CITY":"Midwest City","PROVIDER  ADDRESS":"8121 National Ave, Suite 300","PROVIDER ZIP 5 CD":73110,"PROVIDER ZIP 4 CD":7530,"PROVIDER PHONE NUM":4057379820,"PROVIDER PHONE EXT":"","PROGRAM YEAR":2011},"geometry":{"type":"Point","coordinates":[-97.387243,35.466442]}},{"type":"Feature","id":"5132dd79a288f42e6735cc9e","properties":{"_id":"5132dd79a288f42e6735cc9e","PROVIDER NPI":1508060641,"PROVIDER NAME":"Baker, Sean","PROVIDER STATE":"Oklahoma","PROVIDER CITY":"Tulsa","PROVIDER  ADDRESS":"2345 Southwest Blvd","PROVIDER ZIP 5 CD":74107,"PROVIDER ZIP 4 CD":2705,"PROVIDER PHONE NUM":9185618395,"PROVIDER PHONE EXT":"","PROGRAM YEAR":2011},"geometry":{"type":"Point","coordinates":[-96.006971,36.133448]}},{"type":"Feature","id":"5132dd79a288f42e6735cc9f","properties":{"_id":"5132dd79a288f42e6735cc9f","PROVIDER NPI":1760483457,"PROVIDER NAME":"Ballard, Lydia","PROVIDER STATE":"Oklahoma","PROVIDER CITY":"Norman","PROVIDER  ADDRESS":"950 N Porter Ave, Suite #300","PROVIDER ZIP 5 CD":73071,"PROVIDER ZIP 4 CD":6400,"PROVIDER PHONE NUM":4053290121,"PROVIDER PHONE EXT":"","PROGRAM YEAR":2011},"geometry":{"type":"Point","coordinates":[-97.436352,35.218334]}},{"type":"Feature","id":"5132dd79a288f42e6735cca0","properties":{"_id":"5132dd79a288f42e6735cca0","PROVIDER NPI":1801867254,"PROVIDER NAME":"Banowetz, John","PROVIDER STATE":"Oklahoma","PROVIDER CITY":"Oklahoma City","PROVIDER  ADDRESS":"4120 W Memorial Rd, #218","PROVIDER ZIP 5 CD":73120,"PROVIDER ZIP 4 CD":"","PROVIDER PHONE NUM":4053022661,"PROVIDER PHONE EXT":"","PROGRAM YEAR":2011},"geometry":{"type":"Point","coordinates":[-97.595307,35.609031]}},{"type":"Feature","id":"5132dd79a288f42e6735cca1","properties":{"_id":"5132dd79a288f42e6735cca1","PROVIDER NPI":1861429052,"PROVIDER NAME":"Barnes, Daniel","PROVIDER STATE":"Oklahoma","PROVIDER CITY":"Oklahoma City","PROVIDER  ADDRESS":"11000 Hefner Pointe Dr","PROVIDER ZIP 5 CD":73120,"PROVIDER ZIP 4 CD":5039,"PROVIDER PHONE NUM":4057499655,"PROVIDER PHONE EXT":"","PROGRAM YEAR":2011},"geometry":{"type":"Point","coordinates":[-97.58294,35.582047]}},{"type":"Feature","id":"5132dd79a288f42e6735cca2","properties":{"_id":"5132dd79a288f42e6735cca2","PROVIDER NPI":1528061744,"PROVIDER NAME":"Barnes, William","PROVIDER STATE":"Oklahoma","PROVIDER CITY":"Oklahoma City","PROVIDER  ADDRESS":"4200 S Douglas Ave, Ste 200","PROVIDER ZIP 5 CD":73109,"PROVIDER ZIP 4 CD":3223,"PROVIDER PHONE NUM":4056445175,"PROVIDER PHONE EXT":"","PROGRAM YEAR":2011},"geometry":{"type":"Point","coordinates":[-97.534655,35.423971]}},{"type":"Feature","id":"5132dd79a288f42e6735cca3","properties":{"_id":"5132dd79a288f42e6735cca3","PROVIDER NPI":1487796199,"PROVIDER NAME":"Barr, Stephen","PROVIDER STATE":"Oklahoma","PROVIDER CITY":"Oklahoma City","PROVIDER  ADDRESS":"900 NE 10th St, FMC 2102","PROVIDER ZIP 5 CD":73104,"PROVIDER ZIP 4 CD":5420,"PROVIDER PHONE NUM":4052712230,"PROVIDER PHONE EXT":"","PROGRAM YEAR":2011},"geometry":{"type":"Point","coordinates":[-97.500636,35.478192]}},{"type":"Feature","id":"5132dd79a288f42e6735cca4","properties":{"_id":"5132dd79a288f42e6735cca4","PROVIDER NPI":1568485589,"PROVIDER NAME":"Battles, Paul","PROVIDER STATE":"Oklahoma","PROVIDER CITY":"Pryor","PROVIDER  ADDRESS":"562 S Elliott St","PROVIDER ZIP 5 CD":74361,"PROVIDER ZIP 4 CD":6411,"PROVIDER PHONE NUM":9188248000,"PROVIDER PHONE EXT":"","PROGRAM YEAR":2011},"geometry":{"type":"Point","coordinates":[-95.309908,36.295955]}},{"type":"Feature","id":"5132dd79a288f42e6735cca5","properties":{"_id":"5132dd79a288f42e6735cca5","PROVIDER NPI":1356506430,"PROVIDER NAME":"Beartrack, Christina","PROVIDER STATE":"Oklahoma","PROVIDER CITY":"Tulsa","PROVIDER  ADDRESS":"3906 S Peoria Ave","PROVIDER ZIP 5 CD":74105,"PROVIDER ZIP 4 CD":3131,"PROVIDER PHONE NUM":9185851523,"PROVIDER PHONE EXT":"","PROGRAM YEAR":2011},"geometry":{"type":"Point","coordinates":[-95.97579,36.106086]}},{"type":"Feature","id":"5132dd79a288f42e6735cca6","properties":{"_id":"5132dd79a288f42e6735cca6","PROVIDER NPI":1720196314,"PROVIDER NAME":"Belardo, John","PROVIDER STATE":"Oklahoma","PROVIDER CITY":"Oklahoma City","PROVIDER  ADDRESS":"11308 N Pennsylvania Ave","PROVIDER ZIP 5 CD":73120,"PROVIDER ZIP 4 CD":"","PROVIDER PHONE NUM":4057557700,"PROVIDER PHONE EXT":"","PROGRAM YEAR":2011},"geometry":{"type":"Point","coordinates":[-97.54925,35.58454]}},{"type":"Feature","id":"5132dd79a288f42e6735cca7","properties":{"_id":"5132dd79a288f42e6735cca7","PROVIDER NPI":1558473868,"PROVIDER NAME":"Bennett, Michael","PROVIDER STATE":"Oklahoma","PROVIDER CITY":"Guthrie","PROVIDER  ADDRESS":"110 E Harrison Ave","PROVIDER ZIP 5 CD":73044,"PROVIDER ZIP 4 CD":4839,"PROVIDER PHONE NUM":4052824396,"PROVIDER PHONE EXT":"","PROGRAM YEAR":2011},"geometry":{"type":"Point","coordinates":[-97.425238,35.877058]}},{"type":"Feature","id":"5132dd79a288f42e6735cca8","properties":{"_id":"5132dd79a288f42e6735cca8","PROVIDER NPI":1962442954,"PROVIDER NAME":"Benson, Robert","PROVIDER STATE":"Oklahoma","PROVIDER CITY":"Ardmore","PROVIDER  ADDRESS":"731 12th Ave NW, Suite 301","PROVIDER ZIP 5 CD":73401,"PROVIDER ZIP 4 CD":5765,"PROVIDER PHONE NUM":5802206180,"PROVIDER PHONE EXT":"","PROGRAM YEAR":2011},"geometry":{"type":"Point","coordinates":[-97.138071,34.186904]}},{"type":"Feature","id":"5132dd79a288f42e6735cca9","properties":{"_id":"5132dd79a288f42e6735cca9","PROVIDER NPI":1144239229,"PROVIDER NAME":"Berends, Jennifer","PROVIDER STATE":"Oklahoma","PROVIDER CITY":"Shattuck","PROVIDER  ADDRESS":"905 S Main St","PROVIDER ZIP 5 CD":73858,"PROVIDER ZIP 4 CD":9205,"PROVIDER PHONE NUM":5809385275,"PROVIDER PHONE EXT":"","PROGRAM YEAR":2011},"geometry":{"type":"Point","coordinates":[-99.881566,36.268615]}},{"type":"Feature","id":"5132dd79a288f42e6735ccaa","properties":{"_id":"5132dd79a288f42e6735ccaa","PROVIDER NPI":1669470704,"PROVIDER NAME":"BERRY, RICHARD","PROVIDER STATE":"Oklahoma","PROVIDER CITY":"Shattuck","PROVIDER  ADDRESS":"905 S Main St","PROVIDER ZIP 5 CD":73858,"PROVIDER ZIP 4 CD":9205,"PROVIDER PHONE NUM":5809385276,"PROVIDER PHONE EXT":"","PROGRAM YEAR":2011},"geometry":{"type":"Point","coordinates":[-99.881566,36.268615]}},{"type":"Feature","id":"5132dd79a288f42e6735ccab","properties":{"_id":"5132dd79a288f42e6735ccab","PROVIDER NPI":1760588545,"PROVIDER NAME":"Bhaktaram, Vivek","PROVIDER STATE":"Oklahoma","PROVIDER CITY":"Midwest City","PROVIDER  ADDRESS":"8121 National Ave, Ste 200","PROVIDER ZIP 5 CD":73110,"PROVIDER ZIP 4 CD":"","PROVIDER PHONE NUM":4057373802,"PROVIDER PHONE EXT":"","PROGRAM YEAR":2011},"geometry":{"type":"Point","coordinates":[-97.387243,35.466442]}},{"type":"Feature","id":"5132dd79a288f42e6735ccac","properties":{"_id":"5132dd79a288f42e6735ccac","PROVIDER NPI":1952353427,"PROVIDER NAME":"BIK, YNAL","PROVIDER STATE":"Oklahoma","PROVIDER CITY":"Wilson","PROVIDER  ADDRESS":"1152 US Highway 70A","PROVIDER ZIP 5 CD":73463,"PROVIDER ZIP 4 CD":1482,"PROVIDER PHONE NUM":5806682882,"PROVIDER PHONE EXT":"","PROGRAM YEAR":2011},"geometry":{"type":"Point","coordinates":[-97.430921,34.172367]}},{"type":"Feature","id":"5132dd79a288f42e6735ccad","properties":{"_id":"5132dd79a288f42e6735ccad","PROVIDER NPI":1033203765,"PROVIDER NAME":"Bintz, Daniel","PROVIDER STATE":"Oklahoma","PROVIDER CITY":"Elk City","PROVIDER  ADDRESS":"901 N Main St","PROVIDER ZIP 5 CD":73644,"PROVIDER ZIP 4 CD":2828,"PROVIDER PHONE NUM":5802431121,"PROVIDER PHONE EXT":"","PROGRAM YEAR":2011},"geometry":{"type":"Point","coordinates":[-99.404832,35.420382]}},{"type":"Feature","id":"5132dd79a288f42e6735ccae","properties":{"_id":"5132dd79a288f42e6735ccae","PROVIDER NPI":1013909605,"PROVIDER NAME":"Birdwell, Brian","PROVIDER STATE":"Oklahoma","PROVIDER CITY":"Lawton","PROVIDER  ADDRESS":"1930 NW Ferris, Suite 1","PROVIDER ZIP 5 CD":73507,"PROVIDER ZIP 4 CD":"","PROVIDER PHONE NUM":5802489966,"PROVIDER PHONE EXT":"","PROGRAM YEAR":2011},"geometry":{"type":"Point","coordinates":[-98.416915,34.615986]}},{"type":"Feature","id":"5132dd79a288f42e6735ccaf","properties":{"_id":"5132dd79a288f42e6735ccaf","PROVIDER NPI":1225006299,"PROVIDER NAME":"Bishop, Nancy","PROVIDER STATE":"Oklahoma","PROVIDER CITY":"Oklahoma City","PROVIDER  ADDRESS":"10900 Hefner Pointe Dr., STE 505","PROVIDER ZIP 5 CD":73120,"PROVIDER ZIP 4 CD":5045,"PROVIDER PHONE NUM":4059361170,"PROVIDER PHONE EXT":"","PROGRAM YEAR":2011},"geometry":{"type":"Point","coordinates":[-97.583478,35.580908]}},{"type":"Feature","id":"5132dd79a288f42e6735ccb0","properties":{"_id":"5132dd79a288f42e6735ccb0","PROVIDER NPI":1215906276,"PROVIDER NAME":"Blanck, Bryan","PROVIDER STATE":"Oklahoma","PROVIDER CITY":"Ada","PROVIDER  ADDRESS":"1221 Arlington St, Suite A","PROVIDER ZIP 5 CD":74820,"PROVIDER ZIP 4 CD":4073,"PROVIDER PHONE NUM":5805590001,"PROVIDER PHONE EXT":"","PROGRAM YEAR":2011},"geometry":{"type":"Point","coordinates":[-96.66032,34.781573]}},{"type":"Feature","id":"5132dd79a288f42e6735ccb1","properties":{"_id":"5132dd79a288f42e6735ccb1","PROVIDER NPI":1811954589,"PROVIDER NAME":"Blomgren, James","PROVIDER STATE":"Oklahoma","PROVIDER CITY":"Norman","PROVIDER  ADDRESS":"950 N Porter, Suite 300","PROVIDER ZIP 5 CD":73071,"PROVIDER ZIP 4 CD":6410,"PROVIDER PHONE NUM":4053290121,"PROVIDER PHONE EXT":"","PROGRAM YEAR":2011},"geometry":{"type":"Point","coordinates":[-97.441008,35.230067]}},{"type":"Feature","id":"5132dd79a288f42e6735ccb2","properties":{"_id":"5132dd79a288f42e6735ccb2","PROVIDER NPI":1366436693,"PROVIDER NAME":"Bodenhamer, Robert","PROVIDER STATE":"Oklahoma","PROVIDER CITY":"Oklahoma City","PROVIDER  ADDRESS":"4050 W Memorial Rd, Third Floor","PROVIDER ZIP 5 CD":73120,"PROVIDER ZIP 4 CD":8382,"PROVIDER PHONE NUM":4056083800,"PROVIDER PHONE EXT":"","PROGRAM YEAR":2011},"geometry":{"type":"Point","coordinates":[-97.593522,35.608945]}},{"type":"Feature","id":"5132dd79a288f42e6735ccb3","properties":{"_id":"5132dd79a288f42e6735ccb3","PROVIDER NPI":1962419796,"PROVIDER NAME":"Boeckman, Michael","PROVIDER STATE":"Oklahoma","PROVIDER CITY":"Lindsay","PROVIDER  ADDRESS":"301 S Main St","PROVIDER ZIP 5 CD":73052,"PROVIDER ZIP 4 CD":5635,"PROVIDER PHONE NUM":4057564414,"PROVIDER PHONE EXT":"","PROGRAM YEAR":2011},"geometry":{"type":"Point","coordinates":[-97.602717,34.834641]}},{"type":"Feature","id":"5132dd79a288f42e6735ccb4","properties":{"_id":"5132dd79a288f42e6735ccb4","PROVIDER NPI":1952362113,"PROVIDER NAME":"Bogardus, Carl","PROVIDER STATE":"Oklahoma","PROVIDER CITY":"Oklahoma City","PROVIDER  ADDRESS":"825 NE 10th St, OUPB 1430","PROVIDER ZIP 5 CD":73104,"PROVIDER ZIP 4 CD":5417,"PROVIDER PHONE NUM":4052713577,"PROVIDER PHONE EXT":"","PROGRAM YEAR":2011},"geometry":{"type":"Point","coordinates":[-97.498579,35.478235]}},{"type":"Feature","id":"5132dd79a288f42e6735ccb5","properties":{"_id":"5132dd79a288f42e6735ccb5","PROVIDER NPI":1487629556,"PROVIDER NAME":"Boggs, Brian","PROVIDER STATE":"Oklahoma","PROVIDER CITY":"Oklahoma City","PROVIDER  ADDRESS":"4200 W Memorial Rd, Suite 610","PROVIDER ZIP 5 CD":73120,"PROVIDER ZIP 4 CD":9350,"PROVIDER PHONE NUM":4057497023,"PROVIDER PHONE EXT":"","PROGRAM YEAR":2011},"geometry":{"type":"Point","coordinates":[-97.597887,35.609027]}},{"type":"Feature","id":"5132dd79a288f42e6735ccb6","properties":{"_id":"5132dd79a288f42e6735ccb6","PROVIDER NPI":1982656385,"PROVIDER NAME":"Boggs, David","PROVIDER STATE":"Oklahoma","PROVIDER CITY":"Oklahoma City","PROVIDER  ADDRESS":"3400 NW Expressway, Suite 105","PROVIDER ZIP 5 CD":73112,"PROVIDER ZIP 4 CD":4491,"PROVIDER PHONE NUM":4059473335,"PROVIDER PHONE EXT":"","PROGRAM YEAR":2011},"geometry":{"type":"Point","coordinates":[-97.539814,35.577244]}},{"type":"Feature","id":"5132dd79a288f42e6735ccb7","properties":{"_id":"5132dd79a288f42e6735ccb7","PROVIDER NPI":1053316125,"PROVIDER NAME":"Bond, Gary","PROVIDER STATE":"Oklahoma","PROVIDER CITY":"Oklahoma City","PROVIDER  ADDRESS":"3366 NW Expressway, Ste 550","PROVIDER ZIP 5 CD":73112,"PROVIDER ZIP 4 CD":4489,"PROVIDER PHONE NUM":4059425442,"PROVIDER PHONE EXT":"","PROGRAM YEAR":2011},"geometry":{"type":"Point","coordinates":[-97.62248,35.570926]}},{"type":"Feature","id":"5132dd79a288f42e6735ccb8","properties":{"_id":"5132dd79a288f42e6735ccb8","PROVIDER NPI":1669447371,"PROVIDER NAME":"Bondurant, William","PROVIDER STATE":"Oklahoma","PROVIDER CITY":"Edmond","PROVIDER  ADDRESS":"1700 Renaissance Blvd","PROVIDER ZIP 5 CD":73013,"PROVIDER ZIP 4 CD":3022,"PROVIDER PHONE NUM":4058444300,"PROVIDER PHONE EXT":"","PROGRAM YEAR":2011},"geometry":{"type":"Point","coordinates":[-97.498394,35.637053]}},{"type":"Feature","id":"5132dd79a288f42e6735ccb9","properties":{"_id":"5132dd79a288f42e6735ccb9","PROVIDER NPI":1689658882,"PROVIDER NAME":"Bookman, Larry","PROVIDER STATE":"Oklahoma","PROVIDER CITY":"Midwest City","PROVIDER  ADDRESS":"8121 National Ave, STE 303","PROVIDER ZIP 5 CD":73110,"PROVIDER ZIP 4 CD":7530,"PROVIDER PHONE NUM":4057374464,"PROVIDER PHONE EXT":"","PROGRAM YEAR":2011},"geometry":{"type":"Point","coordinates":[-97.387243,35.466442]}},{"type":"Feature","id":"5132dd79a288f42e6735ccba","properties":{"_id":"5132dd79a288f42e6735ccba","PROVIDER NPI":1629019237,"PROVIDER NAME":"Boone, Sean","PROVIDER STATE":"Oklahoma","PROVIDER CITY":"Hugo","PROVIDER  ADDRESS":"211 N 3rd St","PROVIDER ZIP 5 CD":74743,"PROVIDER ZIP 4 CD":3821,"PROVIDER PHONE NUM":5803266111,"PROVIDER PHONE EXT":"","PROGRAM YEAR":2011},"geometry":{"type":"Point","coordinates":[-95.510101,34.011178]}},{"type":"Feature","id":"5132dd79a288f42e6735ccbb","properties":{"_id":"5132dd79a288f42e6735ccbb","PROVIDER NPI":1013058452,"PROVIDER NAME":"Bova, Abby","PROVIDER STATE":"Oklahoma","PROVIDER CITY":"Oklahoma City","PROVIDER  ADDRESS":"11100 Hefner Pointe Dr","PROVIDER ZIP 5 CD":73120,"PROVIDER ZIP 4 CD":5049,"PROVIDER PHONE NUM":4057490415,"PROVIDER PHONE EXT":"","PROGRAM YEAR":2011},"geometry":{"type":"Point","coordinates":[-97.5836,35.583145]}},{"type":"Feature","id":"5132dd79a288f42e6735ccbc","properties":{"_id":"5132dd79a288f42e6735ccbc","PROVIDER NPI":1235102948,"PROVIDER NAME":"Boyd, Edgar","PROVIDER STATE":"Oklahoma","PROVIDER CITY":"Muskogee","PROVIDER  ADDRESS":"1805 N York St, Suite F","PROVIDER ZIP 5 CD":74403,"PROVIDER ZIP 4 CD":1404,"PROVIDER PHONE NUM":9186824580,"PROVIDER PHONE EXT":"","PROGRAM YEAR":2011},"geometry":{"type":"Point","coordinates":[-95.353763,35.75896]}},{"type":"Feature","id":"5132dd79a288f42e6735ccbd","properties":{"_id":"5132dd79a288f42e6735ccbd","PROVIDER NPI":1689606964,"PROVIDER NAME":"Boyles, Robert","PROVIDER STATE":"Oklahoma","PROVIDER CITY":"Cleveland","PROVIDER  ADDRESS":"100 North Hickerson Dr.","PROVIDER ZIP 5 CD":74020,"PROVIDER ZIP 4 CD":4003,"PROVIDER PHONE NUM":9183581600,"PROVIDER PHONE EXT":"","PROGRAM YEAR":2011},"geometry":{"type":"Point","coordinates":[-96.481219,36.308863]}},{"type":"Feature","id":"5132dd79a288f42e6735ccbe","properties":{"_id":"5132dd79a288f42e6735ccbe","PROVIDER NPI":1881691921,"PROVIDER NAME":"Bozalis, John","PROVIDER STATE":"Oklahoma","PROVIDER CITY":"Oklahoma City","PROVIDER  ADDRESS":"750 NE 13th St","PROVIDER ZIP 5 CD":73104,"PROVIDER ZIP 4 CD":5051,"PROVIDER PHONE NUM":4052350040,"PROVIDER PHONE EXT":"","PROGRAM YEAR":2011},"geometry":{"type":"Point","coordinates":[-97.500025,35.4824]}},{"type":"Feature","id":"5132dd79a288f42e6735ccbf","properties":{"_id":"5132dd79a288f42e6735ccbf","PROVIDER NPI":1528064805,"PROVIDER NAME":"Briggs, Paul","PROVIDER STATE":"Oklahoma","PROVIDER CITY":"Blackwell","PROVIDER  ADDRESS":"1009 W Ferguson Ave","PROVIDER ZIP 5 CD":74631,"PROVIDER ZIP 4 CD":5602,"PROVIDER PHONE NUM":5803630052,"PROVIDER PHONE EXT":"","PROGRAM YEAR":2011},"geometry":{"type":"Point","coordinates":[-97.295825,36.796904]}},{"type":"Feature","id":"5132dd79a288f42e6735ccc0","properties":{"_id":"5132dd79a288f42e6735ccc0","PROVIDER NPI":1093768590,"PROVIDER NAME":"Brister, Zeb","PROVIDER STATE":"Oklahoma","PROVIDER CITY":"Tulsa","PROVIDER  ADDRESS":"3906 S Peoria Ave","PROVIDER ZIP 5 CD":74105,"PROVIDER ZIP 4 CD":3131,"PROVIDER PHONE NUM":9185851523,"PROVIDER PHONE EXT":"","PROGRAM YEAR":2011},"geometry":{"type":"Point","coordinates":[-95.97579,36.106086]}},{"type":"Feature","id":"5132dd79a288f42e6735ccc1","properties":{"_id":"5132dd79a288f42e6735ccc1","PROVIDER NPI":1821043316,"PROVIDER NAME":"BRITT, MATTHEW","PROVIDER STATE":"Oklahoma","PROVIDER CITY":"Oklahoma City","PROVIDER  ADDRESS":"3400 NW Expressway, Suite 105","PROVIDER ZIP 5 CD":73112,"PROVIDER ZIP 4 CD":4491,"PROVIDER PHONE NUM":4059473335,"PROVIDER PHONE EXT":"","PROGRAM YEAR":2011},"geometry":{"type":"Point","coordinates":[-97.539814,35.577244]}},{"type":"Feature","id":"5132dd79a288f42e6735ccc2","properties":{"_id":"5132dd79a288f42e6735ccc2","PROVIDER NPI":1659457455,"PROVIDER NAME":"Brookover, Wesley","PROVIDER STATE":"Oklahoma","PROVIDER CITY":"Tulsa","PROVIDER  ADDRESS":"6585 S Yale Ave, Ste 640","PROVIDER ZIP 5 CD":74136,"PROVIDER ZIP 4 CD":8319,"PROVIDER PHONE NUM":9187283344,"PROVIDER PHONE EXT":"","PROGRAM YEAR":2011},"geometry":{"type":"Point","coordinates":[-95.92215,36.074255]}},{"type":"Feature","id":"5132dd79a288f42e6735ccc3","properties":{"_id":"5132dd79a288f42e6735ccc3","PROVIDER NPI":1144218322,"PROVIDER NAME":"Brotherton, Lawrence","PROVIDER STATE":"Oklahoma","PROVIDER CITY":"Tulsa","PROVIDER  ADDRESS":"1725 E 19th St, Suite 800","PROVIDER ZIP 5 CD":74104,"PROVIDER ZIP 4 CD":5472,"PROVIDER PHONE NUM":9183012505,"PROVIDER PHONE EXT":"","PROGRAM YEAR":2011},"geometry":{"type":"Point","coordinates":[-95.966969,36.135121]}},{"type":"Feature","id":"5132dd79a288f42e6735ccc4","properties":{"_id":"5132dd79a288f42e6735ccc4","PROVIDER NPI":1467469288,"PROVIDER NAME":"BROWN, CURTIS","PROVIDER STATE":"Oklahoma","PROVIDER CITY":"Yukon","PROVIDER  ADDRESS":"1491 Health Center Parkway","PROVIDER ZIP 5 CD":73099,"PROVIDER ZIP 4 CD":6767,"PROVIDER PHONE NUM":4058062200,"PROVIDER PHONE EXT":"","PROGRAM YEAR":2011},"geometry":{"type":"Point","coordinates":[-97.763985,35.483658]}},{"type":"Feature","id":"5132dd79a288f42e6735ccc5","properties":{"_id":"5132dd79a288f42e6735ccc5","PROVIDER NPI":1063429892,"PROVIDER NAME":"BROWN, JAMES","PROVIDER STATE":"Oklahoma","PROVIDER CITY":"Yukon","PROVIDER  ADDRESS":"1491 Health Center Parkway","PROVIDER ZIP 5 CD":73099,"PROVIDER ZIP 4 CD":6767,"PROVIDER PHONE NUM":4058062200,"PROVIDER PHONE EXT":"","PROGRAM YEAR":2011},"geometry":{"type":"Point","coordinates":[-97.763985,35.483658]}},{"type":"Feature","id":"5132dd79a288f42e6735ccc6","properties":{"_id":"5132dd79a288f42e6735ccc6","PROVIDER NPI":1407877970,"PROVIDER NAME":"BRUCE, ROBERT","PROVIDER STATE":"Oklahoma","PROVIDER CITY":"Tulsa","PROVIDER  ADDRESS":"10901 E 48th Street S","PROVIDER ZIP 5 CD":74146,"PROVIDER ZIP 4 CD":5830,"PROVIDER PHONE NUM":9187498765,"PROVIDER PHONE EXT":"","PROGRAM YEAR":2011},"geometry":{"type":"Point","coordinates":[-95.860783,36.093803]}},{"type":"Feature","id":"5132dd79a288f42e6735ccc7","properties":{"_id":"5132dd79a288f42e6735ccc7","PROVIDER NPI":1053364224,"PROVIDER NAME":"Bruns, Cristin","PROVIDER STATE":"Oklahoma","PROVIDER CITY":"Tulsa","PROVIDER  ADDRESS":"9228 S Mingo Rd, Suite 200","PROVIDER ZIP 5 CD":74133,"PROVIDER ZIP 4 CD":5718,"PROVIDER PHONE NUM":9185920999,"PROVIDER PHONE EXT":"","PROGRAM YEAR":2011},"geometry":{"type":"Point","coordinates":[-95.868577,36.030099]}},{"type":"Feature","id":"5132dd79a288f42e6735ccc8","properties":{"_id":"5132dd79a288f42e6735ccc8","PROVIDER NPI":1275564452,"PROVIDER NAME":"Bruns, Stephen","PROVIDER STATE":"Oklahoma","PROVIDER CITY":"Tulsa","PROVIDER  ADDRESS":"1725 E 19th St, Suite 800","PROVIDER ZIP 5 CD":74104,"PROVIDER ZIP 4 CD":5472,"PROVIDER PHONE NUM":"","PROVIDER PHONE EXT":"","PROGRAM YEAR":2011},"geometry":{"type":"Point","coordinates":[-95.966969,36.135121]}},{"type":"Feature","id":"5132dd79a288f42e6735ccc9","properties":{"_id":"5132dd79a288f42e6735ccc9","PROVIDER NPI":1437363702,"PROVIDER NAME":"Bryan, Jonathan","PROVIDER STATE":"Oklahoma","PROVIDER CITY":"Norman","PROVIDER  ADDRESS":"950 N Porter Ave, Suite 300","PROVIDER ZIP 5 CD":73071,"PROVIDER ZIP 4 CD":6400,"PROVIDER PHONE NUM":4053290121,"PROVIDER PHONE EXT":"","PROGRAM YEAR":2011},"geometry":{"type":"Point","coordinates":[-97.436352,35.218334]}},{"type":"Feature","id":"5132dd79a288f42e6735ccca","properties":{"_id":"5132dd79a288f42e6735ccca","PROVIDER NPI":1134308737,"PROVIDER NAME":"Buendia, Joseph","PROVIDER STATE":"Oklahoma","PROVIDER CITY":"Oklahoma City","PROVIDER  ADDRESS":"4140 W Memorial Rd Ste 621","PROVIDER ZIP 5 CD":73120,"PROVIDER ZIP 4 CD":8365,"PROVIDER PHONE NUM":4057494231,"PROVIDER PHONE EXT":"","PROGRAM YEAR":2011},"geometry":{"type":"Point","coordinates":[-97.5959,35.608956]}},{"type":"Feature","id":"5132dd79a288f42e6735cccb","properties":{"_id":"5132dd79a288f42e6735cccb","PROVIDER NPI":1457308736,"PROVIDER NAME":"BUKSH, AHMED","PROVIDER STATE":"Oklahoma","PROVIDER CITY":"EDMOND","PROVIDER  ADDRESS":"800 W 18TH ST, STE 100","PROVIDER ZIP 5 CD":73013,"PROVIDER ZIP 4 CD":"","PROVIDER PHONE NUM":4053216984,"PROVIDER PHONE EXT":"","PROGRAM YEAR":2011},"geometry":{"type":"Point","coordinates":[-97.4939,35.635614]}},{"type":"Feature","id":"5132dd79a288f42e6735cccc","properties":{"_id":"5132dd79a288f42e6735cccc","PROVIDER NPI":1821027210,"PROVIDER NAME":"Bundy, John","PROVIDER STATE":"Oklahoma","PROVIDER CITY":"Yukon","PROVIDER  ADDRESS":"520 S Mustang Rd","PROVIDER ZIP 5 CD":73099,"PROVIDER ZIP 4 CD":6737,"PROVIDER PHONE NUM":4059365910,"PROVIDER PHONE EXT":"","PROGRAM YEAR":2011},"geometry":{"type":"Point","coordinates":[-97.724645,35.459655]}},{"type":"Feature","id":"5132dd79a288f42e6735cccd","properties":{"_id":"5132dd79a288f42e6735cccd","PROVIDER NPI":1790701076,"PROVIDER NAME":"Buntley, David","PROVIDER STATE":"Oklahoma","PROVIDER CITY":"Duncan","PROVIDER  ADDRESS":"2601 W Elk Ave","PROVIDER ZIP 5 CD":73533,"PROVIDER ZIP 4 CD":1572,"PROVIDER PHONE NUM":5802522810,"PROVIDER PHONE EXT":"","PROGRAM YEAR":2011},"geometry":{"type":"Point","coordinates":[-97.981806,34.521693]}},{"type":"Feature","id":"5132dd79a288f42e6735ccce","properties":{"_id":"5132dd79a288f42e6735ccce","PROVIDER NPI":1932104676,"PROVIDER NAME":"Burk, Juliet","PROVIDER STATE":"Oklahoma","PROVIDER CITY":"Tahlequah","PROVIDER  ADDRESS":"215 Woodlawn Ave","PROVIDER ZIP 5 CD":74464,"PROVIDER ZIP 4 CD":3317,"PROVIDER PHONE NUM":9184589888,"PROVIDER PHONE EXT":"","PROGRAM YEAR":2011},"geometry":{"type":"Point","coordinates":[-94.956962,35.914618]}},{"type":"Feature","id":"5132dd79a288f42e6735cccf","properties":{"_id":"5132dd79a288f42e6735cccf","PROVIDER NPI":1023013760,"PROVIDER NAME":"Burk, Reed","PROVIDER STATE":"Oklahoma","PROVIDER CITY":"Tahlequah","PROVIDER  ADDRESS":"215 Woodlawn Ave","PROVIDER ZIP 5 CD":74464,"PROVIDER ZIP 4 CD":3317,"PROVIDER PHONE NUM":9184589888,"PROVIDER PHONE EXT":"","PROGRAM YEAR":2011},"geometry":{"type":"Point","coordinates":[-94.956962,35.914618]}},{"type":"Feature","id":"5132dd79a288f42e6735ccd0","properties":{"_id":"5132dd79a288f42e6735ccd0","PROVIDER NPI":1164653846,"PROVIDER NAME":"Burkhart, Elizabeth","PROVIDER STATE":"Oklahoma","PROVIDER CITY":"Moore","PROVIDER  ADDRESS":"2909 S Telephone Rd","PROVIDER ZIP 5 CD":73160,"PROVIDER ZIP 4 CD":2937,"PROVIDER PHONE NUM":4057997510,"PROVIDER PHONE EXT":"","PROGRAM YEAR":2011},"geometry":{"type":"Point","coordinates":[-97.494477,35.319402]}},{"type":"Feature","id":"5132dd79a288f42e6735ccd1","properties":{"_id":"5132dd79a288f42e6735ccd1","PROVIDER NPI":1629174321,"PROVIDER NAME":"Burleson, James","PROVIDER STATE":"Oklahoma","PROVIDER CITY":"Sapulpa","PROVIDER  ADDRESS":"550 West 121st Street South","PROVIDER ZIP 5 CD":74066,"PROVIDER ZIP 4 CD":8677,"PROVIDER PHONE NUM":9182915200,"PROVIDER PHONE EXT":"","PROGRAM YEAR":2011},"geometry":{"type":"Point","coordinates":[-96.138992,35.98845]}},{"type":"Feature","id":"5132dd79a288f42e6735ccd2","properties":{"_id":"5132dd79a288f42e6735ccd2","PROVIDER NPI":1457556474,"PROVIDER NAME":"Burleson, Stephanie","PROVIDER STATE":"Oklahoma","PROVIDER CITY":"Sapulpa","PROVIDER  ADDRESS":"550 West 121st Street South","PROVIDER ZIP 5 CD":74066,"PROVIDER ZIP 4 CD":8677,"PROVIDER PHONE NUM":9182915200,"PROVIDER PHONE EXT":"","PROGRAM YEAR":2011},"geometry":{"type":"Point","coordinates":[-96.138992,35.98845]}},{"type":"Feature","id":"5132dd79a288f42e6735ccd3","properties":{"_id":"5132dd79a288f42e6735ccd3","PROVIDER NPI":1538199450,"PROVIDER NAME":"Burner, Steven","PROVIDER STATE":"Oklahoma","PROVIDER CITY":"Oklahoma City","PROVIDER  ADDRESS":"5201 W Memorial Road","PROVIDER ZIP 5 CD":73142,"PROVIDER ZIP 4 CD":2004,"PROVIDER PHONE NUM":4057554050,"PROVIDER PHONE EXT":"","PROGRAM YEAR":2011},"geometry":{"type":"Point","coordinates":[-97.612285,35.609078]}},{"type":"Feature","id":"5132dd79a288f42e6735ccd4","properties":{"_id":"5132dd79a288f42e6735ccd4","PROVIDER NPI":1538447354,"PROVIDER NAME":"Butcher, Natalie","PROVIDER STATE":"Oklahoma","PROVIDER CITY":"Midwest City","PROVIDER  ADDRESS":"1455 S Douglas Blvd, Suite D","PROVIDER ZIP 5 CD":73130,"PROVIDER ZIP 4 CD":5268,"PROVIDER PHONE NUM":4057334545,"PROVIDER PHONE EXT":"","PROGRAM YEAR":2011},"geometry":{"type":"Point","coordinates":[-97.370922,35.451941]}},{"type":"Feature","id":"5132dd79a288f42e6735ccd5","properties":{"_id":"5132dd79a288f42e6735ccd5","PROVIDER NPI":1376523639,"PROVIDER NAME":"Butner, James","PROVIDER STATE":"Oklahoma","PROVIDER CITY":"Vinita","PROVIDER  ADDRESS":"529 N Wilson St","PROVIDER ZIP 5 CD":74301,"PROVIDER ZIP 4 CD":2428,"PROVIDER PHONE NUM":9182565543,"PROVIDER PHONE EXT":"","PROGRAM YEAR":2011},"geometry":{"type":"Point","coordinates":[-95.149937,36.646717]}},{"type":"Feature","id":"5132dd79a288f42e6735ccd6","properties":{"_id":"5132dd79a288f42e6735ccd6","PROVIDER NPI":1669403085,"PROVIDER NAME":"Cail, James","PROVIDER STATE":"Oklahoma","PROVIDER CITY":"Oklahoma City","PROVIDER  ADDRESS":"4345 W Memorial Rd","PROVIDER ZIP 5 CD":73134,"PROVIDER ZIP 4 CD":1702,"PROVIDER PHONE NUM":4059365800,"PROVIDER PHONE EXT":"","PROGRAM YEAR":2011},"geometry":{"type":"Point","coordinates":[-97.59909,35.610337]}},{"type":"Feature","id":"5132dd79a288f42e6735ccd7","properties":{"_id":"5132dd79a288f42e6735ccd7","PROVIDER NPI":1609802206,"PROVIDER NAME":"Cail, Melinda","PROVIDER STATE":"Oklahoma","PROVIDER CITY":"Oklahoma City","PROVIDER  ADDRESS":"1919 E Memorial Rd","PROVIDER ZIP 5 CD":73131,"PROVIDER ZIP 4 CD":1253,"PROVIDER PHONE NUM":4053417009,"PROVIDER PHONE EXT":"","PROGRAM YEAR":2011},"geometry":{"type":"Point","coordinates":[-97.480045,35.608993]}},{"type":"Feature","id":"5132dd79a288f42e6735ccd8","properties":{"_id":"5132dd79a288f42e6735ccd8","PROVIDER NPI":1528001518,"PROVIDER NAME":"Cain, Michael","PROVIDER STATE":"Oklahoma","PROVIDER CITY":"Henryetta","PROVIDER  ADDRESS":"2403 West Main Street","PROVIDER ZIP 5 CD":74437,"PROVIDER ZIP 4 CD":3893,"PROVIDER PHONE NUM":9186529650,"PROVIDER PHONE EXT":"","PROGRAM YEAR":2011},"geometry":{"type":"Point","coordinates":[-96.003394,35.439762]}},{"type":"Feature","id":"5132dd79a288f42e6735ccd9","properties":{"_id":"5132dd79a288f42e6735ccd9","PROVIDER NPI":1073601175,"PROVIDER NAME":"Calabrese, Kenneth","PROVIDER STATE":"Oklahoma","PROVIDER CITY":"Tulsa","PROVIDER  ADDRESS":"802 S Jackson, Suite 301","PROVIDER ZIP 5 CD":74127,"PROVIDER ZIP 4 CD":"","PROVIDER PHONE NUM":9185823154,"PROVIDER PHONE EXT":"","PROGRAM YEAR":2011},"geometry":{"type":"Point","coordinates":[-95.999441,36.146951]}},{"type":"Feature","id":"5132dd79a288f42e6735ccda","properties":{"_id":"5132dd79a288f42e6735ccda","PROVIDER NPI":1033181920,"PROVIDER NAME":"Calvert, Jon","PROVIDER STATE":"Oklahoma","PROVIDER CITY":"Tulsa","PROVIDER  ADDRESS":"2424 E 21st St, Suite 340","PROVIDER ZIP 5 CD":74114,"PROVIDER ZIP 4 CD":1722,"PROVIDER PHONE NUM":9187490804,"PROVIDER PHONE EXT":102,"PROGRAM YEAR":2011},"geometry":{"type":"Point","coordinates":[-95.957476,36.133163]}},{"type":"Feature","id":"5132dd79a288f42e6735ccdb","properties":{"_id":"5132dd79a288f42e6735ccdb","PROVIDER NPI":1356472583,"PROVIDER NAME":"Cameron, Craig","PROVIDER STATE":"Oklahoma","PROVIDER CITY":"Tulsa","PROVIDER  ADDRESS":"1265 S Utica Ave, Suite 300","PROVIDER ZIP 5 CD":74104,"PROVIDER ZIP 4 CD":4243,"PROVIDER PHONE NUM":9185920999,"PROVIDER PHONE EXT":"","PROGRAM YEAR":2011},"geometry":{"type":"Point","coordinates":[-95.967087,36.144801]}},{"type":"Feature","id":"5132dd79a288f42e6735ccdc","properties":{"_id":"5132dd79a288f42e6735ccdc","PROVIDER NPI":1982653721,"PROVIDER NAME":"Campbell, Jesse","PROVIDER STATE":"Oklahoma","PROVIDER CITY":"Edmond","PROVIDER  ADDRESS":"1575 N Santa Fe Ave","PROVIDER ZIP 5 CD":73003,"PROVIDER ZIP 4 CD":3638,"PROVIDER PHONE NUM":4052850660,"PROVIDER PHONE EXT":"","PROGRAM YEAR":2011},"geometry":{"type":"Point","coordinates":[-97.514117,35.670377]}},{"type":"Feature","id":"5132dd79a288f42e6735ccdd","properties":{"_id":"5132dd79a288f42e6735ccdd","PROVIDER NPI":1477867919,"PROVIDER NAME":"Campbell, Kelly","PROVIDER STATE":"Oklahoma","PROVIDER CITY":"Ponca City","PROVIDER  ADDRESS":"1619 N. 5th St","PROVIDER ZIP 5 CD":74601,"PROVIDER ZIP 4 CD":2703,"PROVIDER PHONE NUM":5807625700,"PROVIDER PHONE EXT":"","PROGRAM YEAR":2011},"geometry":{"type":"Point","coordinates":[-97.078615,36.721899]}},{"type":"Feature","id":"5132dd79a288f42e6735ccde","properties":{"_id":"5132dd79a288f42e6735ccde","PROVIDER NPI":1326028036,"PROVIDER NAME":"CARPENTER, SCOTT","PROVIDER STATE":"Oklahoma","PROVIDER CITY":"Ardmore","PROVIDER  ADDRESS":"731 12th Avenue NW, Suite 100","PROVIDER ZIP 5 CD":73401,"PROVIDER ZIP 4 CD":"","PROVIDER PHONE NUM":5802205335,"PROVIDER PHONE EXT":"","PROGRAM YEAR":2011},"geometry":{"type":"Point","coordinates":[-97.138071,34.186904]}},{"type":"Feature","id":"5132dd79a288f42e6735ccdf","properties":{"_id":"5132dd79a288f42e6735ccdf","PROVIDER NPI":1922028828,"PROVIDER NAME":"CARRICO, JEREMY","PROVIDER STATE":"Oklahoma","PROVIDER CITY":"TULSA","PROVIDER  ADDRESS":"10901 E 48th Street S","PROVIDER ZIP 5 CD":74146,"PROVIDER ZIP 4 CD":"","PROVIDER PHONE NUM":9187498765,"PROVIDER PHONE EXT":"","PROGRAM YEAR":2011},"geometry":{"type":"Point","coordinates":[-95.860783,36.093803]}},{"type":"Feature","id":"5132dd79a288f42e6735cce0","properties":{"_id":"5132dd79a288f42e6735cce0","PROVIDER NPI":1902801590,"PROVIDER NAME":"Carter, Bradley","PROVIDER STATE":"Oklahoma","PROVIDER CITY":"Oklahoma City","PROVIDER  ADDRESS":"3366 NW Expressway, Ste 550","PROVIDER ZIP 5 CD":73112,"PROVIDER ZIP 4 CD":4489,"PROVIDER PHONE NUM":4059425442,"PROVIDER PHONE EXT":"","PROGRAM YEAR":2011},"geometry":{"type":"Point","coordinates":[-97.62248,35.570926]}},{"type":"Feature","id":"5132dd79a288f42e6735cce1","properties":{"_id":"5132dd79a288f42e6735cce1","PROVIDER NPI":1730129750,"PROVIDER NAME":"Carter, Charles","PROVIDER STATE":"Oklahoma","PROVIDER CITY":"Altus","PROVIDER  ADDRESS":"1015 E Broadway St, Suite 102","PROVIDER ZIP 5 CD":73521,"PROVIDER ZIP 4 CD":5520,"PROVIDER PHONE NUM":5804801600,"PROVIDER PHONE EXT":6,"PROGRAM YEAR":2011},"geometry":{"type":"Point","coordinates":[-99.321769,34.637865]}},{"type":"Feature","id":"5132dd79a288f42e6735cce2","properties":{"_id":"5132dd79a288f42e6735cce2","PROVIDER NPI":1720002736,"PROVIDER NAME":"Cash, David","PROVIDER STATE":"Oklahoma","PROVIDER CITY":"Owasso","PROVIDER  ADDRESS":"12720 E 86th St N","PROVIDER ZIP 5 CD":74055,"PROVIDER ZIP 4 CD":2548,"PROVIDER PHONE NUM":9182725311,"PROVIDER PHONE EXT":"","PROGRAM YEAR":2011},"geometry":{"type":"Point","coordinates":[-95.834381,36.278425]}},{"type":"Feature","id":"5132dd79a288f42e6735cce3","properties":{"_id":"5132dd79a288f42e6735cce3","PROVIDER NPI":1902889769,"PROVIDER NAME":"Cash, James","PROVIDER STATE":"Oklahoma","PROVIDER CITY":"Tulsa","PROVIDER  ADDRESS":"6585 S Yale Ave, Suite 200","PROVIDER ZIP 5 CD":74136,"PROVIDER ZIP 4 CD":8384,"PROVIDER PHONE NUM":9184812767,"PROVIDER PHONE EXT":"","PROGRAM YEAR":2011},"geometry":{"type":"Point","coordinates":[-95.92215,36.074255]}},{"type":"Feature","id":"5132dd79a288f42e6735cce4","properties":{"_id":"5132dd79a288f42e6735cce4","PROVIDER NPI":1407919269,"PROVIDER NAME":"CASTRO, ROBERT","PROVIDER STATE":"Oklahoma","PROVIDER CITY":"EL RENO","PROVIDER  ADDRESS":"1631 A EAST HWY 66","PROVIDER ZIP 5 CD":73036,"PROVIDER ZIP 4 CD":"","PROVIDER PHONE NUM":4052627631,"PROVIDER PHONE EXT":"","PROGRAM YEAR":2011},"geometry":{"type":"Point","coordinates":[-97.936089,35.507993]}},{"type":"Feature","id":"5132dd79a288f42e6735cce5","properties":{"_id":"5132dd79a288f42e6735cce5","PROVIDER NPI":1558303909,"PROVIDER NAME":"Chainakul, Nicole","PROVIDER STATE":"Oklahoma","PROVIDER CITY":"Owasso","PROVIDER  ADDRESS":"10512 N. 110th E Ave, Ste 200","PROVIDER ZIP 5 CD":74055,"PROVIDER ZIP 4 CD":6636,"PROVIDER PHONE NUM":9183768450,"PROVIDER PHONE EXT":"","PROGRAM YEAR":2011},"geometry":{"type":"Point","coordinates":[-95.851649,36.300271]}},{"type":"Feature","id":"5132dd79a288f42e6735cce6","properties":{"_id":"5132dd79a288f42e6735cce6","PROVIDER NPI":1881613701,"PROVIDER NAME":"Chambers, Susan","PROVIDER STATE":"Oklahoma","PROVIDER CITY":"Oklahoma City","PROVIDER  ADDRESS":"11200 N Portland Ave, 2ND Floor","PROVIDER ZIP 5 CD":73120,"PROVIDER ZIP 4 CD":5045,"PROVIDER PHONE NUM":4059361000,"PROVIDER PHONE EXT":"","PROGRAM YEAR":2011},"geometry":{"type":"Point","coordinates":[-97.582783,35.584878]}},{"type":"Feature","id":"5132dd79a288f42e6735cce7","properties":{"_id":"5132dd79a288f42e6735cce7","PROVIDER NPI":1649376427,"PROVIDER NAME":"Chandrasekaran, Suresh","PROVIDER STATE":"Oklahoma","PROVIDER CITY":"Midwest City","PROVIDER  ADDRESS":"8121 National Ave, Suite 200","PROVIDER ZIP 5 CD":73110,"PROVIDER ZIP 4 CD":"","PROVIDER PHONE NUM":4057373802,"PROVIDER PHONE EXT":"","PROGRAM YEAR":2011},"geometry":{"type":"Point","coordinates":[-97.387243,35.466442]}},{"type":"Feature","id":"5132dd79a288f42e6735cce8","properties":{"_id":"5132dd79a288f42e6735cce8","PROVIDER NPI":1174593461,"PROVIDER NAME":"Chandwaney, Rajesh","PROVIDER STATE":"Oklahoma","PROVIDER CITY":"Tulsa","PROVIDER  ADDRESS":"1265 S Utica Ave, Suite 300","PROVIDER ZIP 5 CD":74104,"PROVIDER ZIP 4 CD":4243,"PROVIDER PHONE NUM":9185920999,"PROVIDER PHONE EXT":"","PROGRAM YEAR":2011},"geometry":{"type":"Point","coordinates":[-95.967087,36.144801]}},{"type":"Feature","id":"5132dd79a288f42e6735cce9","properties":{"_id":"5132dd79a288f42e6735cce9","PROVIDER NPI":1457343402,"PROVIDER NAME":"Chansolme, David","PROVIDER STATE":"Oklahoma","PROVIDER CITY":"Oklahoma City","PROVIDER  ADDRESS":"4221 S Western Ave, #4010","PROVIDER ZIP 5 CD":73109,"PROVIDER ZIP 4 CD":3447,"PROVIDER PHONE NUM":4056446464,"PROVIDER PHONE EXT":"","PROGRAM YEAR":2011},"geometry":{"type":"Point","coordinates":[-97.530292,35.422276]}},{"type":"Feature","id":"5132dd79a288f42e6735ccea","properties":{"_id":"5132dd79a288f42e6735ccea","PROVIDER NPI":1386634905,"PROVIDER NAME":"Cheek, Bennie","PROVIDER STATE":"Oklahoma","PROVIDER CITY":"Muldrow","PROVIDER  ADDRESS":"710 E Shawntel Smith Blvd, Suite B","PROVIDER ZIP 5 CD":74948,"PROVIDER ZIP 4 CD":"","PROVIDER PHONE NUM":9184273294,"PROVIDER PHONE EXT":"","PROGRAM YEAR":2011},"geometry":{"type":"Point","coordinates":[-94.5711,35.405459]}},{"type":"Feature","id":"5132dd79a288f42e6735cceb","properties":{"_id":"5132dd79a288f42e6735cceb","PROVIDER NPI":1093714008,"PROVIDER NAME":"Chesler, Donald","PROVIDER STATE":"Oklahoma","PROVIDER CITY":"Midwest City","PROVIDER  ADDRESS":"801 N Air Depot Blvd","PROVIDER ZIP 5 CD":73110,"PROVIDER ZIP 4 CD":3760,"PROVIDER PHONE NUM":4057361500,"PROVIDER PHONE EXT":10,"PROGRAM YEAR":2011},"geometry":{"type":"Point","coordinates":[-97.406492,35.475383]}},{"type":"Feature","id":"5132dd79a288f42e6735ccec","properties":{"_id":"5132dd79a288f42e6735ccec","PROVIDER NPI":1386793156,"PROVIDER NAME":"Chohan, Asim","PROVIDER STATE":"Oklahoma","PROVIDER CITY":"Midwest City","PROVIDER  ADDRESS":"8121 National Ave, Suite 400","PROVIDER ZIP 5 CD":73110,"PROVIDER ZIP 4 CD":7530,"PROVIDER PHONE NUM":4057339500,"PROVIDER PHONE EXT":"","PROGRAM YEAR":2011},"geometry":{"type":"Point","coordinates":[-97.387243,35.466442]}},{"type":"Feature","id":"5132dd79a288f42e6735cced","properties":{"_id":"5132dd79a288f42e6735cced","PROVIDER NPI":1538130943,"PROVIDER NAME":"Chopra, Karen","PROVIDER STATE":"Oklahoma","PROVIDER CITY":"Oklahoma City","PROVIDER  ADDRESS":"4120 N Classen Blvd, Suite A","PROVIDER ZIP 5 CD":73118,"PROVIDER ZIP 4 CD":2422,"PROVIDER PHONE NUM":4052363736,"PROVIDER PHONE EXT":"","PROGRAM YEAR":2011},"geometry":{"type":"Point","coordinates":[-97.526847,35.531994]}},{"type":"Feature","id":"5132dd79a288f42e6735ccee","properties":{"_id":"5132dd79a288f42e6735ccee","PROVIDER NPI":1952399024,"PROVIDER NAME":"Chopra, Sandeep","PROVIDER STATE":"Oklahoma","PROVIDER CITY":"Oklahoma City","PROVIDER  ADDRESS":"4120 N Classen Blvd, Suite 100","PROVIDER ZIP 5 CD":73118,"PROVIDER ZIP 4 CD":2422,"PROVIDER PHONE NUM":4052363736,"PROVIDER PHONE EXT":"","PROGRAM YEAR":2011},"geometry":{"type":"Point","coordinates":[-97.534385,35.522357]}},{"type":"Feature","id":"5132dd79a288f42e6735ccef","properties":{"_id":"5132dd79a288f42e6735ccef","PROVIDER NPI":1538111976,"PROVIDER NAME":"Chow, Christopher","PROVIDER STATE":"Oklahoma","PROVIDER CITY":"Broken Arrow","PROVIDER  ADDRESS":"1551 N 9th St","PROVIDER ZIP 5 CD":74012,"PROVIDER ZIP 4 CD":8898,"PROVIDER PHONE NUM":9184553627,"PROVIDER PHONE EXT":"","PROGRAM YEAR":2011},"geometry":{"type":"Point","coordinates":[-95.779506,36.059398]}},{"type":"Feature","id":"5132dd79a288f42e6735ccf0","properties":{"_id":"5132dd79a288f42e6735ccf0","PROVIDER NPI":1437213063,"PROVIDER NAME":"Christensen, Bobby","PROVIDER STATE":"Oklahoma","PROVIDER CITY":"Midwest City","PROVIDER  ADDRESS":"2008 S. Post Road","PROVIDER ZIP 5 CD":73130,"PROVIDER ZIP 4 CD":"","PROVIDER PHONE NUM":4057322277,"PROVIDER PHONE EXT":"","PROGRAM YEAR":2011},"geometry":{"type":"Point","coordinates":[-97.353163,35.445412]}},{"type":"Feature","id":"5132dd79a288f42e6735ccf1","properties":{"_id":"5132dd79a288f42e6735ccf1","PROVIDER NPI":1528122140,"PROVIDER NAME":"Christensen, Corey","PROVIDER STATE":"Oklahoma","PROVIDER CITY":"Midwest City","PROVIDER  ADDRESS":"2008 S. Post Road","PROVIDER ZIP 5 CD":73130,"PROVIDER ZIP 4 CD":"","PROVIDER PHONE NUM":4057322277,"PROVIDER PHONE EXT":"","PROGRAM YEAR":2011},"geometry":{"type":"Point","coordinates":[-97.353163,35.445412]}},{"type":"Feature","id":"5132dd79a288f42e6735ccf2","properties":{"_id":"5132dd79a288f42e6735ccf2","PROVIDER NPI":1841385325,"PROVIDER NAME":"Chung, Jinok","PROVIDER STATE":"Oklahoma","PROVIDER CITY":"McAlester","PROVIDER  ADDRESS":"2 Clark Bass Blvd, Suite 301","PROVIDER ZIP 5 CD":74501,"PROVIDER ZIP 4 CD":"","PROVIDER PHONE NUM":6414244055,"PROVIDER PHONE EXT":"","PROGRAM YEAR":2011},"geometry":{"type":"Point","coordinates":[-95.750704,34.934253]}},{"type":"Feature","id":"5132dd79a288f42e6735ccf3","properties":{"_id":"5132dd79a288f42e6735ccf3","PROVIDER NPI":1851398986,"PROVIDER NAME":"Claflin, James","PROVIDER STATE":"Oklahoma","PROVIDER CITY":"Oklahoma City","PROVIDER  ADDRESS":"750 NE 13th St","PROVIDER ZIP 5 CD":73104,"PROVIDER ZIP 4 CD":5051,"PROVIDER PHONE NUM":4052350040,"PROVIDER PHONE EXT":"","PROGRAM YEAR":2011},"geometry":{"type":"Point","coordinates":[-97.500025,35.4824]}},{"type":"Feature","id":"5132dd79a288f42e6735ccf4","properties":{"_id":"5132dd79a288f42e6735ccf4","PROVIDER NPI":1932151560,"PROVIDER NAME":"Clapp, JaNae","PROVIDER STATE":"Oklahoma","PROVIDER CITY":"Norman","PROVIDER  ADDRESS":"701 E Robinson St, Suite A100","PROVIDER ZIP 5 CD":73071,"PROVIDER ZIP 4 CD":6652,"PROVIDER PHONE NUM":4053214644,"PROVIDER PHONE EXT":"","PROGRAM YEAR":2011},"geometry":{"type":"Point","coordinates":[-97.435933,35.232858]}},{"type":"Feature","id":"5132dd79a288f42e6735ccf5","properties":{"_id":"5132dd79a288f42e6735ccf5","PROVIDER NPI":1316142359,"PROVIDER NAME":"Cobb, Ester","PROVIDER STATE":"Oklahoma","PROVIDER CITY":"MIDWEST CITY","PROVIDER  ADDRESS":"1201 S DOUGLAS BLVD","PROVIDER ZIP 5 CD":73130,"PROVIDER ZIP 4 CD":5239,"PROVIDER PHONE NUM":4057396840,"PROVIDER PHONE EXT":"","PROGRAM YEAR":2011},"geometry":{"type":"Point","coordinates":[-97.370902,35.479834]}},{"type":"Feature","id":"5132dd79a288f42e6735ccf6","properties":{"_id":"5132dd79a288f42e6735ccf6","PROVIDER NPI":1316949894,"PROVIDER NAME":"Cockrell, Cherry","PROVIDER STATE":"Oklahoma","PROVIDER CITY":"Stillwater","PROVIDER  ADDRESS":"1711 W 6th Ave","PROVIDER ZIP 5 CD":74074,"PROVIDER ZIP 4 CD":4200,"PROVIDER PHONE NUM":4053721715,"PROVIDER PHONE EXT":"","PROGRAM YEAR":2011},"geometry":{"type":"Point","coordinates":[-97.079239,36.115788]}},{"type":"Feature","id":"5132dd79a288f42e6735ccf7","properties":{"_id":"5132dd79a288f42e6735ccf7","PROVIDER NPI":1295737872,"PROVIDER NAME":"Cockrell, David","PROVIDER STATE":"Oklahoma","PROVIDER CITY":"Stillwater","PROVIDER  ADDRESS":"1711 W 6th Ave","PROVIDER ZIP 5 CD":74074,"PROVIDER ZIP 4 CD":4200,"PROVIDER PHONE NUM":4053721715,"PROVIDER PHONE EXT":"","PROGRAM YEAR":2011},"geometry":{"type":"Point","coordinates":[-97.079239,36.115788]}},{"type":"Feature","id":"5132dd79a288f42e6735ccf8","properties":{"_id":"5132dd79a288f42e6735ccf8","PROVIDER NPI":1063541043,"PROVIDER NAME":"Cogert, Gregory","PROVIDER STATE":"Oklahoma","PROVIDER CITY":"Tulsa","PROVIDER  ADDRESS":"1265 S Utica Ave, Suite 300","PROVIDER ZIP 5 CD":74104,"PROVIDER ZIP 4 CD":4243,"PROVIDER PHONE NUM":9185920999,"PROVIDER PHONE EXT":"","PROGRAM YEAR":2011},"geometry":{"type":"Point","coordinates":[-95.967087,36.144801]}},{"type":"Feature","id":"5132dd79a288f42e6735ccf9","properties":{"_id":"5132dd79a288f42e6735ccf9","PROVIDER NPI":1639114507,"PROVIDER NAME":"Coles, Donald","PROVIDER STATE":"Oklahoma","PROVIDER CITY":"Oklahoma City","PROVIDER  ADDRESS":"11000 Hefner Pointe Dr","PROVIDER ZIP 5 CD":73120,"PROVIDER ZIP 4 CD":5039,"PROVIDER PHONE NUM":4057499655,"PROVIDER PHONE EXT":"","PROGRAM YEAR":2011},"geometry":{"type":"Point","coordinates":[-97.58294,35.582047]}},{"type":"Feature","id":"5132dd79a288f42e6735ccfa","properties":{"_id":"5132dd79a288f42e6735ccfa","PROVIDER NPI":1043350275,"PROVIDER NAME":"Collier, Jack","PROVIDER STATE":"Oklahoma","PROVIDER CITY":"Oklahoma City","PROVIDER  ADDRESS":"4050 W Memorial Rd, Third Floor","PROVIDER ZIP 5 CD":73120,"PROVIDER ZIP 4 CD":8382,"PROVIDER PHONE NUM":4056083800,"PROVIDER PHONE EXT":"","PROGRAM YEAR":2011},"geometry":{"type":"Point","coordinates":[-97.593522,35.608945]}},{"type":"Feature","id":"5132dd79a288f42e6735ccfb","properties":{"_id":"5132dd79a288f42e6735ccfb","PROVIDER NPI":1851316913,"PROVIDER NAME":"Colpitt, Debra","PROVIDER STATE":"Oklahoma","PROVIDER CITY":"Owasso","PROVIDER  ADDRESS":"10512 North 110th East Avenue","PROVIDER ZIP 5 CD":74055,"PROVIDER ZIP 4 CD":6638,"PROVIDER PHONE NUM":9183768900,"PROVIDER PHONE EXT":"","PROGRAM YEAR":2011},"geometry":{"type":"Point","coordinates":[-95.851649,36.300271]}},{"type":"Feature","id":"5132dd79a288f42e6735ccfc","properties":{"_id":"5132dd79a288f42e6735ccfc","PROVIDER NPI":1619053410,"PROVIDER NAME":"Confer, David","PROVIDER STATE":"Oklahoma","PROVIDER CITY":"Tulsa","PROVIDER  ADDRESS":"6585 S Yale Ave, Ste 640","PROVIDER ZIP 5 CD":74136,"PROVIDER ZIP 4 CD":8319,"PROVIDER PHONE NUM":9187283344,"PROVIDER PHONE EXT":"","PROGRAM YEAR":2011},"geometry":{"type":"Point","coordinates":[-95.92215,36.074255]}},{"type":"Feature","id":"5132dd79a288f42e6735ccfd","properties":{"_id":"5132dd79a288f42e6735ccfd","PROVIDER NPI":1841345709,"PROVIDER NAME":"Confer, Stephen","PROVIDER STATE":"Oklahoma","PROVIDER CITY":"Tulsa","PROVIDER  ADDRESS":"10901 E 48th Street S","PROVIDER ZIP 5 CD":74146,"PROVIDER ZIP 4 CD":5830,"PROVIDER PHONE NUM":9187498765,"PROVIDER PHONE EXT":"","PROGRAM YEAR":2011},"geometry":{"type":"Point","coordinates":[-95.860783,36.093803]}},{"type":"Feature","id":"5132dd79a288f42e6735ccfe","properties":{"_id":"5132dd79a288f42e6735ccfe","PROVIDER NPI":1184616070,"PROVIDER NAME":"Connery, Stephen","PROVIDER STATE":"Oklahoma","PROVIDER CITY":"Norman","PROVIDER  ADDRESS":"950 N Porter Ave, Suite300","PROVIDER ZIP 5 CD":73071,"PROVIDER ZIP 4 CD":6400,"PROVIDER PHONE NUM":4053290121,"PROVIDER PHONE EXT":"","PROGRAM YEAR":2011},"geometry":{"type":"Point","coordinates":[-97.436352,35.218334]}},{"type":"Feature","id":"5132dd79a288f42e6735ccff","properties":{"_id":"5132dd79a288f42e6735ccff","PROVIDER NPI":1912110578,"PROVIDER NAME":"Constance, Daniel","PROVIDER STATE":"Oklahoma","PROVIDER CITY":"Lawton","PROVIDER  ADDRESS":"5606 SW Lee Boulevard, Suite 203","PROVIDER ZIP 5 CD":73505,"PROVIDER ZIP 4 CD":9689,"PROVIDER PHONE NUM":5805361111,"PROVIDER PHONE EXT":"","PROGRAM YEAR":2011},"geometry":{"type":"Point","coordinates":[-98.460956,34.594279]}},{"type":"Feature","id":"5132dd79a288f42e6735cd00","properties":{"_id":"5132dd79a288f42e6735cd00","PROVIDER NPI":1326074113,"PROVIDER NAME":"Cook, Audra","PROVIDER STATE":"Oklahoma","PROVIDER CITY":"Moore","PROVIDER  ADDRESS":"700 S Telephone Rd, Suite 100","PROVIDER ZIP 5 CD":73160,"PROVIDER ZIP 4 CD":2502,"PROVIDER PHONE NUM":4059123120,"PROVIDER PHONE EXT":"","PROGRAM YEAR":2011},"geometry":{"type":"Point","coordinates":[-97.497565,35.345777]}},{"type":"Feature","id":"5132dd79a288f42e6735cd01","properties":{"_id":"5132dd79a288f42e6735cd01","PROVIDER NPI":1568448306,"PROVIDER NAME":"COOK, MELVIN","PROVIDER STATE":"Oklahoma","PROVIDER CITY":"Midwest City","PROVIDER  ADDRESS":"1201 S Douglas Blvd","PROVIDER ZIP 5 CD":73130,"PROVIDER ZIP 4 CD":5239,"PROVIDER PHONE NUM":4057396840,"PROVIDER PHONE EXT":"","PROGRAM YEAR":2011},"geometry":{"type":"Point","coordinates":[-97.370902,35.479834]}},{"type":"Feature","id":"5132dd79a288f42e6735cd02","properties":{"_id":"5132dd79a288f42e6735cd02","PROVIDER NPI":1578583423,"PROVIDER NAME":"COOK, WILLIAM","PROVIDER STATE":"Oklahoma","PROVIDER CITY":"Tulsa","PROVIDER  ADDRESS":"10901 E 48th Street S","PROVIDER ZIP 5 CD":74146,"PROVIDER ZIP 4 CD":5830,"PROVIDER PHONE NUM":9187498765,"PROVIDER PHONE EXT":"","PROGRAM YEAR":2011},"geometry":{"type":"Point","coordinates":[-95.860783,36.093803]}},{"type":"Feature","id":"5132dd79a288f42e6735cd03","properties":{"_id":"5132dd79a288f42e6735cd03","PROVIDER NPI":1255345294,"PROVIDER NAME":"Cooper, Donald","PROVIDER STATE":"Oklahoma","PROVIDER CITY":"Bristow","PROVIDER  ADDRESS":"700 W 7th Ave, Suite 103","PROVIDER ZIP 5 CD":74010,"PROVIDER ZIP 4 CD":2302,"PROVIDER PHONE NUM":9183675531,"PROVIDER PHONE EXT":"","PROGRAM YEAR":2011},"geometry":{"type":"Point","coordinates":[-96.401671,35.832302]}},{"type":"Feature","id":"5132dd79a288f42e6735cd04","properties":{"_id":"5132dd79a288f42e6735cd04","PROVIDER NPI":1043247703,"PROVIDER NAME":"Corley, Stanley","PROVIDER STATE":"Oklahoma","PROVIDER CITY":"Oklahoma City","PROVIDER  ADDRESS":"5201 W Memorial Rd","PROVIDER ZIP 5 CD":73142,"PROVIDER ZIP 4 CD":2004,"PROVIDER PHONE NUM":4057554050,"PROVIDER PHONE EXT":"","PROGRAM YEAR":2011},"geometry":{"type":"Point","coordinates":[-97.612285,35.609078]}},{"type":"Feature","id":"5132dd79a288f42e6735cd05","properties":{"_id":"5132dd79a288f42e6735cd05","PROVIDER NPI":1396763389,"PROVIDER NAME":"Cox, John","PROVIDER STATE":"Oklahoma","PROVIDER CITY":"Lawton","PROVIDER  ADDRESS":"4417 W Gore Blvd, #5","PROVIDER ZIP 5 CD":73505,"PROVIDER ZIP 4 CD":6023,"PROVIDER PHONE NUM":5802480110,"PROVIDER PHONE EXT":"","PROGRAM YEAR":2011},"geometry":{"type":"Point","coordinates":[-98.448126,34.609015]}},{"type":"Feature","id":"5132dd79a288f42e6735cd06","properties":{"_id":"5132dd79a288f42e6735cd06","PROVIDER NPI":1144214370,"PROVIDER NAME":"Craven, Pamela","PROVIDER STATE":"Oklahoma","PROVIDER CITY":"Oklahoma City","PROVIDER  ADDRESS":"5401 N Portland Ave, Ste 380","PROVIDER ZIP 5 CD":73112,"PROVIDER ZIP 4 CD":2082,"PROVIDER PHONE NUM":4056044460,"PROVIDER PHONE EXT":"","PROGRAM YEAR":2011},"geometry":{"type":"Point","coordinates":[-97.583438,35.525203]}},{"type":"Feature","id":"5132dd79a288f42e6735cd07","properties":{"_id":"5132dd79a288f42e6735cd07","PROVIDER NPI":1467435313,"PROVIDER NAME":"Craven, Thomas","PROVIDER STATE":"Oklahoma","PROVIDER CITY":"Tulsa","PROVIDER  ADDRESS":"6585 S Yale Ave, Suite 200","PROVIDER ZIP 5 CD":74136,"PROVIDER ZIP 4 CD":8384,"PROVIDER PHONE NUM":9184812767,"PROVIDER PHONE EXT":"","PROGRAM YEAR":2011},"geometry":{"type":"Point","coordinates":[-95.92215,36.074255]}},{"type":"Feature","id":"5132dd79a288f42e6735cd08","properties":{"_id":"5132dd79a288f42e6735cd08","PROVIDER NPI":1144325655,"PROVIDER NAME":"CREED, RICHARD","PROVIDER STATE":"Oklahoma","PROVIDER CITY":"Muskogee","PROVIDER  ADDRESS":"3705 W Broadway St","PROVIDER ZIP 5 CD":74401,"PROVIDER ZIP 4 CD":2142,"PROVIDER PHONE NUM":9186877530,"PROVIDER PHONE EXT":"","PROGRAM YEAR":2011},"geometry":{"type":"Point","coordinates":[-95.408282,35.75594]}},{"type":"Feature","id":"5132dd79a288f42e6735cd09","properties":{"_id":"5132dd79a288f42e6735cd09","PROVIDER NPI":1730180324,"PROVIDER NAME":"Crook, Jeffrey","PROVIDER STATE":"Oklahoma","PROVIDER CITY":"Norman","PROVIDER  ADDRESS":"3400 W Tecumseh Rd, Suite 300","PROVIDER ZIP 5 CD":73071,"PROVIDER ZIP 4 CD":6424,"PROVIDER PHONE NUM":4055152222,"PROVIDER PHONE EXT":"","PROGRAM YEAR":2011},"geometry":{"type":"Point","coordinates":[-97.293951,35.261938]}},{"type":"Feature","id":"5132dd79a288f42e6735cd0a","properties":{"_id":"5132dd79a288f42e6735cd0a","PROVIDER NPI":1497890115,"PROVIDER NAME":"Crouch, Jason","PROVIDER STATE":"Oklahoma","PROVIDER CITY":"Chandler","PROVIDER  ADDRESS":"806 Manvel Ave","PROVIDER ZIP 5 CD":74834,"PROVIDER ZIP 4 CD":3858,"PROVIDER PHONE NUM":4052589955,"PROVIDER PHONE EXT":"","PROGRAM YEAR":2011},"geometry":{"type":"Point","coordinates":[-96.880645,35.702528]}},{"type":"Feature","id":"5132dd79a288f42e6735cd0b","properties":{"_id":"5132dd79a288f42e6735cd0b","PROVIDER NPI":1033192703,"PROVIDER NAME":"Culp, Marilyn","PROVIDER STATE":"Oklahoma","PROVIDER CITY":"Tulsa","PROVIDER  ADDRESS":"9245 S Mingo Rd","PROVIDER ZIP 5 CD":74133,"PROVIDER ZIP 4 CD":5793,"PROVIDER PHONE NUM":9183927500,"PROVIDER PHONE EXT":"","PROGRAM YEAR":2011},"geometry":{"type":"Point","coordinates":[-95.868429,36.029869]}},{"type":"Feature","id":"5132dd79a288f42e6735cd0c","properties":{"_id":"5132dd79a288f42e6735cd0c","PROVIDER NPI":1700839883,"PROVIDER NAME":"Dagg, Kathy","PROVIDER STATE":"Oklahoma","PROVIDER CITY":"Norman","PROVIDER  ADDRESS":"701 E Robinson St, Suite A 100","PROVIDER ZIP 5 CD":73071,"PROVIDER ZIP 4 CD":6652,"PROVIDER PHONE NUM":4053214644,"PROVIDER PHONE EXT":"","PROGRAM YEAR":2011},"geometry":{"type":"Point","coordinates":[-97.42324,35.193081]}},{"type":"Feature","id":"5132dd79a288f42e6735cd0d","properties":{"_id":"5132dd79a288f42e6735cd0d","PROVIDER NPI":1205975224,"PROVIDER NAME":"Davis, Cole","PROVIDER STATE":"Oklahoma","PROVIDER CITY":"Tulsa","PROVIDER  ADDRESS":"10901 E 48th Street S","PROVIDER ZIP 5 CD":74146,"PROVIDER ZIP 4 CD":5830,"PROVIDER PHONE NUM":9187498765,"PROVIDER PHONE EXT":"","PROGRAM YEAR":2011},"geometry":{"type":"Point","coordinates":[-95.860783,36.093803]}},{"type":"Feature","id":"5132dd79a288f42e6735cd0e","properties":{"_id":"5132dd79a288f42e6735cd0e","PROVIDER NPI":1023023447,"PROVIDER NAME":"Davis, Franklin","PROVIDER STATE":"Oklahoma","PROVIDER CITY":"Edmond","PROVIDER  ADDRESS":"1208 W 15th St","PROVIDER ZIP 5 CD":73013,"PROVIDER ZIP 4 CD":3001,"PROVIDER PHONE NUM":4053402100,"PROVIDER PHONE EXT":"","PROGRAM YEAR":2011},"geometry":{"type":"Point","coordinates":[-97.499904,35.63824]}},{"type":"Feature","id":"5132dd79a288f42e6735cd0f","properties":{"_id":"5132dd79a288f42e6735cd0f","PROVIDER NPI":1588614960,"PROVIDER NAME":"Day, Marshall","PROVIDER STATE":"Oklahoma","PROVIDER CITY":"Clinton","PROVIDER  ADDRESS":"517 S 30th","PROVIDER ZIP 5 CD":73601,"PROVIDER ZIP 4 CD":"","PROVIDER PHONE NUM":5803235421,"PROVIDER PHONE EXT":"","PROGRAM YEAR":2011},"geometry":{"type":"Point","coordinates":[-98.997071,35.510461]}},{"type":"Feature","id":"5132dd79a288f42e6735cd10","properties":{"_id":"5132dd79a288f42e6735cd10","PROVIDER NPI":1437130762,"PROVIDER NAME":"Dempewolf, Scott","PROVIDER STATE":"Oklahoma","PROVIDER CITY":"Ardmore","PROVIDER  ADDRESS":"2002 12th Ave NW, SUITE D","PROVIDER ZIP 5 CD":73401,"PROVIDER ZIP 4 CD":1206,"PROVIDER PHONE NUM":5802268646,"PROVIDER PHONE EXT":"","PROGRAM YEAR":2011},"geometry":{"type":"Point","coordinates":[-97.150606,34.197862]}},{"type":"Feature","id":"5132dd79a288f42e6735cd11","properties":{"_id":"5132dd79a288f42e6735cd11","PROVIDER NPI":1659363463,"PROVIDER NAME":"Deng, Zeming","PROVIDER STATE":"Oklahoma","PROVIDER CITY":"Midwest City","PROVIDER  ADDRESS":"2801 S Douglas Blvd, Suite 108","PROVIDER ZIP 5 CD":73130,"PROVIDER ZIP 4 CD":7194,"PROVIDER PHONE NUM":4057373278,"PROVIDER PHONE EXT":"","PROGRAM YEAR":2011},"geometry":{"type":"Point","coordinates":[-97.370856,35.438209]}},{"type":"Feature","id":"5132dd79a288f42e6735cd12","properties":{"_id":"5132dd79a288f42e6735cd12","PROVIDER NPI":1508976051,"PROVIDER NAME":"Dennis, Gregory","PROVIDER STATE":"Oklahoma","PROVIDER CITY":"Mustang","PROVIDER  ADDRESS":"501 N Mustang Rd, Ste D","PROVIDER ZIP 5 CD":73064,"PROVIDER ZIP 4 CD":7048,"PROVIDER PHONE NUM":4053760376,"PROVIDER PHONE EXT":"","PROGRAM YEAR":2011},"geometry":{"type":"Point","coordinates":[-97.724662,35.394681]}},{"type":"Feature","id":"5132dd79a288f42e6735cd13","properties":{"_id":"5132dd79a288f42e6735cd13","PROVIDER NPI":1083724546,"PROVIDER NAME":"Dennis, Lydia","PROVIDER STATE":"Oklahoma","PROVIDER CITY":"Mustang","PROVIDER  ADDRESS":"501 N Mustang Rd, Ste D","PROVIDER ZIP 5 CD":73064,"PROVIDER ZIP 4 CD":7048,"PROVIDER PHONE NUM":4053760376,"PROVIDER PHONE EXT":"","PROGRAM YEAR":2011},"geometry":{"type":"Point","coordinates":[-97.724662,35.394681]}},{"type":"Feature","id":"5132dd79a288f42e6735cd14","properties":{"_id":"5132dd79a288f42e6735cd14","PROVIDER NPI":1154391993,"PROVIDER NAME":"DesPrez, Roger","PROVIDER STATE":"Oklahoma","PROVIDER CITY":"Tulsa","PROVIDER  ADDRESS":"1265 S Utica Ave, Suite 300","PROVIDER ZIP 5 CD":74104,"PROVIDER ZIP 4 CD":4243,"PROVIDER PHONE NUM":9185920999,"PROVIDER PHONE EXT":"","PROGRAM YEAR":2011},"geometry":{"type":"Point","coordinates":[-95.967087,36.144801]}},{"type":"Feature","id":"5132dd79a288f42e6735cd15","properties":{"_id":"5132dd79a288f42e6735cd15","PROVIDER NPI":1548205214,"PROVIDER NAME":"Dewberry, Glenn","PROVIDER STATE":"Oklahoma","PROVIDER CITY":"Bethany","PROVIDER  ADDRESS":"2701 N Rockwell Ave","PROVIDER ZIP 5 CD":73008,"PROVIDER ZIP 4 CD":5246,"PROVIDER PHONE NUM":4057554050,"PROVIDER PHONE EXT":"","PROGRAM YEAR":2011},"geometry":{"type":"Point","coordinates":[-97.636728,35.496531]}},{"type":"Feature","id":"5132dd79a288f42e6735cd16","properties":{"_id":"5132dd79a288f42e6735cd16","PROVIDER NPI":1265622823,"PROVIDER NAME":"Di Gregorio, Michael","PROVIDER STATE":"Oklahoma","PROVIDER CITY":"Oklahoma City","PROVIDER  ADDRESS":"10710 N May","PROVIDER ZIP 5 CD":73120,"PROVIDER ZIP 4 CD":2605,"PROVIDER PHONE NUM":4056084288,"PROVIDER PHONE EXT":"","PROGRAM YEAR":2011},"geometry":{"type":"Point","coordinates":[-97.567186,35.579155]}},{"type":"Feature","id":"5132dd79a288f42e6735cd17","properties":{"_id":"5132dd79a288f42e6735cd17","PROVIDER NPI":1962433748,"PROVIDER NAME":"Dickerson, Charles","PROVIDER STATE":"Oklahoma","PROVIDER CITY":"Duncan","PROVIDER  ADDRESS":"1601 Brookwood","PROVIDER ZIP 5 CD":73533,"PROVIDER ZIP 4 CD":"","PROVIDER PHONE NUM":"","PROVIDER PHONE EXT":"","PROGRAM YEAR":2011},"geometry":{"type":"Point","coordinates":[-97.978778,34.523105]}},{"type":"Feature","id":"5132dd79a288f42e6735cd18","properties":{"_id":"5132dd79a288f42e6735cd18","PROVIDER NPI":1609078559,"PROVIDER NAME":"Dickerson, Tina","PROVIDER STATE":"Oklahoma","PROVIDER CITY":"Edmond","PROVIDER  ADDRESS":"2601 Kelley Pointe Pkwy, Ste. 101","PROVIDER ZIP 5 CD":73013,"PROVIDER ZIP 4 CD":2995,"PROVIDER PHONE NUM":4058442601,"PROVIDER PHONE EXT":"","PROGRAM YEAR":2011},"geometry":{"type":"Point","coordinates":[-97.41077,35.573633]}},{"type":"Feature","id":"5132dd79a288f42e6735cd19","properties":{"_id":"5132dd79a288f42e6735cd19","PROVIDER NPI":1982675435,"PROVIDER NAME":"Dickinson, Gary","PROVIDER STATE":"Oklahoma","PROVIDER CITY":"Edmond","PROVIDER  ADDRESS":"1575 N Santa Fe Ave","PROVIDER ZIP 5 CD":73003,"PROVIDER ZIP 4 CD":3638,"PROVIDER PHONE NUM":4052850660,"PROVIDER PHONE EXT":"","PROGRAM YEAR":2011},"geometry":{"type":"Point","coordinates":[-97.514117,35.670377]}},{"type":"Feature","id":"5132dd79a288f42e6735cd1a","properties":{"_id":"5132dd79a288f42e6735cd1a","PROVIDER NPI":1790729895,"PROVIDER NAME":"Dixson, Jimmy","PROVIDER STATE":"Oklahoma","PROVIDER CITY":"Oklahoma City","PROVIDER  ADDRESS":"4300 W Memorial Rd","PROVIDER ZIP 5 CD":73120,"PROVIDER ZIP 4 CD":8304,"PROVIDER PHONE NUM":4059365800,"PROVIDER PHONE EXT":"","PROGRAM YEAR":2011},"geometry":{"type":"Point","coordinates":[-97.600915,35.609023]}},{"type":"Feature","id":"5132dd79a288f42e6735cd1b","properties":{"_id":"5132dd79a288f42e6735cd1b","PROVIDER NPI":1831176916,"PROVIDER NAME":"Dodd, Maryellen","PROVIDER STATE":"Oklahoma","PROVIDER CITY":"Midwest City","PROVIDER  ADDRESS":"801 N Air Depot Blvd","PROVIDER ZIP 5 CD":73110,"PROVIDER ZIP 4 CD":3760,"PROVIDER PHONE NUM":4057339516,"PROVIDER PHONE EXT":"","PROGRAM YEAR":2011},"geometry":{"type":"Point","coordinates":[-97.406492,35.475383]}},{"type":"Feature","id":"5132dd79a288f42e6735cd1c","properties":{"_id":"5132dd79a288f42e6735cd1c","PROVIDER NPI":1801830138,"PROVIDER NAME":"Donat, Paul","PROVIDER STATE":"Oklahoma","PROVIDER CITY":"Oklahoma City","PROVIDER  ADDRESS":"11000 Hefner Pointe Dr","PROVIDER ZIP 5 CD":73120,"PROVIDER ZIP 4 CD":5039,"PROVIDER PHONE NUM":4057499655,"PROVIDER PHONE EXT":"","PROGRAM YEAR":2011},"geometry":{"type":"Point","coordinates":[-97.58294,35.582047]}},{"type":"Feature","id":"5132dd79a288f42e6735cd1d","properties":{"_id":"5132dd79a288f42e6735cd1d","PROVIDER NPI":1407051188,"PROVIDER NAME":"Douglas, Chad","PROVIDER STATE":"Oklahoma","PROVIDER CITY":"Oklahoma City","PROVIDER  ADDRESS":"4345 W Memorial Rd, Suite 110","PROVIDER ZIP 5 CD":73134,"PROVIDER ZIP 4 CD":1702,"PROVIDER PHONE NUM":4054187000,"PROVIDER PHONE EXT":"","PROGRAM YEAR":2011},"geometry":{"type":"Point","coordinates":[-97.59909,35.610337]}},{"type":"Feature","id":"5132dd79a288f42e6735cd1e","properties":{"_id":"5132dd79a288f42e6735cd1e","PROVIDER NPI":1164457255,"PROVIDER NAME":"Dowell, Matthew","PROVIDER STATE":"Oklahoma","PROVIDER CITY":"Oklahoma City","PROVIDER  ADDRESS":"6201 N Santa Fe Ave, Suite 2010","PROVIDER ZIP 5 CD":73118,"PROVIDER ZIP 4 CD":7538,"PROVIDER PHONE NUM":4052725555,"PROVIDER PHONE EXT":"","PROGRAM YEAR":2011},"geometry":{"type":"Point","coordinates":[-97.512048,35.534858]}},{"type":"Feature","id":"5132dd79a288f42e6735cd1f","properties":{"_id":"5132dd79a288f42e6735cd1f","PROVIDER NPI":1679694822,"PROVIDER NAME":"Doyle, Sean","PROVIDER STATE":"Oklahoma","PROVIDER CITY":"Tulsa","PROVIDER  ADDRESS":"10901 E 48th Street S","PROVIDER ZIP 5 CD":74146,"PROVIDER ZIP 4 CD":"","PROVIDER PHONE NUM":9187498765,"PROVIDER PHONE EXT":"","PROGRAM YEAR":2011},"geometry":{"type":"Point","coordinates":[-95.860783,36.093803]}},{"type":"Feature","id":"5132dd79a288f42e6735cd20","properties":{"_id":"5132dd79a288f42e6735cd20","PROVIDER NPI":1649214560,"PROVIDER NAME":"Drummond, Jonathan","PROVIDER STATE":"Oklahoma","PROVIDER CITY":"Stillwater","PROVIDER  ADDRESS":"420 S Knoblock St","PROVIDER ZIP 5 CD":74074,"PROVIDER ZIP 4 CD":3024,"PROVIDER PHONE NUM":4053722033,"PROVIDER PHONE EXT":"","PROGRAM YEAR":2011},"geometry":{"type":"Point","coordinates":[-97.065463,36.117565]}},{"type":"Feature","id":"5132dd79a288f42e6735cd21","properties":{"_id":"5132dd79a288f42e6735cd21","PROVIDER NPI":1356436406,"PROVIDER NAME":"Duda, Ralph","PROVIDER STATE":"Oklahoma","PROVIDER CITY":"Tulsa","PROVIDER  ADDRESS":"1265 S Utica Ave, Suite 300","PROVIDER ZIP 5 CD":74104,"PROVIDER ZIP 4 CD":4243,"PROVIDER PHONE NUM":9185920999,"PROVIDER PHONE EXT":"","PROGRAM YEAR":2011},"geometry":{"type":"Point","coordinates":[-95.967087,36.144801]}},{"type":"Feature","id":"5132dd79a288f42e6735cd22","properties":{"_id":"5132dd79a288f42e6735cd22","PROVIDER NPI":1437192903,"PROVIDER NAME":"Dye, D.","PROVIDER STATE":"Oklahoma","PROVIDER CITY":"Purcell","PROVIDER  ADDRESS":"1401 N 4th Ave, Suite 201","PROVIDER ZIP 5 CD":73080,"PROVIDER ZIP 4 CD":1806,"PROVIDER PHONE NUM":4055275400,"PROVIDER PHONE EXT":"","PROGRAM YEAR":2011},"geometry":{"type":"Point","coordinates":[-97.363338,35.027853]}},{"type":"Feature","id":"5132dd79a288f42e6735cd23","properties":{"_id":"5132dd79a288f42e6735cd23","PROVIDER NPI":1801882097,"PROVIDER NAME":"Ebert, Mark","PROVIDER STATE":"Oklahoma","PROVIDER CITY":"Stillwater","PROVIDER  ADDRESS":"1411 W 7th Ave, Ste 202","PROVIDER ZIP 5 CD":74074,"PROVIDER ZIP 4 CD":4300,"PROVIDER PHONE NUM":4056248222,"PROVIDER PHONE EXT":"","PROGRAM YEAR":2011},"geometry":{"type":"Point","coordinates":[-97.074885,36.114459]}},{"type":"Feature","id":"5132dd79a288f42e6735cd24","properties":{"_id":"5132dd79a288f42e6735cd24","PROVIDER NPI":1548269459,"PROVIDER NAME":"ELENBURG, DARREN","PROVIDER STATE":"Oklahoma","PROVIDER CITY":"Oklahoma City","PROVIDER  ADDRESS":"3705 NW 63rd St, STE 200","PROVIDER ZIP 5 CD":73116,"PROVIDER ZIP 4 CD":1935,"PROVIDER PHONE NUM":4054636700,"PROVIDER PHONE EXT":"","PROGRAM YEAR":2011},"geometry":{"type":"Point","coordinates":[-97.583533,35.536894]}},{"type":"Feature","id":"5132dd79a288f42e6735cd25","properties":{"_id":"5132dd79a288f42e6735cd25","PROVIDER NPI":1679595144,"PROVIDER NAME":"Ellis, Bobby","PROVIDER STATE":"Oklahoma","PROVIDER CITY":"Ardmore","PROVIDER  ADDRESS":"921 14th Ave NW","PROVIDER ZIP 5 CD":73401,"PROVIDER ZIP 4 CD":1837,"PROVIDER PHONE NUM":5802235311,"PROVIDER PHONE EXT":"","PROGRAM YEAR":2011},"geometry":{"type":"Point","coordinates":[-97.139208,34.188517]}},{"type":"Feature","id":"5132dd79a288f42e6735cd26","properties":{"_id":"5132dd79a288f42e6735cd26","PROVIDER NPI":1205832607,"PROVIDER NAME":"Ellis, Christian","PROVIDER STATE":"Oklahoma","PROVIDER CITY":"Oklahoma City","PROVIDER  ADDRESS":"4140 W Memorial Rd, Ste. 615","PROVIDER ZIP 5 CD":73120,"PROVIDER ZIP 4 CD":8366,"PROVIDER PHONE NUM":4057494255,"PROVIDER PHONE EXT":"","PROGRAM YEAR":2011},"geometry":{"type":"Point","coordinates":[-97.5959,35.608956]}},{"type":"Feature","id":"5132dd79a288f42e6735cd27","properties":{"_id":"5132dd79a288f42e6735cd27","PROVIDER NPI":1417975079,"PROVIDER NAME":"Ellis, Scott","PROVIDER STATE":"Oklahoma","PROVIDER CITY":"Elk City","PROVIDER  ADDRESS":"901 N Main St","PROVIDER ZIP 5 CD":73644,"PROVIDER ZIP 4 CD":2828,"PROVIDER PHONE NUM":5802431121,"PROVIDER PHONE EXT":"","PROGRAM YEAR":2011},"geometry":{"type":"Point","coordinates":[-99.404832,35.420382]}},{"type":"Feature","id":"5132dd79a288f42e6735cd28","properties":{"_id":"5132dd79a288f42e6735cd28","PROVIDER NPI":1124169479,"PROVIDER NAME":"Elya, Marwan","PROVIDER STATE":"Oklahoma","PROVIDER CITY":"Oklahoma City","PROVIDER  ADDRESS":"4200 W Memorial Road","PROVIDER ZIP 5 CD":73120,"PROVIDER ZIP 4 CD":"","PROVIDER PHONE NUM":4057551515,"PROVIDER PHONE EXT":"","PROGRAM YEAR":2011},"geometry":{"type":"Point","coordinates":[-97.597887,35.609027]}},{"type":"Feature","id":"5132dd79a288f42e6735cd29","properties":{"_id":"5132dd79a288f42e6735cd29","PROVIDER NPI":1801889373,"PROVIDER NAME":"EMDE, GILBERT","PROVIDER STATE":"Oklahoma","PROVIDER CITY":"Stillwater","PROVIDER  ADDRESS":"821 S Walnut St","PROVIDER ZIP 5 CD":74074,"PROVIDER ZIP 4 CD":4226,"PROVIDER PHONE NUM":4053724646,"PROVIDER PHONE EXT":"","PROGRAM YEAR":2011},"geometry":{"type":"Point","coordinates":[-97.078241,36.11317]}},{"type":"Feature","id":"5132dd79a288f42e6735cd2a","properties":{"_id":"5132dd79a288f42e6735cd2a","PROVIDER NPI":1306861828,"PROVIDER NAME":"ENGELBRECHT, VALERIE","PROVIDER STATE":"Oklahoma","PROVIDER CITY":"Oklahoma City","PROVIDER  ADDRESS":"11200 N Portland Ave","PROVIDER ZIP 5 CD":73120,"PROVIDER ZIP 4 CD":5045,"PROVIDER PHONE NUM":4059361000,"PROVIDER PHONE EXT":"","PROGRAM YEAR":2011},"geometry":{"type":"Point","coordinates":[-97.582783,35.584878]}},{"type":"Feature","id":"5132dd79a288f42e6735cd2b","properties":{"_id":"5132dd79a288f42e6735cd2b","PROVIDER NPI":1215991625,"PROVIDER NAME":"Engelman, Paul","PROVIDER STATE":"Oklahoma","PROVIDER CITY":"Lawton","PROVIDER  ADDRESS":"5606 SW Lee Blvd, Suite 301","PROVIDER ZIP 5 CD":73505,"PROVIDER ZIP 4 CD":"","PROVIDER PHONE NUM":8602625868,"PROVIDER PHONE EXT":"","PROGRAM YEAR":2011},"geometry":{"type":"Point","coordinates":[-98.460956,34.594279]}},{"type":"Feature","id":"5132dd79a288f42e6735cd2c","properties":{"_id":"5132dd79a288f42e6735cd2c","PROVIDER NPI":1396783056,"PROVIDER NAME":"Ennamuri, Kumar","PROVIDER STATE":"Oklahoma","PROVIDER CITY":"Norman","PROVIDER  ADDRESS":"1818 W Lindsey St, Suite C-100","PROVIDER ZIP 5 CD":73069,"PROVIDER ZIP 4 CD":4159,"PROVIDER PHONE NUM":8174663408,"PROVIDER PHONE EXT":"","PROGRAM YEAR":2011},"geometry":{"type":"Point","coordinates":[-97.468005,35.203832]}},{"type":"Feature","id":"5132dd79a288f42e6735cd2d","properties":{"_id":"5132dd79a288f42e6735cd2d","PROVIDER NPI":1245271360,"PROVIDER NAME":"Ensley, Eric","PROVIDER STATE":"Oklahoma","PROVIDER CITY":"Idabel","PROVIDER  ADDRESS":"1420 SE Washington St","PROVIDER ZIP 5 CD":74745,"PROVIDER ZIP 4 CD":3448,"PROVIDER PHONE NUM":5802866546,"PROVIDER PHONE EXT":"","PROGRAM YEAR":2011},"geometry":{"type":"Point","coordinates":[-94.810863,33.895453]}},{"type":"Feature","id":"5132dd79a288f42e6735cd2e","properties":{"_id":"5132dd79a288f42e6735cd2e","PROVIDER NPI":1710914718,"PROVIDER NAME":"Esparza, Natalie","PROVIDER STATE":"Oklahoma","PROVIDER CITY":"Oklahoma City","PROVIDER  ADDRESS":"11000 Hefner Pointe Dr","PROVIDER ZIP 5 CD":73120,"PROVIDER ZIP 4 CD":5039,"PROVIDER PHONE NUM":4057499655,"PROVIDER PHONE EXT":"","PROGRAM YEAR":2011},"geometry":{"type":"Point","coordinates":[-97.58294,35.582047]}},{"type":"Feature","id":"5132dd79a288f42e6735cd2f","properties":{"_id":"5132dd79a288f42e6735cd2f","PROVIDER NPI":1659391464,"PROVIDER NAME":"Evans, Craig","PROVIDER STATE":"Oklahoma","PROVIDER CITY":"Edmond","PROVIDER  ADDRESS":"1208 W 15th St","PROVIDER ZIP 5 CD":73013,"PROVIDER ZIP 4 CD":3001,"PROVIDER PHONE NUM":4053402100,"PROVIDER PHONE EXT":"","PROGRAM YEAR":2011},"geometry":{"type":"Point","coordinates":[-97.499904,35.63824]}},{"type":"Feature","id":"5132dd79a288f42e6735cd30","properties":{"_id":"5132dd79a288f42e6735cd30","PROVIDER NPI":1639158355,"PROVIDER NAME":"Evans, Frank","PROVIDER STATE":"Oklahoma","PROVIDER CITY":"Stillwater","PROVIDER  ADDRESS":"1921 W 6th Ave Ste A","PROVIDER ZIP 5 CD":74074,"PROVIDER ZIP 4 CD":4204,"PROVIDER PHONE NUM":4055332433,"PROVIDER PHONE EXT":"","PROGRAM YEAR":2011},"geometry":{"type":"Point","coordinates":[-97.081749,36.115778]}},{"type":"Feature","id":"5132dd79a288f42e6735cd31","properties":{"_id":"5132dd79a288f42e6735cd31","PROVIDER NPI":1942281688,"PROVIDER NAME":"Evans, Perry","PROVIDER STATE":"Oklahoma","PROVIDER CITY":"Cleveland","PROVIDER  ADDRESS":"119 S Broadway St","PROVIDER ZIP 5 CD":74020,"PROVIDER ZIP 4 CD":4614,"PROVIDER PHONE NUM":9183582592,"PROVIDER PHONE EXT":"","PROGRAM YEAR":2011},"geometry":{"type":"Point","coordinates":[-96.463955,36.308773]}},{"type":"Feature","id":"5132dd79a288f42e6735cd32","properties":{"_id":"5132dd79a288f42e6735cd32","PROVIDER NPI":1700836590,"PROVIDER NAME":"Evans, William","PROVIDER STATE":"Oklahoma","PROVIDER CITY":"Muskogee","PROVIDER  ADDRESS":"2301 E Okmulgee St","PROVIDER ZIP 5 CD":74403,"PROVIDER ZIP 4 CD":5924,"PROVIDER PHONE NUM":9186835526,"PROVIDER PHONE EXT":"","PROGRAM YEAR":2011},"geometry":{"type":"Point","coordinates":[-95.341883,35.738679]}},{"type":"Feature","id":"5132dd79a288f42e6735cd33","properties":{"_id":"5132dd79a288f42e6735cd33","PROVIDER NPI":1093827206,"PROVIDER NAME":"Filby, Steven","PROVIDER STATE":"Oklahoma","PROVIDER CITY":"Oklahoma City","PROVIDER  ADDRESS":"5701 SE 74th St, Suite H","PROVIDER ZIP 5 CD":73135,"PROVIDER ZIP 4 CD":1106,"PROVIDER PHONE NUM":4057333900,"PROVIDER PHONE EXT":"","PROGRAM YEAR":2011},"geometry":{"type":"Point","coordinates":[-97.423369,35.392137]}},{"type":"Feature","id":"5132dd79a288f42e6735cd34","properties":{"_id":"5132dd79a288f42e6735cd34","PROVIDER NPI":1982601035,"PROVIDER NAME":"Filley, Warren","PROVIDER STATE":"Oklahoma","PROVIDER CITY":"Oklahoma City","PROVIDER  ADDRESS":"750 NE 13th St","PROVIDER ZIP 5 CD":73104,"PROVIDER ZIP 4 CD":5051,"PROVIDER PHONE NUM":4052350040,"PROVIDER PHONE EXT":"","PROGRAM YEAR":2011},"geometry":{"type":"Point","coordinates":[-97.500025,35.4824]}},{"type":"Feature","id":"5132dd79a288f42e6735cd35","properties":{"_id":"5132dd79a288f42e6735cd35","PROVIDER NPI":1174556054,"PROVIDER NAME":"FISHER, HARRY","PROVIDER STATE":"Oklahoma","PROVIDER CITY":"Seminole","PROVIDER  ADDRESS":"919 JEFFERSON ST","PROVIDER ZIP 5 CD":74868,"PROVIDER ZIP 4 CD":1900,"PROVIDER PHONE NUM":4053820585,"PROVIDER PHONE EXT":"","PROGRAM YEAR":2011},"geometry":{"type":"Point","coordinates":[-96.676123,35.231315]}},{"type":"Feature","id":"5132dd79a288f42e6735cd36","properties":{"_id":"5132dd79a288f42e6735cd36","PROVIDER NPI":1740215680,"PROVIDER NAME":"Flanary, Clayton","PROVIDER STATE":"Oklahoma","PROVIDER CITY":"Henryetta","PROVIDER  ADDRESS":"2403 W Main St","PROVIDER ZIP 5 CD":74437,"PROVIDER ZIP 4 CD":3893,"PROVIDER PHONE NUM":9186529650,"PROVIDER PHONE EXT":"","PROGRAM YEAR":2011},"geometry":{"type":"Point","coordinates":[-96.003394,35.439762]}},{"type":"Feature","id":"5132dd79a288f42e6735cd37","properties":{"_id":"5132dd79a288f42e6735cd37","PROVIDER NPI":1073584306,"PROVIDER NAME":"Flesner, Kelly","PROVIDER STATE":"Oklahoma","PROVIDER CITY":"Tulsa","PROVIDER  ADDRESS":"1265 S Utica Ave, Suite 300","PROVIDER ZIP 5 CD":74104,"PROVIDER ZIP 4 CD":4243,"PROVIDER PHONE NUM":9185920999,"PROVIDER PHONE EXT":"","PROGRAM YEAR":2011},"geometry":{"type":"Point","coordinates":[-95.967087,36.144801]}},{"type":"Feature","id":"5132dd79a288f42e6735cd38","properties":{"_id":"5132dd79a288f42e6735cd38","PROVIDER NPI":1629002761,"PROVIDER NAME":"Floyd, Jeffrey","PROVIDER STATE":"Oklahoma","PROVIDER CITY":"Oklahoma City","PROVIDER  ADDRESS":"1919 E Memorial Rd","PROVIDER ZIP 5 CD":73131,"PROVIDER ZIP 4 CD":1253,"PROVIDER PHONE NUM":4053417009,"PROVIDER PHONE EXT":"","PROGRAM YEAR":2011},"geometry":{"type":"Point","coordinates":[-97.480045,35.608993]}},{"type":"Feature","id":"5132dd79a288f42e6735cd39","properties":{"_id":"5132dd79a288f42e6735cd39","PROVIDER NPI":1760478960,"PROVIDER NAME":"Floyd, Kim","PROVIDER STATE":"Oklahoma","PROVIDER CITY":"Norman","PROVIDER  ADDRESS":"901 N Porter Ave","PROVIDER ZIP 5 CD":73071,"PROVIDER ZIP 4 CD":6404,"PROVIDER PHONE NUM":4053071000,"PROVIDER PHONE EXT":"","PROGRAM YEAR":2011},"geometry":{"type":"Point","coordinates":[-97.441092,35.229628]}},{"type":"Feature","id":"5132dd79a288f42e6735cd3a","properties":{"_id":"5132dd79a288f42e6735cd3a","PROVIDER NPI":1316053994,"PROVIDER NAME":"Flynn, Laurie","PROVIDER STATE":"Oklahoma","PROVIDER CITY":"Tulsa","PROVIDER  ADDRESS":"1245 S. Utica Ave., Ste 300","PROVIDER ZIP 5 CD":74104,"PROVIDER ZIP 4 CD":4214,"PROVIDER PHONE NUM":9185603823,"PROVIDER PHONE EXT":"","PROGRAM YEAR":2011},"geometry":{"type":"Point","coordinates":[-95.967091,36.145131]}},{"type":"Feature","id":"5132dd79a288f42e6735cd3b","properties":{"_id":"5132dd79a288f42e6735cd3b","PROVIDER NPI":1881613677,"PROVIDER NAME":"FOLGER, TERESA","PROVIDER STATE":"Oklahoma","PROVIDER CITY":"Oklahoma City","PROVIDER  ADDRESS":"111001 Hefner Pointe, Suite 204","PROVIDER ZIP 5 CD":73120,"PROVIDER ZIP 4 CD":5045,"PROVIDER PHONE NUM":4059361500,"PROVIDER PHONE EXT":"","PROGRAM YEAR":2011},"geometry":{"type":"Point","coordinates":[-97.555032,35.58018]}},{"type":"Feature","id":"5132dd79a288f42e6735cd3c","properties":{"_id":"5132dd79a288f42e6735cd3c","PROVIDER NPI":1124224431,"PROVIDER NAME":"Fong, Daniel","PROVIDER STATE":"Oklahoma","PROVIDER CITY":"Oklahoma City","PROVIDER  ADDRESS":"10900 Hefner Pointe Dr., Ste 505","PROVIDER ZIP 5 CD":73120,"PROVIDER ZIP 4 CD":5045,"PROVIDER PHONE NUM":4059361577,"PROVIDER PHONE EXT":"","PROGRAM YEAR":2011},"geometry":{"type":"Point","coordinates":[-97.583478,35.580908]}},{"type":"Feature","id":"5132dd79a288f42e6735cd3d","properties":{"_id":"5132dd79a288f42e6735cd3d","PROVIDER NPI":1861578080,"PROVIDER NAME":"Forester, Scott","PROVIDER STATE":"Oklahoma","PROVIDER CITY":"Oklahoma City","PROVIDER  ADDRESS":"3011 NW 63rd St","PROVIDER ZIP 5 CD":73116,"PROVIDER ZIP 4 CD":3629,"PROVIDER PHONE NUM":4058402800,"PROVIDER PHONE EXT":"","PROGRAM YEAR":2011},"geometry":{"type":"Point","coordinates":[-97.567831,35.536636]}},{"type":"Feature","id":"5132dd79a288f42e6735cd3e","properties":{"_id":"5132dd79a288f42e6735cd3e","PROVIDER NPI":1225050768,"PROVIDER NAME":"FORREST, JOHN","PROVIDER STATE":"Oklahoma","PROVIDER CITY":"Tulsa","PROVIDER  ADDRESS":"10901 E 48th Street S","PROVIDER ZIP 5 CD":74146,"PROVIDER ZIP 4 CD":5830,"PROVIDER PHONE NUM":9187498765,"PROVIDER PHONE EXT":"","PROGRAM YEAR":2011},"geometry":{"type":"Point","coordinates":[-95.860783,36.093803]}},{"type":"Feature","id":"5132dd79a288f42e6735cd3f","properties":{"_id":"5132dd79a288f42e6735cd3f","PROVIDER NPI":1699979450,"PROVIDER NAME":"FOTEH, KOUSTA","PROVIDER STATE":"Oklahoma","PROVIDER CITY":"Oklahoma City","PROVIDER  ADDRESS":"4050 W Memorial Rd, Third Floor","PROVIDER ZIP 5 CD":73120,"PROVIDER ZIP 4 CD":8382,"PROVIDER PHONE NUM":4056083800,"PROVIDER PHONE EXT":"","PROGRAM YEAR":2011},"geometry":{"type":"Point","coordinates":[-97.593522,35.608945]}},{"type":"Feature","id":"5132dd79a288f42e6735cd40","properties":{"_id":"5132dd79a288f42e6735cd40","PROVIDER NPI":1164432878,"PROVIDER NAME":"Foust, Phillip","PROVIDER STATE":"Oklahoma","PROVIDER CITY":"Bartlesville","PROVIDER  ADDRESS":"1725 SE Washington Blvd, Suite A","PROVIDER ZIP 5 CD":74006,"PROVIDER ZIP 4 CD":6724,"PROVIDER PHONE NUM":9183333636,"PROVIDER PHONE EXT":"","PROGRAM YEAR":2011},"geometry":{"type":"Point","coordinates":[-95.935256,36.782409]}},{"type":"Feature","id":"5132dd79a288f42e6735cd41","properties":{"_id":"5132dd79a288f42e6735cd41","PROVIDER NPI":1063495604,"PROVIDER NAME":"Fox, Jeff","PROVIDER STATE":"Oklahoma","PROVIDER CITY":"Tulsa","PROVIDER  ADDRESS":"6585 S Yale Ave, Suite 200","PROVIDER ZIP 5 CD":74136,"PROVIDER ZIP 4 CD":8384,"PROVIDER PHONE NUM":9184812767,"PROVIDER PHONE EXT":"","PROGRAM YEAR":2011},"geometry":{"type":"Point","coordinates":[-95.92215,36.074255]}},{"type":"Feature","id":"5132dd79a288f42e6735cd42","properties":{"_id":"5132dd79a288f42e6735cd42","PROVIDER NPI":1487660585,"PROVIDER NAME":"Fraley, Andrea","PROVIDER STATE":"Oklahoma","PROVIDER CITY":"Oklahoma City","PROVIDER  ADDRESS":"4200 W Memorial Rd, Ste 310","PROVIDER ZIP 5 CD":73120,"PROVIDER ZIP 4 CD":9350,"PROVIDER PHONE NUM":4057494222,"PROVIDER PHONE EXT":"","PROGRAM YEAR":2011},"geometry":{"type":"Point","coordinates":[-97.597887,35.609027]}},{"type":"Feature","id":"5132dd79a288f42e6735cd43","properties":{"_id":"5132dd79a288f42e6735cd43","PROVIDER NPI":1629115464,"PROVIDER NAME":"Frandsen, Melissa","PROVIDER STATE":"Oklahoma","PROVIDER CITY":"Tulsa","PROVIDER  ADDRESS":"1245 S. Utica Ave.","PROVIDER ZIP 5 CD":74104,"PROVIDER ZIP 4 CD":1,"PROVIDER PHONE NUM":9183822566,"PROVIDER PHONE EXT":"","PROGRAM YEAR":2011},"geometry":{"type":"Point","coordinates":[-95.967091,36.145131]}},{"type":"Feature","id":"5132dd79a288f42e6735cd44","properties":{"_id":"5132dd79a288f42e6735cd44","PROVIDER NPI":1225243207,"PROVIDER NAME":"Fredrick, Lori","PROVIDER STATE":"Oklahoma","PROVIDER CITY":"Edmond","PROVIDER  ADDRESS":"2601 Kelley Pointe Pkwy, Ste. 101","PROVIDER ZIP 5 CD":73013,"PROVIDER ZIP 4 CD":2995,"PROVIDER PHONE NUM":4058442601,"PROVIDER PHONE EXT":"","PROGRAM YEAR":2011},"geometry":{"type":"Point","coordinates":[-97.41077,35.573633]}},{"type":"Feature","id":"5132dd79a288f42e6735cd45","properties":{"_id":"5132dd79a288f42e6735cd45","PROVIDER NPI":1417957259,"PROVIDER NAME":"Freeman, George","PROVIDER STATE":"Oklahoma","PROVIDER CITY":"Idabel","PROVIDER  ADDRESS":"1425 E. Lincoln Rd, Suite B-1","PROVIDER ZIP 5 CD":74745,"PROVIDER ZIP 4 CD":7345,"PROVIDER PHONE NUM":5802864949,"PROVIDER PHONE EXT":"","PROGRAM YEAR":2011},"geometry":{"type":"Point","coordinates":[-94.791659,33.882225]}},{"type":"Feature","id":"5132dd79a288f42e6735cd46","properties":{"_id":"5132dd79a288f42e6735cd46","PROVIDER NPI":1275508186,"PROVIDER NAME":"Frey, Bret","PROVIDER STATE":"Oklahoma","PROVIDER CITY":"Oklahoma City","PROVIDER  ADDRESS":"3705 NW 63rd St, 204","PROVIDER ZIP 5 CD":73116,"PROVIDER ZIP 4 CD":1935,"PROVIDER PHONE NUM":4059427841,"PROVIDER PHONE EXT":"","PROGRAM YEAR":2011},"geometry":{"type":"Point","coordinates":[-97.583533,35.536894]}},{"type":"Feature","id":"5132dd79a288f42e6735cd47","properties":{"_id":"5132dd79a288f42e6735cd47","PROVIDER NPI":1831143155,"PROVIDER NAME":"Gaffney, Catherine","PROVIDER STATE":"Oklahoma","PROVIDER CITY":"Tulsa","PROVIDER  ADDRESS":"9228 S Mingo Rd, Suite 103","PROVIDER ZIP 5 CD":74133,"PROVIDER ZIP 4 CD":5718,"PROVIDER PHONE NUM":9183927575,"PROVIDER PHONE EXT":"","PROGRAM YEAR":2011},"geometry":{"type":"Point","coordinates":[-95.868577,36.030099]}},{"type":"Feature","id":"5132dd79a288f42e6735cd48","properties":{"_id":"5132dd79a288f42e6735cd48","PROVIDER NPI":1609846112,"PROVIDER NAME":"Gaffney, Frank","PROVIDER STATE":"Oklahoma","PROVIDER CITY":"Tulsa","PROVIDER  ADDRESS":"1265 S Utica Ave, Suite 300","PROVIDER ZIP 5 CD":74104,"PROVIDER ZIP 4 CD":4243,"PROVIDER PHONE NUM":9185920999,"PROVIDER PHONE EXT":"","PROGRAM YEAR":2011},"geometry":{"type":"Point","coordinates":[-95.967087,36.144801]}},{"type":"Feature","id":"5132dd79a288f42e6735cd49","properties":{"_id":"5132dd79a288f42e6735cd49","PROVIDER NPI":1235183567,"PROVIDER NAME":"Galles, Jeffrey","PROVIDER STATE":"Oklahoma","PROVIDER CITY":"Owasso","PROVIDER  ADDRESS":"10512 N 110th East Ave","PROVIDER ZIP 5 CD":74055,"PROVIDER ZIP 4 CD":6636,"PROVIDER PHONE NUM":9183768900,"PROVIDER PHONE EXT":"","PROGRAM YEAR":2011},"geometry":{"type":"Point","coordinates":[-95.851649,36.300271]}},{"type":"Feature","id":"5132dd79a288f42e6735cd4a","properties":{"_id":"5132dd79a288f42e6735cd4a","PROVIDER NPI":1316981848,"PROVIDER NAME":"Galutia, Yancy","PROVIDER STATE":"Oklahoma","PROVIDER CITY":"Owasso","PROVIDER  ADDRESS":"10512 N 110th East Ave","PROVIDER ZIP 5 CD":74055,"PROVIDER ZIP 4 CD":6636,"PROVIDER PHONE NUM":9183768900,"PROVIDER PHONE EXT":"","PROGRAM YEAR":2011},"geometry":{"type":"Point","coordinates":[-95.851649,36.300271]}},{"type":"Feature","id":"5132dd79a288f42e6735cd4b","properties":{"_id":"5132dd79a288f42e6735cd4b","PROVIDER NPI":1013983741,"PROVIDER NAME":"Gancarczyk, Kevin","PROVIDER STATE":"Oklahoma","PROVIDER CITY":"Tulsa","PROVIDER  ADDRESS":"10901 E 48th Street S","PROVIDER ZIP 5 CD":74146,"PROVIDER ZIP 4 CD":5349,"PROVIDER PHONE NUM":9187498765,"PROVIDER PHONE EXT":"","PROGRAM YEAR":2011},"geometry":{"type":"Point","coordinates":[-95.860783,36.093803]}},{"type":"Feature","id":"5132dd79a288f42e6735cd4c","properties":{"_id":"5132dd79a288f42e6735cd4c","PROVIDER NPI":1689770760,"PROVIDER NAME":"Gann, Ron","PROVIDER STATE":"Oklahoma","PROVIDER CITY":"Owasso","PROVIDER  ADDRESS":"10512 North 110th East Avenue, Suite 200","PROVIDER ZIP 5 CD":74055,"PROVIDER ZIP 4 CD":6638,"PROVIDER PHONE NUM":9183768900,"PROVIDER PHONE EXT":"","PROGRAM YEAR":2011},"geometry":{"type":"Point","coordinates":[-95.851649,36.300271]}},{"type":"Feature","id":"5132dd79a288f42e6735cd4d","properties":{"_id":"5132dd79a288f42e6735cd4d","PROVIDER NPI":1992901110,"PROVIDER NAME":"Garrett, Jeffrey","PROVIDER STATE":"Oklahoma","PROVIDER CITY":"Oklahoma City","PROVIDER  ADDRESS":"4050 W Memorial Rd, Third Floor","PROVIDER ZIP 5 CD":73120,"PROVIDER ZIP 4 CD":8382,"PROVIDER PHONE NUM":4056083800,"PROVIDER PHONE EXT":"","PROGRAM YEAR":2011},"geometry":{"type":"Point","coordinates":[-97.593522,35.608945]}},{"type":"Feature","id":"5132dd79a288f42e6735cd4e","properties":{"_id":"5132dd79a288f42e6735cd4e","PROVIDER NPI":1598806663,"PROVIDER NAME":"Garrison, Patrick","PROVIDER STATE":"Oklahoma","PROVIDER CITY":"Oklahoma City","PROVIDER  ADDRESS":"1919 E Memorial Rd","PROVIDER ZIP 5 CD":73131,"PROVIDER ZIP 4 CD":1253,"PROVIDER PHONE NUM":4053417009,"PROVIDER PHONE EXT":"","PROGRAM YEAR":2011},"geometry":{"type":"Point","coordinates":[-97.480045,35.608993]}},{"type":"Feature","id":"5132dd79a288f42e6735cd4f","properties":{"_id":"5132dd79a288f42e6735cd4f","PROVIDER NPI":1871591800,"PROVIDER NAME":"Geiger, Michael","PROVIDER STATE":"Oklahoma","PROVIDER CITY":"Altus","PROVIDER  ADDRESS":"809 E Tamarack Rd","PROVIDER ZIP 5 CD":73521,"PROVIDER ZIP 4 CD":1231,"PROVIDER PHONE NUM":5804821756,"PROVIDER PHONE EXT":"","PROGRAM YEAR":2011},"geometry":{"type":"Point","coordinates":[-99.324934,34.666844]}},{"type":"Feature","id":"5132dd79a288f42e6735cd50","properties":{"_id":"5132dd79a288f42e6735cd50","PROVIDER NPI":1134102916,"PROVIDER NAME":"Ghani, Mohammad","PROVIDER STATE":"Oklahoma","PROVIDER CITY":"Oklahoma City","PROVIDER  ADDRESS":"4050 W Memorial Rd, Third Floor","PROVIDER ZIP 5 CD":73120,"PROVIDER ZIP 4 CD":8382,"PROVIDER PHONE NUM":4056083800,"PROVIDER PHONE EXT":"","PROGRAM YEAR":2011},"geometry":{"type":"Point","coordinates":[-97.593522,35.608945]}},{"type":"Feature","id":"5132dd79a288f42e6735cd51","properties":{"_id":"5132dd79a288f42e6735cd51","PROVIDER NPI":1447273461,"PROVIDER NAME":"Gietzen, Michael","PROVIDER STATE":"Oklahoma","PROVIDER CITY":"Pryor","PROVIDER  ADDRESS":"562 S Elliott St","PROVIDER ZIP 5 CD":74361,"PROVIDER ZIP 4 CD":6411,"PROVIDER PHONE NUM":9188248000,"PROVIDER PHONE EXT":"","PROGRAM YEAR":2011},"geometry":{"type":"Point","coordinates":[-95.309908,36.295955]}},{"type":"Feature","id":"5132dd79a288f42e6735cd52","properties":{"_id":"5132dd79a288f42e6735cd52","PROVIDER NPI":1992851505,"PROVIDER NAME":"Glaser, Troy","PROVIDER STATE":"Oklahoma","PROVIDER CITY":"Bixby","PROVIDER  ADDRESS":"12800 S Memorial Dr Ste D","PROVIDER ZIP 5 CD":74008,"PROVIDER ZIP 4 CD":2577,"PROVIDER PHONE NUM":9183942767,"PROVIDER PHONE EXT":"","PROGRAM YEAR":2011},"geometry":{"type":"Point","coordinates":[-95.886678,35.977833]}},{"type":"Feature","id":"5132dd79a288f42e6735cd53","properties":{"_id":"5132dd79a288f42e6735cd53","PROVIDER NPI":1164426193,"PROVIDER NAME":"Gordon, Krista","PROVIDER STATE":"Oklahoma","PROVIDER CITY":"Lawton","PROVIDER  ADDRESS":"5366 NW Cache Rd Ste 6","PROVIDER ZIP 5 CD":73505,"PROVIDER ZIP 4 CD":3353,"PROVIDER PHONE NUM":5805367546,"PROVIDER PHONE EXT":"","PROGRAM YEAR":2011},"geometry":{"type":"Point","coordinates":[-98.463033,34.623365]}},{"type":"Feature","id":"5132dd79a288f42e6735cd54","properties":{"_id":"5132dd79a288f42e6735cd54","PROVIDER NPI":1093704793,"PROVIDER NAME":"Gourley, Robert","PROVIDER STATE":"Oklahoma","PROVIDER CITY":"Edmond","PROVIDER  ADDRESS":"920 S Bryant Ave, Ste 100","PROVIDER ZIP 5 CD":73034,"PROVIDER ZIP 4 CD":5797,"PROVIDER PHONE NUM":4053414238,"PROVIDER PHONE EXT":"","PROGRAM YEAR":2011},"geometry":{"type":"Point","coordinates":[-97.460359,35.645339]}},{"type":"Feature","id":"5132dd79a288f42e6735cd55","properties":{"_id":"5132dd79a288f42e6735cd55","PROVIDER NPI":1942208855,"PROVIDER NAME":"Gray, Patrick","PROVIDER STATE":"Oklahoma","PROVIDER CITY":"Ponca City","PROVIDER  ADDRESS":"400 Fairview Ave, Suite 17","PROVIDER ZIP 5 CD":74601,"PROVIDER ZIP 4 CD":1920,"PROVIDER PHONE NUM":5807623696,"PROVIDER PHONE EXT":"","PROGRAM YEAR":2011},"geometry":{"type":"Point","coordinates":[-97.069617,36.727281]}},{"type":"Feature","id":"5132dd79a288f42e6735cd56","properties":{"_id":"5132dd79a288f42e6735cd56","PROVIDER NPI":1255396073,"PROVIDER NAME":"Grizzle, John","PROVIDER STATE":"Oklahoma","PROVIDER CITY":"Oklahoma City","PROVIDER  ADDRESS":"8325 NW Expressway St","PROVIDER ZIP 5 CD":73162,"PROVIDER ZIP 4 CD":6006,"PROVIDER PHONE NUM":4057288000,"PROVIDER PHONE EXT":"","PROGRAM YEAR":2011},"geometry":{"type":"Point","coordinates":[-97.658353,35.566808]}},{"type":"Feature","id":"5132dd79a288f42e6735cd57","properties":{"_id":"5132dd79a288f42e6735cd57","PROVIDER NPI":1639164163,"PROVIDER NAME":"Grode, Timothy","PROVIDER STATE":"Oklahoma","PROVIDER CITY":"Oklahoma City","PROVIDER  ADDRESS":"4300 W Memorial Rd","PROVIDER ZIP 5 CD":73120,"PROVIDER ZIP 4 CD":8304,"PROVIDER PHONE NUM":4059365811,"PROVIDER PHONE EXT":"","PROGRAM YEAR":2011},"geometry":{"type":"Point","coordinates":[-97.600915,35.609023]}},{"type":"Feature","id":"5132dd79a288f42e6735cd58","properties":{"_id":"5132dd79a288f42e6735cd58","PROVIDER NPI":1053316786,"PROVIDER NAME":"Grooms, Guy","PROVIDER STATE":"Oklahoma","PROVIDER CITY":"Muskogee","PROVIDER  ADDRESS":"209 S 36th St","PROVIDER ZIP 5 CD":74401,"PROVIDER ZIP 4 CD":5043,"PROVIDER PHONE NUM":9186827717,"PROVIDER PHONE EXT":"","PROGRAM YEAR":2011},"geometry":{"type":"Point","coordinates":[-95.4072,35.75387]}},{"type":"Feature","id":"5132dd79a288f42e6735cd59","properties":{"_id":"5132dd79a288f42e6735cd59","PROVIDER NPI":1417930041,"PROVIDER NAME":"Guerra, Cristina","PROVIDER STATE":"Oklahoma","PROVIDER CITY":"Muskogee","PROVIDER  ADDRESS":"300 ROCKEFELLER DRIVE, 4318 W OKMULGEE","PROVIDER ZIP 5 CD":74401,"PROVIDER ZIP 4 CD":5075,"PROVIDER PHONE NUM":9186860338,"PROVIDER PHONE EXT":"","PROGRAM YEAR":2011},"geometry":{"type":"Point","coordinates":[-95.406122,35.753513]}},{"type":"Feature","id":"5132dd79a288f42e6735cd5a","properties":{"_id":"5132dd79a288f42e6735cd5a","PROVIDER NPI":1700924693,"PROVIDER NAME":"Gumbs-Solano, Jaime","PROVIDER STATE":"Oklahoma","PROVIDER CITY":"Pawnee","PROVIDER  ADDRESS":"1201 Heritage Cir","PROVIDER ZIP 5 CD":74058,"PROVIDER ZIP 4 CD":3744,"PROVIDER PHONE NUM":9187626638,"PROVIDER PHONE EXT":"","PROGRAM YEAR":2011},"geometry":{"type":"Point","coordinates":[-95.65272,36.316639]}},{"type":"Feature","id":"5132dd79a288f42e6735cd5b","properties":{"_id":"5132dd79a288f42e6735cd5b","PROVIDER NPI":1649211301,"PROVIDER NAME":"Gumm, Brian","PROVIDER STATE":"Oklahoma","PROVIDER CITY":"Stillwater","PROVIDER  ADDRESS":"2123 W 6th Ave","PROVIDER ZIP 5 CD":74074,"PROVIDER ZIP 4 CD":4136,"PROVIDER PHONE NUM":4053723724,"PROVIDER PHONE EXT":"","PROGRAM YEAR":2011},"geometry":{"type":"Point","coordinates":[-97.083817,36.115778]}},{"type":"Feature","id":"5132dd79a288f42e6735cd5c","properties":{"_id":"5132dd79a288f42e6735cd5c","PROVIDER NPI":1033193776,"PROVIDER NAME":"Gurrola, Alexander","PROVIDER STATE":"Oklahoma","PROVIDER CITY":"Ardmore","PROVIDER  ADDRESS":"1505 N Commerce Ste 204","PROVIDER ZIP 5 CD":73401,"PROVIDER ZIP 4 CD":"","PROVIDER PHONE NUM":5802266500,"PROVIDER PHONE EXT":"","PROGRAM YEAR":2011},"geometry":{"type":"Point","coordinates":[-97.143211,34.190863]}},{"type":"Feature","id":"5132dd79a288f42e6735cd5d","properties":{"_id":"5132dd79a288f42e6735cd5d","PROVIDER NPI":1528064763,"PROVIDER NAME":"Hague, Samuel","PROVIDER STATE":"Oklahoma","PROVIDER CITY":"Blackwell","PROVIDER  ADDRESS":"1009 W Ferguson Ave","PROVIDER ZIP 5 CD":74631,"PROVIDER ZIP 4 CD":5602,"PROVIDER PHONE NUM":5803630052,"PROVIDER PHONE EXT":"","PROGRAM YEAR":2011},"geometry":{"type":"Point","coordinates":[-97.295825,36.796904]}},{"type":"Feature","id":"5132dd79a288f42e6735cd5e","properties":{"_id":"5132dd79a288f42e6735cd5e","PROVIDER NPI":1215917778,"PROVIDER NAME":"Hale, William","PROVIDER STATE":"Oklahoma","PROVIDER CITY":"Oklahoma City","PROVIDER  ADDRESS":"14100 Parkway Commons Dr, Ste 202","PROVIDER ZIP 5 CD":73134,"PROVIDER ZIP 4 CD":6015,"PROVIDER PHONE NUM":4057499820,"PROVIDER PHONE EXT":"","PROGRAM YEAR":2011},"geometry":{"type":"Point","coordinates":[-97.582332,35.613554]}},{"type":"Feature","id":"5132dd79a288f42e6735cd5f","properties":{"_id":"5132dd79a288f42e6735cd5f","PROVIDER NPI":1740296888,"PROVIDER NAME":"Hall, David","PROVIDER STATE":"Oklahoma","PROVIDER CITY":"Okmulgee","PROVIDER  ADDRESS":"300 Creek Pl","PROVIDER ZIP 5 CD":74447,"PROVIDER ZIP 4 CD":6730,"PROVIDER PHONE NUM":9187560316,"PROVIDER PHONE EXT":"","PROGRAM YEAR":2011},"geometry":{"type":"Point","coordinates":[-95.979205,35.641791]}},{"type":"Feature","id":"5132dd79a288f42e6735cd60","properties":{"_id":"5132dd79a288f42e6735cd60","PROVIDER NPI":1912990201,"PROVIDER NAME":"Hall, David","PROVIDER STATE":"Oklahoma","PROVIDER CITY":"Tulsa","PROVIDER  ADDRESS":"5020 E 68th St","PROVIDER ZIP 5 CD":74136,"PROVIDER ZIP 4 CD":3307,"PROVIDER PHONE NUM":9184923636,"PROVIDER PHONE EXT":"","PROGRAM YEAR":2011},"geometry":{"type":"Point","coordinates":[-95.920839,36.064467]}},{"type":"Feature","id":"5132dd79a288f42e6735cd61","properties":{"_id":"5132dd79a288f42e6735cd61","PROVIDER NPI":1053330886,"PROVIDER NAME":"HALL, MARGARET","PROVIDER STATE":"Oklahoma","PROVIDER CITY":"Oklahoma City","PROVIDER  ADDRESS":"11200 N Portland Ave, 2ND Floor","PROVIDER ZIP 5 CD":73120,"PROVIDER ZIP 4 CD":5045,"PROVIDER PHONE NUM":4059361000,"PROVIDER PHONE EXT":"","PROGRAM YEAR":2011},