[{"type":"Feature","id":"5228ff0670d483a23804d563","properties":{"id":"5228ff0670d483a23804d563","incentives_received":{"year_2011":false,"year_2012":true,"year_2013":false},"phone_number":"(203) 325-2695","address":{"address":"34 Shelburne Road","city":"Stamford","state":"Connecticut","zip":"06902"},"name":"Lo, Kwok Ming","npi":1992874473},"geometry":{"type":"Point","coordinates":[-73.553813,41.054843]}},{"type":"Feature","id":"5228ff0670d483a23804d54e","properties":{"id":"5228ff0670d483a23804d54e","incentives_received":{"year_2011":false,"year_2012":true,"year_2013":false},"phone_number":"(860) 974-0529","address":{"address":"5 Clinic Rd","city":"Abington","state":"Connecticut","zip":"06230"},"name":"BOUCHER, KEVIN","npi":1992869523},"geometry":{"type":"Point","coordinates":[-72.012996,41.850138]}},{"type":"Feature","id":"5228ff0670d483a23804d500","properties":{"id":"5228ff0670d483a23804d500","incentives_received":{"year_2011":true,"year_2012":true,"year_2013":false},"phone_number":"(203) 932-6481","address":{"address":"1453 Whalley Ave, West Haven Medical Group, LLC","city":"New Haven","state":"Connecticut","zip":"06515"},"name":"Afolalu, Abisola","npi":1992847644},"geometry":{"type":"Point","coordinates":[-72.955426,41.344872]}},{"type":"Feature","id":"5228ff0570d483a23804d4c3","properties":{"id":"5228ff0570d483a23804d4c3","incentives_received":{"year_2011":false,"year_2012":true,"year_2013":false},"phone_number":"(860) 728-1212","address":{"address":"19 Woodland Street","city":"Hartford","state":"Connecticut","zip":"06105"},"name":"Ellis, Maria","npi":1992819817},"geometry":{"type":"Point","coordinates":[-72.701749,41.769514]}},{"type":"Feature","id":"5228ff0570d483a23804d43c","properties":{"id":"5228ff0570d483a23804d43c","incentives_received":{"year_2011":true,"year_2012":true,"year_2013":false},"phone_number":"(203) 838-4000","address":{"address":"761 Main Ave, Suite 201","city":"Norwalk","state":"Connecticut","zip":"06851"},"name":"Beger, Erik","npi":1992801989},"geometry":{"type":"Point","coordinates":[-73.423814,41.15538]}},{"type":"Feature","id":"5228ff0570d483a23804d41e","properties":{"id":"5228ff0570d483a23804d41e","incentives_received":{"year_2011":false,"year_2012":true,"year_2013":false},"phone_number":"(860) 525-1234","address":{"address":"19 Woodland St, Suite 35","city":"Hartford","state":"Connecticut","zip":"06105"},"name":"Galle, John","npi":1992798466},"geometry":{"type":"Point","coordinates":[-72.701749,41.769514]}},{"type":"Feature","id":"5228ff0570d483a23804d2de","properties":{"id":"5228ff0570d483a23804d2de","incentives_received":{"year_2011":false,"year_2012":true,"year_2013":false},"phone_number":"(866) 575-4334","address":{"address":"36 Somers Xing","city":"Somers","state":"Connecticut","zip":"06071"},"name":"BEY, MICHAEL","npi":1992777544},"geometry":{"type":"Point","coordinates":[-72.505716,42.000801]}},{"type":"Feature","id":"5228ff0570d483a23804d2c6","properties":{"id":"5228ff0570d483a23804d2c6","incentives_received":{"year_2011":false,"year_2012":true,"year_2013":false},"phone_number":"(860) 224-2447","address":{"address":"40 Hart St","city":"New Britain","state":"Connecticut","zip":"06052"},"name":"ROY, GERARD","npi":1992775910},"geometry":{"type":"Point","coordinates":[-72.784633,41.659976]}},{"type":"Feature","id":"5228ff0570d483a23804d1f9","properties":{"id":"5228ff0570d483a23804d1f9","incentives_received":{"year_2011":true,"year_2012":false,"year_2013":false},"phone_number":"(860) 236-2225","address":{"address":"836 Farmington Ave, Suite 229","city":"West Hartford","state":"Connecticut","zip":"06119"},"name":"Tagliarini, John","npi":1992762710},"geometry":{"type":"Point","coordinates":[-72.732088,41.764189]}},{"type":"Feature","id":"5228ff0570d483a23804d0ca","properties":{"id":"5228ff0570d483a23804d0ca","incentives_received":{"year_2011":false,"year_2012":true,"year_2013":false},"phone_number":"(203) 661-5330","address":{"address":"5 Perryridge Rd","city":"Greenwich","state":"Connecticut","zip":"06830"},"name":"Levin, Michael","npi":1992734636},"geometry":{"type":"Point","coordinates":[-73.629369,41.034956]}},{"type":"Feature","id":"5228ff0570d483a23804d097","properties":{"id":"5228ff0570d483a23804d097","incentives_received":{"year_2011":false,"year_2012":true,"year_2013":false},"phone_number":"(203) 264-7999","address":{"address":"385 Main St S, Union Square Bldg#1","city":"Southbury","state":"Connecticut","zip":"06488"},"name":"Segal, Scott","npi":1992730212},"geometry":{"type":"Point","coordinates":[-73.223168,41.471172]}},{"type":"Feature","id":"5228ff0570d483a23804cf60","properties":{"id":"5228ff0570d483a23804cf60","incentives_received":{"year_2011":true,"year_2012":true,"year_2013":false},"phone_number":"(860) 282-3894","address":{"address":"99 Ash St","city":"East Hartford","state":"Connecticut","zip":"06108"},"name":"Fischer, Michael","npi":1992701932},"geometry":{"type":"Point","coordinates":[-72.654422,41.768386]}},{"type":"Feature","id":"5228ff0570d483a23804cf01","properties":{"id":"5228ff0570d483a23804cf01","incentives_received":{"year_2011":false,"year_2012":true,"year_2013":false},"phone_number":"(203) 852-2434","address":{"address":"24 Stevens St, Norwalk Hospital","city":"Norwalk","state":"Connecticut","zip":"06850"},"name":"Wainwright, Sandra","npi":1982894614},"geometry":{"type":"Point","coordinates":[-73.421225,41.110377]}},{"type":"Feature","id":"5228ff0570d483a23804cef0","properties":{"id":"5228ff0570d483a23804cef0","incentives_received":{"year_2011":false,"year_2012":true,"year_2013":false},"phone_number":"(203) 597-9733","address":{"address":"140 Grandview Ave, Suite 101","city":"Waterbury","state":"Connecticut","zip":"06708"},"name":"Tiyyagura, Sandeep","npi":1982882882},"geometry":{"type":"Point","coordinates":[-73.05914,41.555678]}},{"type":"Feature","id":"5228ff0570d483a23804ceef","properties":{"id":"5228ff0570d483a23804ceef","incentives_received":{"year_2011":false,"year_2012":true,"year_2013":false},"phone_number":"(203) 755-6677","address":{"address":"500 Chase Pkwy","city":"Waterbury","state":"Connecticut","zip":"06708"},"name":"Ghaly, Tamer","npi":1982882239},"geometry":{"type":"Point","coordinates":[-73.064016,41.547388]}},{"type":"Feature","id":"5228ff0570d483a23804cdeb","properties":{"id":"5228ff0570d483a23804cdeb","incentives_received":{"year_2011":false,"year_2012":true,"year_2013":false},"phone_number":"(203) 262-4600","address":{"address":"385 Main St S","city":"Southbury","state":"Connecticut","zip":"06488"},"name":"Aquavia, Mary","npi":1982791547},"geometry":{"type":"Point","coordinates":[-73.223168,41.471172]}},{"type":"Feature","id":"5228ff0570d483a23804cd82","properties":{"id":"5228ff0570d483a23804cd82","incentives_received":{"year_2011":false,"year_2012":true,"year_2013":false},"phone_number":"(860) 779-0867","address":{"address":"612 Hartford Pike","city":"Dayville","state":"Connecticut","zip":"06241"},"name":"Wesler, Lee","npi":1982766325},"geometry":{"type":"Point","coordinates":[-71.874143,41.839786]}},{"type":"Feature","id":"5228ff0570d483a23804cd2c","properties":{"id":"5228ff0570d483a23804cd2c","incentives_received":{"year_2011":false,"year_2012":true,"year_2013":false},"phone_number":"(203) 353-0000","address":{"address":"32 Strawberry Hill Ct, Tully Health Center Suite 4","city":"Stamford","state":"Connecticut","zip":"06902"},"name":"Klenoff, Bruce","npi":1982732582},"geometry":{"type":"Point","coordinates":[-73.535686,41.065411]}},{"type":"Feature","id":"5228ff0570d483a23804cb7f","properties":{"id":"5228ff0570d483a23804cb7f","incentives_received":{"year_2011":false,"year_2012":true,"year_2013":false},"phone_number":"(860) 344-6300","address":{"address":"90 S Main St","city":"Middletown","state":"Connecticut","zip":"06457"},"name":"Douglass, Alan","npi":1982684296},"geometry":{"type":"Point","coordinates":[-72.649167,41.553637]}},{"type":"Feature","id":"5228ff0570d483a23804cb16","properties":{"id":"5228ff0570d483a23804cb16","incentives_received":{"year_2011":false,"year_2012":true,"year_2013":false},"phone_number":"(203) 573-9512","address":{"address":"1625 Straits Turnpike","city":"Middlebury","state":"Connecticut","zip":"06762"},"name":"Elser, John","npi":1982677894},"geometry":{"type":"Point","coordinates":[-73.092087,41.553431]}},{"type":"Feature","id":"5228ff0570d483a23804cb07","properties":{"id":"5228ff0570d483a23804cb07","incentives_received":{"year_2011":true,"year_2012":true,"year_2013":false},"phone_number":"(860) 355-1149","address":{"address":"11 Old Park Ln","city":"New Milford","state":"Connecticut","zip":"06776"},"name":"Levine, Michael","npi":1982676862},"geometry":{"type":"Point","coordinates":[-73.405087,41.59722]}},{"type":"Feature","id":"5228ff0570d483a23804c979","properties":{"id":"5228ff0570d483a23804c979","incentives_received":{"year_2011":false,"year_2012":true,"year_2013":false},"phone_number":"(203) 797-7173","address":{"address":"95 Locust Ave","city":"Danbury","state":"Connecticut","zip":"06810"},"name":"Tikhomirov, Vadim","npi":1982649836},"geometry":{"type":"Point","coordinates":[-73.446909,41.404796]}},{"type":"Feature","id":"5228ff0570d483a23804c8c2","properties":{"id":"5228ff0570d483a23804c8c2","incentives_received":{"year_2011":false,"year_2012":true,"year_2013":false},"phone_number":"(203) 287-0336","address":{"address":"1812 Dixwell Ave","city":"Hamden","state":"Connecticut","zip":"06514"},"name":"Gensicki, Edward","npi":1982632634},"geometry":{"type":"Point","coordinates":[-72.924813,41.361108]}},{"type":"Feature","id":"5228ff0570d483a23804c889","properties":{"id":"5228ff0570d483a23804c889","incentives_received":{"year_2011":true,"year_2012":true,"year_2013":false},"phone_number":"(860) 564-4062","address":{"address":"320 POMFRET ST","city":"PUTNAM","state":"Connecticut","zip":"06260"},"name":"Wilcon, Richard","npi":1982627188},"geometry":{"type":"Point","coordinates":[-71.914565,41.907773]}},{"type":"Feature","id":"5228ff0570d483a23804c854","properties":{"id":"5228ff0570d483a23804c854","incentives_received":{"year_2011":false,"year_2012":true,"year_2013":false},"phone_number":"(508) 334-4465","address":{"address":"320 Pomfret Street","city":"Putnam","state":"Connecticut","zip":"06260"},"name":"Pomorska, Grazyna","npi":1982620837},"geometry":{"type":"Point","coordinates":[-71.914565,41.907773]}},{"type":"Feature","id":"5228ff0570d483a23804c840","properties":{"id":"5228ff0570d483a23804c840","incentives_received":{"year_2011":false,"year_2012":true,"year_2013":false},"phone_number":"(860) 567-9493","address":{"address":"340 Bantam Rd","city":"Litchfield","state":"Connecticut","zip":"06759"},"name":"Ryan, Terrence","npi":1982617833},"geometry":{"type":"Point","coordinates":[-73.207709,41.744771]}},{"type":"Feature","id":"5228ff0570d483a23804c775","properties":{"id":"5228ff0570d483a23804c775","incentives_received":{"year_2011":true,"year_2012":false,"year_2013":false},"phone_number":"(860) 652-8883","address":{"address":"84 Glastonbury Blvd, Suite 101","city":"Glastonbury","state":"Connecticut","zip":"06033"},"name":"Joyce, Michael","npi":1982602868},"geometry":{"type":"Point","coordinates":[-72.621288,41.721312]}},{"type":"Feature","id":"5228ff0570d483a23804c718","properties":{"id":"5228ff0570d483a23804c718","incentives_received":{"year_2011":true,"year_2012":true,"year_2013":false},"phone_number":"(860) 229-0100","address":{"address":"40 Hart St, Building D","city":"New Britain","state":"Connecticut","zip":"06052"},"name":"Krakowiak Colasacco, Izabela","npi":1972795102},"geometry":{"type":"Point","coordinates":[-72.784633,41.659976]}},{"type":"Feature","id":"5228ff0570d483a23804c6e8","properties":{"id":"5228ff0570d483a23804c6e8","incentives_received":{"year_2011":false,"year_2012":false,"year_2013":true},"phone_number":"(860) 442-4263","address":{"address":"341 Montauk Ave","city":"New London","state":"Connecticut","zip":"06320"},"name":"sajjad, sepehr","npi":1972772556},"geometry":{"type":"Point","coordinates":[-72.104185,41.337801]}},{"type":"Feature","id":"5228ff0570d483a23804c6d5","properties":{"id":"5228ff0570d483a23804c6d5","incentives_received":{"year_2011":false,"year_2012":true,"year_2013":false},"phone_number":"(203) 791-2020","address":{"address":"69 Sand Pit Rd","city":"Danbury","state":"Connecticut","zip":"06810"},"name":"Zamecki, Katherine","npi":1972764843},"geometry":{"type":"Point","coordinates":[-73.432677,41.414099]}},{"type":"Feature","id":"5228ff0570d483a23804c6b3","properties":{"id":"5228ff0570d483a23804c6b3","incentives_received":{"year_2011":true,"year_2012":false,"year_2013":false},"phone_number":"(203) 848-1803","address":{"address":"1952 Whitney Ave","city":"Hamden","state":"Connecticut","zip":"06517"},"name":"DHINDSA, SUMEET","npi":1972750776},"geometry":{"type":"Point","coordinates":[-72.906609,41.370044]}},{"type":"Feature","id":"5228ff0570d483a23804c626","properties":{"id":"5228ff0570d483a23804c626","incentives_received":{"year_2011":false,"year_2012":true,"year_2013":false},"phone_number":null,"address":{"address":"491 Gold Star Hwy","city":"Groton","state":"Connecticut","zip":"06340"},"name":"Schrempf, Michael","npi":1972694495},"geometry":{"type":"Point","coordinates":[-72.058767,41.370553]}},{"type":"Feature","id":"5228ff0570d483a23804c60c","properties":{"id":"5228ff0570d483a23804c60c","incentives_received":{"year_2011":true,"year_2012":true,"year_2013":false},"phone_number":"(203) 792-5558","address":{"address":"33 Hospital Ave","city":"Danbury","state":"Connecticut","zip":"06810"},"name":"Rogell, Matthew","npi":1972690725},"geometry":{"type":"Point","coordinates":[-73.446109,41.406202]}},{"type":"Feature","id":"5228ff0570d483a23804c464","properties":{"id":"5228ff0570d483a23804c464","incentives_received":{"year_2011":false,"year_2012":true,"year_2013":false},"phone_number":"(203) 845-4830","address":{"address":"40 Cross St, 4th Fl","city":"Norwalk","state":"Connecticut","zip":"06851"},"name":"Novack, Stuart","npi":1972595494},"geometry":{"type":"Point","coordinates":[-73.422324,41.122995]}},{"type":"Feature","id":"5228ff0570d483a23804c39f","properties":{"id":"5228ff0570d483a23804c39f","incentives_received":{"year_2011":true,"year_2012":false,"year_2013":false},"phone_number":"(860) 229-0100","address":{"address":"40 Hart St","city":"New Britain","state":"Connecticut","zip":"06052"},"name":"Koch, Lawrence","npi":1972581544},"geometry":{"type":"Point","coordinates":[-72.784633,41.659976]}},{"type":"Feature","id":"5228ff0470d483a23804bfcf","properties":{"id":"5228ff0470d483a23804bfcf","incentives_received":{"year_2011":false,"year_2012":true,"year_2013":false},"phone_number":"(203) 634-3636","address":{"address":"1064 East Main St, Suite 301","city":"Meriden","state":"Connecticut","zip":"06450"},"name":"Masserman, Charles","npi":1972502920},"geometry":{"type":"Point","coordinates":[-72.767467,41.526192]}},{"type":"Feature","id":"5228ff0470d483a23804be43","properties":{"id":"5228ff0470d483a23804be43","incentives_received":{"year_2011":false,"year_2012":true,"year_2013":false},"phone_number":"(860) 633-7890","address":{"address":"78 Eastern Boulevard, Suite 9","city":"Glastonbury","state":"Connecticut","zip":"06033"},"name":"Paul, George","npi":1962587584},"geometry":{"type":"Point","coordinates":[-72.585482,41.71831]}},{"type":"Feature","id":"5228ff0470d483a23804bdc6","properties":{"id":"5228ff0470d483a23804bdc6","incentives_received":{"year_2011":false,"year_2012":true,"year_2013":false},"phone_number":"(203) 327-1187","address":{"address":"51 Schuyler Ave","city":"Stamford","state":"Connecticut","zip":"06902"},"name":"Israel, Shara","npi":1962549675},"geometry":{"type":"Point","coordinates":[-73.547469,41.054569]}},{"type":"Feature","id":"5228ff0470d483a23804bd2f","properties":{"id":"5228ff0470d483a23804bd2f","incentives_received":{"year_2011":false,"year_2012":true,"year_2013":false},"phone_number":"(203) 730-8789","address":{"address":"103 Newton Rd","city":"Danbury","state":"Connecticut","zip":"06810"},"name":"Mitchell, Kevin","npi":1962505040},"geometry":{"type":"Point","coordinates":[-73.411863,41.41156]}},{"type":"Feature","id":"5228ff0470d483a23804bc52","properties":{"id":"5228ff0470d483a23804bc52","incentives_received":{"year_2011":true,"year_2012":false,"year_2013":false},"phone_number":null,"address":{"address":"45 Green Hollow Rd","city":"Danielson","state":"Connecticut","zip":null},"name":"RAIFORD, PHILIP","npi":1962487983},"geometry":{"type":"Point","coordinates":[-71.880094,41.796104]}},{"type":"Feature","id":"5228ff0470d483a23804b98b","properties":{"id":"5228ff0470d483a23804b98b","incentives_received":{"year_2011":false,"year_2012":true,"year_2013":false},"phone_number":"(203) 755-6677","address":{"address":"500 Chase Pkwy","city":"Waterbury","state":"Connecticut","zip":"06708"},"name":"Flynn, William","npi":1962434514},"geometry":{"type":"Point","coordinates":[-73.064016,41.547388]}},{"type":"Feature","id":"5228ff0470d483a23804b8d9","properties":{"id":"5228ff0470d483a23804b8d9","incentives_received":{"year_2011":false,"year_2012":true,"year_2013":false},"phone_number":"(203) 371-5873","address":{"address":"5520 Park Ave","city":"Trumbull","state":"Connecticut","zip":"06611"},"name":"guadagnoli, germano","npi":1962415562},"geometry":{"type":"Point","coordinates":[-73.244584,41.227014]}},{"type":"Feature","id":"5228ff0470d483a23804b6b2","properties":{"id":"5228ff0470d483a23804b6b2","incentives_received":{"year_2011":false,"year_2012":true,"year_2013":false},"phone_number":"(860) 364-0134","address":{"address":"50 Amenia Rd","city":"Sharon","state":"Connecticut","zip":"06069"},"name":"GEORGE, DANIEL","npi":1952490245},"geometry":{"type":"Point","coordinates":[-73.479755,41.876536]}},{"type":"Feature","id":"5228ff0470d483a23804b656","properties":{"id":"5228ff0470d483a23804b656","incentives_received":{"year_2011":false,"year_2012":true,"year_2013":false},"phone_number":"(203) 929-7331","address":{"address":"330 Bridgeport Ave","city":"Shelton","state":"Connecticut","zip":"06484"},"name":"Streit, Samuel","npi":1952467672},"geometry":{"type":"Point","coordinates":[-73.105749,41.298924]}},{"type":"Feature","id":"5228ff0470d483a23804b52b","properties":{"id":"5228ff0470d483a23804b52b","incentives_received":{"year_2011":false,"year_2012":true,"year_2013":false},"phone_number":"(860) 367-0087","address":{"address":"88 Norwich New London Tpke, Suite #2","city":"Uncasville","state":"Connecticut","zip":"06382"},"name":"Peter, Thomas","npi":1952397549},"geometry":{"type":"Point","coordinates":[-72.110271,41.426337]}},{"type":"Feature","id":"5228ff0470d483a23804b32b","properties":{"id":"5228ff0470d483a23804b32b","incentives_received":{"year_2011":true,"year_2012":true,"year_2013":false},"phone_number":"(203) 598-0700","address":{"address":"1579 Straits Tpke, Turnpike Office Park","city":"Middlebury","state":"Connecticut","zip":"06762"},"name":"Keggi, John","npi":1952366072},"geometry":{"type":"Point","coordinates":[-73.09182,41.55209]}},{"type":"Feature","id":"5228ff0470d483a23804b0d1","properties":{"id":"5228ff0470d483a23804b0d1","incentives_received":{"year_2011":true,"year_2012":true,"year_2013":false},"phone_number":"(203) 458-9911","address":{"address":"1591 Boston Post Rd, Suite 100","city":"Guilford","state":"Connecticut","zip":"06437"},"name":"Hurlburt, Nancy","npi":1952313694},"geometry":{"type":"Point","coordinates":[-72.669162,41.285072]}},{"type":"Feature","id":"5228ff0470d483a23804af34","properties":{"id":"5228ff0470d483a23804af34","incentives_received":{"year_2011":false,"year_2012":true,"year_2013":false},"phone_number":"(860) 545-5061","address":{"address":"85 Seymour Street","city":"Hartford","state":"Connecticut","zip":"06106"},"name":"Azemi, Talhat","npi":1942407853},"geometry":{"type":"Point","coordinates":[-72.680798,41.754452]}},{"type":"Feature","id":"5228ff0470d483a23804af1f","properties":{"id":"5228ff0470d483a23804af1f","incentives_received":{"year_2011":true,"year_2012":true,"year_2013":false},"phone_number":"(203) 325-4087","address":{"address":"90 Morgan St","city":"Stamford","state":"Connecticut","zip":"06905"},"name":"hughes, peter","npi":1942399886},"geometry":{"type":"Point","coordinates":[-73.537058,41.064598]}},{"type":"Feature","id":"5228ff0470d483a23804aee0","properties":{"id":"5228ff0470d483a23804aee0","incentives_received":{"year_2011":false,"year_2012":true,"year_2013":false},"phone_number":"(203) 878-1236","address":{"address":"202 Cherry St","city":"Milford","state":"Connecticut","zip":"06460"},"name":"Sprotzer, Samuel","npi":1942390786},"geometry":{"type":"Point","coordinates":[-73.048784,41.229374]}},{"type":"Feature","id":"5228ff0470d483a23804ae5f","properties":{"id":"5228ff0470d483a23804ae5f","incentives_received":{"year_2011":false,"year_2012":true,"year_2013":false},"phone_number":"(860) 673-3737","address":{"address":"40 Dale Rd, Suite 103","city":"Avon","state":"Connecticut","zip":"06001"},"name":"Mufti, Lalarukh","npi":1942352794},"geometry":{"type":"Point","coordinates":[-72.488487,41.784645]}},{"type":"Feature","id":"5228ff0470d483a23804ad97","properties":{"id":"5228ff0470d483a23804ad97","incentives_received":{"year_2011":false,"year_2012":true,"year_2013":false},"phone_number":"(860) 728-1212","address":{"address":"19 Woodland Street, Suite 31","city":"Hartford","state":"Connecticut","zip":"06105"},"name":"Elligers, Kenneth","npi":1942303037},"geometry":{"type":"Point","coordinates":[-72.701749,41.769514]}},{"type":"Feature","id":"5228ff0470d483a23804ad32","properties":{"id":"5228ff0470d483a23804ad32","incentives_received":{"year_2011":true,"year_2012":true,"year_2013":false},"phone_number":"(203) 696-6125","address":{"address":"56 Quarry Road","city":"Trumbull","state":"Connecticut","zip":"06611"},"name":"Marrinan, Greg","npi":1942295506},"geometry":{"type":"Point","coordinates":[-73.180671,41.224855]}},{"type":"Feature","id":"5228ff0470d483a23804acf4","properties":{"id":"5228ff0470d483a23804acf4","incentives_received":{"year_2011":false,"year_2012":true,"year_2013":false},"phone_number":"(860) 236-0331","address":{"address":"345 N Main St, Suite 242","city":"West Hartford","state":"Connecticut","zip":"06117"},"name":"Beausoleil, Shannon","npi":1942291653},"geometry":{"type":"Point","coordinates":[-72.74671,41.783245]}},{"type":"Feature","id":"5228ff0470d483a23804aceb","properties":{"id":"5228ff0470d483a23804aceb","incentives_received":{"year_2011":false,"year_2012":true,"year_2013":false},"phone_number":"(203) 789-1249","address":{"address":"2 Church Street South, Suite 305","city":"New Haven","state":"Connecticut","zip":"06519"},"name":"Bolognia, Jean","npi":1942291331},"geometry":{"type":"Point","coordinates":[-72.92837,41.296214]}},{"type":"Feature","id":"5228ff0370d483a23804ac7c","properties":{"id":"5228ff0370d483a23804ac7c","incentives_received":{"year_2011":false,"year_2012":true,"year_2013":false},"phone_number":"(203) 573-9512","address":{"address":"1625 Straits Turnpike St 211, Alliance Medical Group","city":"Middlebury","state":"Connecticut","zip":"06762"},"name":"Tobin, Daniel","npi":1942283171},"geometry":{"type":"Point","coordinates":[-73.092087,41.553431]}},{"type":"Feature","id":"5228ff0370d483a23804ac04","properties":{"id":"5228ff0370d483a23804ac04","incentives_received":{"year_2011":false,"year_2012":true,"year_2013":false},"phone_number":"(203) 288-9650","address":{"address":"2440 Whitney Ave","city":"Hamden","state":"Connecticut","zip":"06518"},"name":"Craig, Holly","npi":1942275557},"geometry":{"type":"Point","coordinates":[-72.901052,41.386077]}},{"type":"Feature","id":"5228ff0370d483a23804aba4","properties":{"id":"5228ff0370d483a23804aba4","incentives_received":{"year_2011":false,"year_2012":true,"year_2013":false},"phone_number":"(203) 384-3873","address":{"address":"226 Mill Hill Ave, 3rd floor","city":"Bridgeport","state":"Connecticut","zip":"06610"},"name":"Skudlarska, Beata","npi":1942269915},"geometry":{"type":"Point","coordinates":[-73.165303,41.189498]}},{"type":"Feature","id":"5228ff0370d483a23804ab3f","properties":{"id":"5228ff0370d483a23804ab3f","incentives_received":{"year_2011":false,"year_2012":true,"year_2013":false},"phone_number":"(860) 289-3375","address":{"address":"85 Seymour Street, Suite 200","city":"Hartford","state":"Connecticut","zip":"06106"},"name":"Marinelli, David","npi":1942263942},"geometry":{"type":"Point","coordinates":[-72.680798,41.754452]}},{"type":"Feature","id":"5228ff0370d483a23804aa05","properties":{"id":"5228ff0370d483a23804aa05","incentives_received":{"year_2011":true,"year_2012":true,"year_2013":false},"phone_number":"(860) 456-0287","address":{"address":"36 Watson St","city":"Willimantic","state":"Connecticut","zip":"06226"},"name":"green, steven","npi":1942236989},"geometry":{"type":"Point","coordinates":[-72.221771,41.714381]}},{"type":"Feature","id":"5228ff0370d483a23804a9de","properties":{"id":"5228ff0370d483a23804a9de","incentives_received":{"year_2011":true,"year_2012":true,"year_2013":false},"phone_number":"(860) 886-0161","address":{"address":"79 Wawecus St, Suite 105","city":"Norwich","state":"Connecticut","zip":"06360"},"name":"Pastel, Neil","npi":1942233614},"geometry":{"type":"Point","coordinates":[-72.109435,41.552122]}},{"type":"Feature","id":"5228ff0370d483a23804a9ac","properties":{"id":"5228ff0370d483a23804a9ac","incentives_received":{"year_2011":false,"year_2012":true,"year_2013":false},"phone_number":"(203) 207-3320","address":{"address":"41 Germantown Rd","city":"Danbury","state":"Connecticut","zip":"06810"},"name":"Trock, David","npi":1942229216},"geometry":{"type":"Point","coordinates":[-73.435553,41.410223]}},{"type":"Feature","id":"5228ff0370d483a23804a912","properties":{"id":"5228ff0370d483a23804a912","incentives_received":{"year_2011":true,"year_2012":true,"year_2013":false},"phone_number":"(203) 375-2861","address":{"address":"999 Silver Ln, Suite 2B","city":"Trumbull","state":"Connecticut","zip":"06611"},"name":"Kucher, Taras","npi":1942210851},"geometry":{"type":"Point","coordinates":[-73.153824,41.230052]}},{"type":"Feature","id":"5228ff0370d483a23804a8e1","properties":{"id":"5228ff0370d483a23804a8e1","incentives_received":{"year_2011":false,"year_2012":true,"year_2013":false},"phone_number":"(860) 258-3470","address":{"address":"Connecticut Multispecialty Group, PC, 2110 Silas Deane Highway","city":"Rocky Hill","state":"Connecticut","zip":"06010"},"name":"Oder, Terrence","npi":1942207725},"geometry":{"type":"Point","coordinates":[-72.962383,41.670601]}},{"type":"Feature","id":"5228ff0370d483a23804a7cc","properties":{"id":"5228ff0370d483a23804a7cc","incentives_received":{"year_2011":false,"year_2012":true,"year_2013":false},"phone_number":"(860) 284-4950","address":{"address":"21 South Road, Suite 112","city":"Farmington","state":"Connecticut","zip":"06032"},"name":"Wycherly, Benjamin","npi":1932356508},"geometry":{"type":"Point","coordinates":[-73.037366,41.891083]}},{"type":"Feature","id":"5228ff0370d483a23804a701","properties":{"id":"5228ff0370d483a23804a701","incentives_received":{"year_2011":true,"year_2012":true,"year_2013":false},"phone_number":"(203) 325-0805","address":{"address":"1351 Washington Blvd Ste 101","city":"Stamford","state":"Connecticut","zip":"06902"},"name":"vietorisz, esteban","npi":1932283769},"geometry":{"type":"Point","coordinates":[-73.543796,41.05979]}},{"type":"Feature","id":"5228ff0370d483a23804a620","properties":{"id":"5228ff0370d483a23804a620","incentives_received":{"year_2011":false,"year_2012":true,"year_2013":false},"phone_number":"(860) 347-4258","address":{"address":"520 Saybrook Rd, Middlesex Cardiology Associates","city":"Middletown","state":"Connecticut","zip":"06457"},"name":"Shani, Eran","npi":1932213824},"geometry":{"type":"Point","coordinates":[-72.621915,41.540094]}},{"type":"Feature","id":"5228ff0370d483a23804a60f","properties":{"id":"5228ff0370d483a23804a60f","incentives_received":{"year_2011":true,"year_2012":true,"year_2013":false},"phone_number":"(860) 928-6541","address":{"address":"55 Green Hollow Road","city":"Danielson","state":"Connecticut","zip":"06239"},"name":"Manning, Jeffrey","npi":1932212081},"geometry":{"type":"Point","coordinates":[-71.880109,41.795805]}},{"type":"Feature","id":"5228ff0370d483a23804a5dc","properties":{"id":"5228ff0370d483a23804a5dc","incentives_received":{"year_2011":true,"year_2012":true,"year_2013":false},"phone_number":"(203) 438-8400","address":{"address":"30 Prospect St","city":"Ridgefield","state":"Connecticut","zip":"06877"},"name":"COHEN, GEORGE","npi":1932204724},"geometry":{"type":"Point","coordinates":[-73.496259,41.283721]}},{"type":"Feature","id":"5228ff0370d483a23804a5a8","properties":{"id":"5228ff0370d483a23804a5a8","incentives_received":{"year_2011":false,"year_2012":true,"year_2013":false},"phone_number":"(203) 348-2437","address":{"address":"190 W Broad St","city":"Stamford","state":"Connecticut","zip":"06902"},"name":"Stepp, Evan","npi":1932199536},"geometry":{"type":"Point","coordinates":[-73.552454,41.056234]}},{"type":"Feature","id":"5228ff0370d483a23804a5a5","properties":{"id":"5228ff0370d483a23804a5a5","incentives_received":{"year_2011":false,"year_2012":true,"year_2013":false},"phone_number":"(203) 781-4444","address":{"address":"150 Sargent Dr","city":"New Haven","state":"Connecticut","zip":"06511"},"name":"Jung, Lee","npi":1932199288},"geometry":{"type":"Point","coordinates":[-72.921872,41.291962]}},{"type":"Feature","id":"5228ff0370d483a23804a4fd","properties":{"id":"5228ff0370d483a23804a4fd","incentives_received":{"year_2011":true,"year_2012":true,"year_2013":false},"phone_number":"(860) 344-6300","address":{"address":"90 S Main St","city":"Middletown","state":"Connecticut","zip":"06457"},"name":"Kramer, Adriel","npi":1932189792},"geometry":{"type":"Point","coordinates":[-72.649167,41.553637]}},{"type":"Feature","id":"5228ff0370d483a23804a464","properties":{"id":"5228ff0370d483a23804a464","incentives_received":{"year_2011":true,"year_2012":true,"year_2013":false},"phone_number":"(860) 741-3041","address":{"address":"1379 Enfield St","city":"Enfield","state":"Connecticut","zip":"06082"},"name":"JOHNSON, THOMAS","npi":1932179421},"geometry":{"type":"Point","coordinates":[-72.592541,41.971186]}},{"type":"Feature","id":"5228ff0370d483a23804a36f","properties":{"id":"5228ff0370d483a23804a36f","incentives_received":{"year_2011":false,"year_2012":true,"year_2013":false},"phone_number":"(860) 314-2082","address":{"address":"102 North St","city":"Bristol","state":"Connecticut","zip":"06010"},"name":"PASHA, SAIMA","npi":1932163292},"geometry":{"type":"Point","coordinates":[-72.917163,41.67573]}},{"type":"Feature","id":"5228ff0370d483a23804a215","properties":{"id":"5228ff0370d483a23804a215","incentives_received":{"year_2011":false,"year_2012":true,"year_2013":false},"phone_number":"(860) 583-6500","address":{"address":"1 Liberty Square, Suite 102","city":"New Britain","state":"Connecticut","zip":"06051"},"name":"LeGeyt, Michael","npi":1932133436},"geometry":{"type":"Point","coordinates":[-72.762045,41.676037]}},{"type":"Feature","id":"5228ff0370d483a23804a21d","properties":{"id":"5228ff0370d483a23804a21d","incentives_received":{"year_2011":false,"year_2012":true,"year_2013":false},"phone_number":"(203) 739-7070","address":{"address":"24 Hospital Ave","city":"Danbury","state":"Connecticut","zip":"06810"},"name":"Oelberg, David","npi":1932134400},"geometry":{"type":"Point","coordinates":[-73.446772,41.405989]}},{"type":"Feature","id":"5228ff0370d483a23804a204","properties":{"id":"5228ff0370d483a23804a204","incentives_received":{"year_2011":false,"year_2012":true,"year_2013":false},"phone_number":"(203) 797-1500","address":{"address":"226 White St","city":"Danbury","state":"Connecticut","zip":"06810"},"name":"DIGIOVANNI, Giuseppe","npi":1932131927},"geometry":{"type":"Point","coordinates":[-73.439835,41.399481]}},{"type":"Feature","id":"5228ff0370d483a23804a1e8","properties":{"id":"5228ff0370d483a23804a1e8","incentives_received":{"year_2011":false,"year_2012":true,"year_2013":false},"phone_number":"(203) 732-7573","address":{"address":"130 Division St","city":"Derby","state":"Connecticut","zip":"06418"},"name":"CHAISSON, KATHLEEN","npi":1932130259},"geometry":{"type":"Point","coordinates":[-73.086162,41.333987]}},{"type":"Feature","id":"5228ff0370d483a23804a192","properties":{"id":"5228ff0370d483a23804a192","incentives_received":{"year_2011":true,"year_2012":true,"year_2013":false},"phone_number":"(860) 355-1149","address":{"address":"11 Old Park Lane Rd","city":"New Milford","state":"Connecticut","zip":"06776"},"name":"Katz, Donald","npi":1932121126},"geometry":{"type":"Point","coordinates":[-73.403587,41.601042]}},{"type":"Feature","id":"5228ff0370d483a23804a137","properties":{"id":"5228ff0370d483a23804a137","incentives_received":{"year_2011":false,"year_2012":true,"year_2013":false},"phone_number":"(203) 459-0408","address":{"address":"888 White Plains Rd, suite 203","city":"Trumbull","state":"Connecticut","zip":"06611"},"name":"Chanda, Kaberi","npi":1932111481},"geometry":{"type":"Point","coordinates":[-73.196052,41.244534]}},{"type":"Feature","id":"5228ff0370d483a23804a0e8","properties":{"id":"5228ff0370d483a23804a0e8","incentives_received":{"year_2011":false,"year_2012":true,"year_2013":false},"phone_number":"(860) 679-2804","address":{"address":"263 Farmington Ave, ENT (Otolaryngology)","city":"Farmington","state":"Connecticut","zip":"06030"},"name":"Leonard, Gerald","npi":1932105954},"geometry":{"type":"Point","coordinates":[-72.788231,41.684374]}},{"type":"Feature","id":"5228ff0370d483a238049f0c","properties":{"id":"5228ff0370d483a238049f0c","incentives_received":{"year_2011":true,"year_2012":true,"year_2013":false},"phone_number":"(860) 779-0867","address":{"address":"320 POMFRET ST","city":"PUTNAM","state":"Connecticut","zip":"06260"},"name":"Kroll, Sherry","npi":1922178557},"geometry":{"type":"Point","coordinates":[-71.914565,41.907773]}},{"type":"Feature","id":"5228ff0370d483a238049ede","properties":{"id":"5228ff0370d483a238049ede","incentives_received":{"year_2011":false,"year_2012":true,"year_2013":false},"phone_number":"(203) 637-5406","address":{"address":"8 W End Ave","city":"Old Greenwich","state":"Connecticut","zip":"06870"},"name":"PINCUS, JAYNE","npi":1922166529},"geometry":{"type":"Point","coordinates":[-73.568567,41.031538]}},{"type":"Feature","id":"5228ff0370d483a238049e68","properties":{"id":"5228ff0370d483a238049e68","incentives_received":{"year_2011":false,"year_2012":true,"year_2013":false},"phone_number":"(860) 527-5803","address":{"address":"43 Woodland Street, Suite G-80, Gothic Park","city":"Hartford","state":"Connecticut","zip":"06105"},"name":"Dasanu, Constantin","npi":1922120708},"geometry":{"type":"Point","coordinates":[-72.701611,41.770356]}},{"type":"Feature","id":"5228ff0370d483a238049de9","properties":{"id":"5228ff0370d483a238049de9","incentives_received":{"year_2011":false,"year_2012":true,"year_2013":false},"phone_number":"(860) 728-1212","address":{"address":"19 Woodland Street, Suite 31","city":"Hartford","state":"Connecticut","zip":"06105"},"name":"Wiseman, Valerie","npi":1922101021},"geometry":{"type":"Point","coordinates":[-72.701749,41.769514]}},{"type":"Feature","id":"5228ff0370d483a238049d74","properties":{"id":"5228ff0370d483a238049d74","incentives_received":{"year_2011":true,"year_2012":true,"year_2013":false},"phone_number":"(203) 696-6125","address":{"address":"56 Quarry Road","city":"Trumbull","state":"Connecticut","zip":"06611"},"name":"Velasco, Noel","npi":1922093590},"geometry":{"type":"Point","coordinates":[-73.180671,41.224855]}},{"type":"Feature","id":"5228ff0370d483a238049d5c","properties":{"id":"5228ff0370d483a238049d5c","incentives_received":{"year_2011":false,"year_2012":true,"year_2013":false},"phone_number":"(860) 832-4666","address":{"address":"1 Lake Street, Grove Hill Medical Center","city":"New Britain","state":"Connecticut","zip":"06052"},"name":"Pepperman, Robert","npi":1922092162},"geometry":{"type":"Point","coordinates":[-72.787334,41.667929]}},{"type":"Feature","id":"5228ff0370d483a238049c5d","properties":{"id":"5228ff0370d483a238049c5d","incentives_received":{"year_2011":true,"year_2012":true,"year_2013":false},"phone_number":"(860) 649-3338","address":{"address":"117 E Center St","city":"Manchester","state":"Connecticut","zip":"06040"},"name":"Wichman, Kenneth","npi":1922074020},"geometry":{"type":"Point","coordinates":[-72.517972,41.77673]}},{"type":"Feature","id":"5228ff0370d483a238049a62","properties":{"id":"5228ff0370d483a238049a62","incentives_received":{"year_2011":false,"year_2012":true,"year_2013":false},"phone_number":"(203) 797-7413","address":{"address":"24 Hospital Ave","city":"Danbury","state":"Connecticut","zip":"06810"},"name":"Stratidis, John","npi":1922036987},"geometry":{"type":"Point","coordinates":[-73.446772,41.405989]}},{"type":"Feature","id":"5228ff0370d483a238049a3c","properties":{"id":"5228ff0370d483a238049a3c","incentives_received":{"year_2011":false,"year_2012":true,"year_2013":false},"phone_number":"(860) 767-8265","address":{"address":"147 Westbrook Rd","city":"Essex","state":"Connecticut","zip":"06426"},"name":"Schaffner, Andrea","npi":1922035005},"geometry":{"type":"Point","coordinates":[-72.418231,41.336337]}},{"type":"Feature","id":"5228ff0370d483a2380499a7","properties":{"id":"5228ff0370d483a2380499a7","incentives_received":{"year_2011":true,"year_2012":true,"year_2013":false},"phone_number":"(203) 634-0086","address":{"address":"816 Broad St","city":"Meriden","state":"Connecticut","zip":"06450"},"name":"Schwarz, Alan","npi":1922018944},"geometry":{"type":"Point","coordinates":[-72.786686,41.541153]}},{"type":"Feature","id":"5228ff0370d483a238049963","properties":{"id":"5228ff0370d483a238049963","incentives_received":{"year_2011":false,"year_2012":true,"year_2013":false},"phone_number":"(203) 291-3800","address":{"address":"830 Post Rd E","city":"Westport","state":"Connecticut","zip":"06880"},"name":"Singer, Richard","npi":1922009638},"geometry":{"type":"Point","coordinates":[-73.338424,41.137965]}},{"type":"Feature","id":"5228ff0370d483a2380498fd","properties":{"id":"5228ff0370d483a2380498fd","incentives_received":{"year_2011":true,"year_2012":true,"year_2013":false},"phone_number":"(203) 748-2551","address":{"address":"69 Sand Pit Rd, Ste 300","city":"Danbury","state":"Connecticut","zip":"06810"},"name":"Wirz, Diane","npi":1922003805},"geometry":{"type":"Point","coordinates":[-73.432677,41.414099]}},{"type":"Feature","id":"5228ff0270d483a2380496fd","properties":{"id":"5228ff0270d483a2380496fd","incentives_received":{"year_2011":false,"year_2012":true,"year_2013":false},"phone_number":"(203) 852-9913","address":{"address":"148 East Avenue","city":"Norwalk","state":"Connecticut","zip":"06851"},"name":"Wexler, Jesse","npi":1912972670},"geometry":{"type":"Point","coordinates":[-73.407666,41.111239]}},{"type":"Feature","id":"5228ff0270d483a2380496d7","properties":{"id":"5228ff0270d483a2380496d7","incentives_received":{"year_2011":false,"year_2012":true,"year_2013":false},"phone_number":"(203) 852-9913","address":{"address":"148 East Ave","city":"Norwalk","state":"Connecticut","zip":"06851"},"name":"Levine, Alan","npi":1912970732},"geometry":{"type":"Point","coordinates":[-73.407666,41.111239]}},{"type":"Feature","id":"5228ff0270d483a2380496af","properties":{"id":"5228ff0270d483a2380496af","incentives_received":{"year_2011":false,"year_2012":true,"year_2013":false},"phone_number":"(203) 438-6541","address":{"address":"21 South St","city":"Ridgefield","state":"Connecticut","zip":"06877"},"name":"Seo, Weiming","npi":1912968090},"geometry":{"type":"Point","coordinates":[-73.494199,41.290193]}},{"type":"Feature","id":"5228ff0270d483a238049638","properties":{"id":"5228ff0270d483a238049638","incentives_received":{"year_2011":true,"year_2012":true,"year_2013":false},"phone_number":"(203) 934-4611","address":{"address":"354 Campbell Ave","city":"West Haven","state":"Connecticut","zip":"06516"},"name":"DAddio, Richard","npi":1912960410},"geometry":{"type":"Point","coordinates":[-72.948287,41.268137]}},{"type":"Feature","id":"5228ff0270d483a2380495d3","properties":{"id":"5228ff0270d483a2380495d3","incentives_received":{"year_2011":false,"year_2012":true,"year_2013":false},"phone_number":"(203) 264-6503","address":{"address":"22 Old Waterbury Rd, Suite 201","city":"Southbury","state":"Connecticut","zip":"06488"},"name":"Nisbeth, Heather","npi":1912952243},"geometry":{"type":"Point","coordinates":[-73.212488,41.481613]}},{"type":"Feature","id":"5228ff0270d483a2380495ad","properties":{"id":"5228ff0270d483a2380495ad","incentives_received":{"year_2011":false,"year_2012":true,"year_2013":false},"phone_number":"(860) 249-6291","address":{"address":"85 Retreat Ave","city":"Hartford","state":"Connecticut","zip":"06106"},"name":"Kamradt, Jeffrey","npi":1912949165},"geometry":{"type":"Point","coordinates":[-72.678836,41.753312]}},{"type":"Feature","id":"5228ff0270d483a2380494ef","properties":{"id":"5228ff0270d483a2380494ef","incentives_received":{"year_2011":false,"year_2012":true,"year_2013":false},"phone_number":"(860) 249-6291","address":{"address":"85 Retreat Ave","city":"Hartford","state":"Connecticut","zip":"06106"},"name":"HONG, TIMOTHY","npi":1912933920},"geometry":{"type":"Point","coordinates":[-72.678836,41.753312]}},{"type":"Feature","id":"5228ff0270d483a2380493e4","properties":{"id":"5228ff0270d483a2380493e4","incentives_received":{"year_2011":false,"year_2012":true,"year_2013":false},"phone_number":"(860) 666-5111","address":{"address":"375 Willard Ave, Grove Hill Medical Center","city":"Newington","state":"Connecticut","zip":"06111"},"name":"Mihalek, Jeffrey","npi":1912906579},"geometry":{"type":"Point","coordinates":[-72.736446,41.709894]}},{"type":"Feature","id":"5228ff0270d483a238049372","properties":{"id":"5228ff0270d483a238049372","incentives_received":{"year_2011":false,"year_2012":true,"year_2013":false},"phone_number":"(860) 289-3375","address":{"address":"111 Founders Plz, Suite 400","city":"East Hartford","state":"Connecticut","zip":"06108"},"name":"Herbst, Timothy","npi":1912290883},"geometry":{"type":"Point","coordinates":[-72.621365,41.779799]}},{"type":"Feature","id":"5228ff0270d483a23804933d","properties":{"id":"5228ff0270d483a23804933d","incentives_received":{"year_2011":false,"year_2012":true,"year_2013":false},"phone_number":"(860) 533-4666","address":{"address":"2400 Tamarack Ave, Suite 202","city":"South Windsor","state":"Connecticut","zip":"06074"},"name":"Rajashekar, Shilpa","npi":1912183187},"geometry":{"type":"Point","coordinates":[-72.79078,41.917836]}},{"type":"Feature","id":"5228ff0270d483a2380491c8","properties":{"id":"5228ff0270d483a2380491c8","incentives_received":{"year_2011":false,"year_2012":true,"year_2013":false},"phone_number":"(203) 730-8789","address":{"address":"103 Newtown Rd","city":"Danbury","state":"Connecticut","zip":"06810"},"name":"Barry, Andrea","npi":1912056649},"geometry":{"type":"Point","coordinates":[-73.411863,41.41156]}},{"type":"Feature","id":"5228ff0270d483a2380490b4","properties":{"id":"5228ff0270d483a2380490b4","incentives_received":{"year_2011":false,"year_2012":true,"year_2013":false},"phone_number":"(203) 327-6050","address":{"address":"34 Shelburne Road","city":"Stamford","state":"Connecticut","zip":"06902"},"name":"Tepler, Isidore","npi":1902991276},"geometry":{"type":"Point","coordinates":[-73.553813,41.054843]}},{"type":"Feature","id":"5228ff0270d483a238048fd6","properties":{"id":"5228ff0270d483a238048fd6","incentives_received":{"year_2011":false,"year_2012":true,"year_2013":false},"phone_number":"(230) 235-7946","address":{"address":"12 Curtis St","city":"Meriden","state":"Connecticut","zip":"06450"},"name":"Block, Robert","npi":1902919319},"geometry":{"type":"Point","coordinates":[-72.794788,41.530716]}},{"type":"Feature","id":"5228ff0270d483a238048fbe","properties":{"id":"5228ff0270d483a238048fbe","incentives_received":{"year_2011":false,"year_2012":true,"year_2013":false},"phone_number":"(860) 677-5533","address":{"address":"36 East Main Street","city":"Avon","state":"Connecticut","zip":"06001"},"name":"Rosenberg, Ralph","npi":1902915713},"geometry":{"type":"Point","coordinates":[-72.832836,41.810479]}},{"type":"Feature","id":"5228ff0270d483a238048f98","properties":{"id":"5228ff0270d483a238048f98","incentives_received":{"year_2011":false,"year_2012":true,"year_2013":false},"phone_number":"(860) 236-5431","address":{"address":"449 Farmington Ave","city":"Hartford","state":"Connecticut","zip":"06105"},"name":"Lippman, Leonard","npi":1902909088},"geometry":{"type":"Point","coordinates":[-72.705772,41.7668]}},{"type":"Feature","id":"5228ff0270d483a238048f59","properties":{"id":"5228ff0270d483a238048f59","incentives_received":{"year_2011":true,"year_2012":true,"year_2013":false},"phone_number":"(860) 246-2571","address":{"address":"85 Seymour Street, Suite 1000","city":"Hartford","state":"Connecticut","zip":"06106"},"name":"Ianello, Joseph","npi":1902900525},"geometry":{"type":"Point","coordinates":[-72.680798,41.754452]}},{"type":"Feature","id":"5228ff0270d483a238048e18","properties":{"id":"5228ff0270d483a238048e18","incentives_received":{"year_2011":false,"year_2012":true,"year_2013":false},"phone_number":"(203) 852-9913","address":{"address":"148 East Ave","city":"Norwalk","state":"Connecticut","zip":"06851"},"name":"Ernberg, Lauren","npi":1902879596},"geometry":{"type":"Point","coordinates":[-73.407666,41.111239]}},{"type":"Feature","id":"5228ff0270d483a238048d5d","properties":{"id":"5228ff0270d483a238048d5d","incentives_received":{"year_2011":false,"year_2012":true,"year_2013":false},"phone_number":"(203) 373-9100","address":{"address":"3180 Main St, Suite 301","city":"Bridgeport","state":"Connecticut","zip":"06606"},"name":"DiStefano, Arcangelo","npi":1902869415},"geometry":{"type":"Point","coordinates":[-73.205556,41.205324]}},{"type":"Feature","id":"5228ff0270d483a238048d03","properties":{"id":"5228ff0270d483a238048d03","incentives_received":{"year_2011":false,"year_2012":true,"year_2013":false},"phone_number":"(203) 794-1979","address":{"address":"132 Main St","city":"Danbury","state":"Connecticut","zip":"06810"},"name":"WILLIAMS, MARTIN","npi":1902863798},"geometry":{"type":"Point","coordinates":[-73.449432,41.392125]}},{"type":"Feature","id":"5228ff0270d483a238048c3d","properties":{"id":"5228ff0270d483a238048c3d","incentives_received":{"year_2011":false,"year_2012":true,"year_2013":false},"phone_number":"(860) 585-6944","address":{"address":"8 Collins Rd","city":"Bristol","state":"Connecticut","zip":"06010"},"name":"Fischman, Michael","npi":1902848773},"geometry":{"type":"Point","coordinates":[-72.913044,41.694232]}},{"type":"Feature","id":"5228ff0270d483a238048c3a","properties":{"id":"5228ff0270d483a238048c3a","incentives_received":{"year_2011":true,"year_2012":true,"year_2013":false},"phone_number":"(203) 877-7622","address":{"address":"2044 Bridgeport Ave","city":"Milford","state":"Connecticut","zip":"06460"},"name":"Tarkhan, Ismail","npi":1902848609},"geometry":{"type":"Point","coordinates":[-73.066242,41.217088]}},{"type":"Feature","id":"5228ff0270d483a2380489ad","properties":{"id":"5228ff0270d483a2380489ad","incentives_received":{"year_2011":false,"year_2012":false,"year_2013":true},"phone_number":"(203) 785-2140","address":{"address":"300 George St, 6th floor","city":"New Haven","state":"Connecticut","zip":"06511"},"name":"Srivastava, Bhaskar","npi":1902084296},"geometry":{"type":"Point","coordinates":[-72.931014,41.305293]}},{"type":"Feature","id":"5228ff0270d483a238048915","properties":{"id":"5228ff0270d483a238048915","incentives_received":{"year_2011":false,"year_2012":true,"year_2013":false},"phone_number":"(203) 791-2020","address":{"address":"69 Sand Pit Rd","city":"Danbury","state":"Connecticut","zip":"06810"},"name":"Johar, Archna","npi":1902007438},"geometry":{"type":"Point","coordinates":[-73.432677,41.414099]}},{"type":"Feature","id":"5228ff0270d483a23804874f","properties":{"id":"5228ff0270d483a23804874f","incentives_received":{"year_2011":false,"year_2012":true,"year_2013":false},"phone_number":"(860) 585-6944","address":{"address":"8 Collins Rd","city":"Bristol","state":"Connecticut","zip":"06010"},"name":"DAddario, Peter","npi":1891874376},"geometry":{"type":"Point","coordinates":[-72.913044,41.694232]}},{"type":"Feature","id":"5228ff0270d483a238048635","properties":{"id":"5228ff0270d483a238048635","incentives_received":{"year_2011":false,"year_2012":true,"year_2013":false},"phone_number":"(860) 223-0220","address":{"address":"1 Lake St, Grove Hill Medical Center","city":"New Britain","state":"Connecticut","zip":"06052"},"name":"Paris, Jan","npi":1891797775},"geometry":{"type":"Point","coordinates":[-72.787334,41.667929]}},{"type":"Feature","id":"5228ff0270d483a238048609","properties":{"id":"5228ff0270d483a238048609","incentives_received":{"year_2011":true,"year_2012":true,"year_2013":false},"phone_number":"(860) 583-0053","address":{"address":"621 Terryville Ave","city":"Bristol","state":"Connecticut","zip":"06011"},"name":"VARMA, SURENDRAN","npi":1891795316},"geometry":{"type":"Point","coordinates":[-72.971709,41.681511]}},{"type":"Feature","id":"5228ff0270d483a238048602","properties":{"id":"5228ff0270d483a238048602","incentives_received":{"year_2011":false,"year_2012":true,"year_2013":false},"phone_number":"(860) 258-3470","address":{"address":"Connecticut Multispecialty Group, PC, 2110 Silas Deane Highway","city":"Rocky Hill","state":"Connecticut","zip":"06067"},"name":"Merkatz, Kenneth","npi":1891794905},"geometry":{"type":"Point","coordinates":[-72.66747,41.720856]}},{"type":"Feature","id":"5228ff0170d483a2380483f2","properties":{"id":"5228ff0170d483a2380483f2","incentives_received":{"year_2011":false,"year_2012":true,"year_2013":false},"phone_number":"(203) 483-7778","address":{"address":"400 W Main St","city":"Branford","state":"Connecticut","zip":"06405"},"name":"Russo, Michael","npi":1891762837},"geometry":{"type":"Point","coordinates":[-72.849227,41.279716]}},{"type":"Feature","id":"5228ff0170d483a23804836b","properties":{"id":"5228ff0170d483a23804836b","incentives_received":{"year_2011":false,"year_2012":true,"year_2013":false},"phone_number":"(860) 896-0800","address":{"address":"400 Talcottville Rd, UNIT 1, ROUTE 83","city":"Vernon","state":"Connecticut","zip":"06066"},"name":"KAPOOR, CHARANJEEV","npi":1891754685},"geometry":{"type":"Point","coordinates":[-72.487646,41.843937]}},{"type":"Feature","id":"5228ff0170d483a23804817c","properties":{"id":"5228ff0170d483a23804817c","incentives_received":{"year_2011":false,"year_2012":true,"year_2013":false},"phone_number":"(203) 207-3320","address":{"address":"41 Germantown Rd","city":"Danbury","state":"Connecticut","zip":"06810"},"name":"Rudinskaya, Alla","npi":1891710612},"geometry":{"type":"Point","coordinates":[-73.435553,41.410223]}},{"type":"Feature","id":"5228ff0170d483a23804816e","properties":{"id":"5228ff0170d483a23804816e","incentives_received":{"year_2011":false,"year_2012":true,"year_2013":false},"phone_number":"(203) 562-6741","address":{"address":"1435 Chapel Street","city":"New Haven","state":"Connecticut","zip":"06511"},"name":"Grosso, Joseph","npi":1891709457},"geometry":{"type":"Point","coordinates":[-72.94315,41.311077]}},{"type":"Feature","id":"5228ff0170d483a238048132","properties":{"id":"5228ff0170d483a238048132","incentives_received":{"year_2011":false,"year_2012":true,"year_2013":false},"phone_number":"(860) 289-3375","address":{"address":"111 Founders Plz, Ste. 400","city":"East Hartford","state":"Connecticut","zip":"06108"},"name":"Zimmerman, David","npi":1891701777},"geometry":{"type":"Point","coordinates":[-72.621365,41.779799]}},{"type":"Feature","id":"5228ff0170d483a2380480ac","properties":{"id":"5228ff0170d483a2380480ac","incentives_received":{"year_2011":false,"year_2012":true,"year_2013":false},"phone_number":"(203) 459-9666","address":{"address":"888 White Plains Rd, Ste 202","city":"Trumbull","state":"Connecticut","zip":"06611"},"name":"Peterson, Arnold","npi":1881868867},"geometry":{"type":"Point","coordinates":[-73.196052,41.244534]}},{"type":"Feature","id":"5228ff0170d483a238048012","properties":{"id":"5228ff0170d483a238048012","incentives_received":{"year_2011":true,"year_2012":false,"year_2013":false},"phone_number":null,"address":{"address":"1177 Summer St, 5th Floor","city":"Stamford","state":"Connecticut","zip":null},"name":"Schuster, Edward","npi":1881798429},"geometry":{"type":"Point","coordinates":[-73.533675,41.067977]}},{"type":"Feature","id":"5228ff0170d483a238047eac","properties":{"id":"5228ff0170d483a238047eac","incentives_received":{"year_2011":false,"year_2012":true,"year_2013":false},"phone_number":"(203) 675-6195","address":{"address":"16 Dales Drive","city":"Woodbridge","state":"Connecticut","zip":"06525"},"name":"Martin, Victor","npi":1881705572},"geometry":{"type":"Point","coordinates":[-73.007881,41.342599]}},{"type":"Feature","id":"5228ff0170d483a238047db0","properties":{"id":"5228ff0170d483a238047db0","incentives_received":{"year_2011":true,"year_2012":true,"year_2013":false},"phone_number":"(203) 696-6125","address":{"address":"56 Quarry Road","city":"Trumbull","state":"Connecticut","zip":"06611"},"name":"Reeser, Pamela","npi":1881689446},"geometry":{"type":"Point","coordinates":[-73.180671,41.224855]}},{"type":"Feature","id":"5228ff0170d483a238047dae","properties":{"id":"5228ff0170d483a238047dae","incentives_received":{"year_2011":true,"year_2012":true,"year_2013":false},"phone_number":"(860) 229-9688","address":{"address":"1 Liberty Sq, second floor","city":"New Britain","state":"Connecticut","zip":"06051"},"name":"Toffolon, Edward","npi":1881689255},"geometry":{"type":"Point","coordinates":[-72.757913,41.678944]}},{"type":"Feature","id":"5228ff0170d483a238047d94","properties":{"id":"5228ff0170d483a238047d94","incentives_received":{"year_2011":false,"year_2012":true,"year_2013":false},"phone_number":"(860) 666-5252","address":{"address":"375 Willard Ave, Grove Hill Medical Center","city":"Newington","state":"Connecticut","zip":"06111"},"name":"Polukhin, Maryanna","npi":1881688034},"geometry":{"type":"Point","coordinates":[-72.736446,41.709894]}},{"type":"Feature","id":"5228ff0170d483a238047d27","properties":{"id":"5228ff0170d483a238047d27","incentives_received":{"year_2011":false,"year_2012":true,"year_2013":false},"phone_number":"(860) 347-4258","address":{"address":"520 Saybrook Road, Suite 100","city":"Middletown","state":"Connecticut","zip":"06457"},"name":"Lorbar, Mojca","npi":1881681187},"geometry":{"type":"Point","coordinates":[-72.621915,41.540094]}},{"type":"Feature","id":"5228ff0170d483a238047d23","properties":{"id":"5228ff0170d483a238047d23","incentives_received":{"year_2011":true,"year_2012":true,"year_2013":false},"phone_number":"(860) 314-6886","address":{"address":"7 N Washington St","city":"Plainville","state":"Connecticut","zip":"06062"},"name":"Altherr, Doris","npi":1881680775},"geometry":{"type":"Point","coordinates":[-72.875723,41.671921]}},{"type":"Feature","id":"5228ff0170d483a238047c33","properties":{"id":"5228ff0170d483a238047c33","incentives_received":{"year_2011":false,"year_2012":true,"year_2013":false},"phone_number":"(203) 852-2368","address":{"address":"24 Stevens St","city":"Norwalk","state":"Connecticut","zip":"06850"},"name":"Mazur, Eric","npi":1881664886},"geometry":{"type":"Point","coordinates":[-73.421225,41.110377]}},{"type":"Feature","id":"5228ff0170d483a238047b96","properties":{"id":"5228ff0170d483a238047b96","incentives_received":{"year_2011":false,"year_2012":true,"year_2013":false},"phone_number":"(203) 638-1200","address":{"address":"427 Main Street, Route 25","city":"Monroe","state":"Connecticut","zip":"06468"},"name":"Joshi, Kavita","npi":1881654291},"geometry":{"type":"Point","coordinates":[-73.264376,41.321706]}},{"type":"Feature","id":"5228ff0170d483a238047ace","properties":{"id":"5228ff0170d483a238047ace","incentives_received":{"year_2011":false,"year_2012":true,"year_2013":false},"phone_number":"(203) 797-7131","address":{"address":"24 Hospital Ave","city":"Danbury","state":"Connecticut","zip":"06810"},"name":"Bussell, Stuart","npi":1881636447},"geometry":{"type":"Point","coordinates":[-73.446772,41.405989]}},{"type":"Feature","id":"5228ff0170d483a238047a54","properties":{"id":"5228ff0170d483a238047a54","incentives_received":{"year_2011":false,"year_2012":true,"year_2013":false},"phone_number":"(860) 886-0161","address":{"address":"79 Wawecus St, Ste 105","city":"Norwich","state":"Connecticut","zip":"06360"},"name":"Hertz, Jeffrey","npi":1881623486},"geometry":{"type":"Point","coordinates":[-72.058264,41.544487]}},{"type":"Feature","id":"5228ff0170d483a238047a52","properties":{"id":"5228ff0170d483a238047a52","incentives_received":{"year_2011":false,"year_2012":true,"year_2013":false},"phone_number":"(203) 709-6243","address":{"address":"1312 W Main St","city":"Waterbury","state":"Connecticut","zip":"06708"},"name":"Colodner, Gregory","npi":1881623288},"geometry":{"type":"Point","coordinates":[-73.064886,41.55161]}},{"type":"Feature","id":"5228ff0170d483a238047719","properties":{"id":"5228ff0170d483a238047719","incentives_received":{"year_2011":true,"year_2012":true,"year_2013":false},"phone_number":"(860) 253-9190","address":{"address":"74 Palomba Dr","city":"Enfield","state":"Connecticut","zip":"06082"},"name":"Tatoian, Robert","npi":1871606608},"geometry":{"type":"Point","coordinates":[-72.572136,41.991711]}},{"type":"Feature","id":"5228ff0170d483a2380476de","properties":{"id":"5228ff0170d483a2380476de","incentives_received":{"year_2011":false,"year_2012":true,"year_2013":false},"phone_number":"(860) 289-3375","address":{"address":"111 Founders Plaza, Suite 400","city":"East Hartford","state":"Connecticut","zip":"06108"},"name":"Karak, Prasanta","npi":1871599092},"geometry":{"type":"Point","coordinates":[-72.621365,41.779799]}},{"type":"Feature","id":"5228ff0170d483a2380476d3","properties":{"id":"5228ff0170d483a2380476d3","incentives_received":{"year_2011":false,"year_2012":true,"year_2013":false},"phone_number":"(203) 798-8093","address":{"address":"107 Newtown Rd","city":"Danbury","state":"Connecticut","zip":"06810"},"name":"Gordon, Joseph","npi":1871598250},"geometry":{"type":"Point","coordinates":[-73.411537,41.411937]}},{"type":"Feature","id":"5228ff0170d483a238047686","properties":{"id":"5228ff0170d483a238047686","incentives_received":{"year_2011":false,"year_2012":true,"year_2013":false},"phone_number":"(860) 963-2133","address":{"address":"35 Kennedy Dr","city":"Putnam","state":"Connecticut","zip":"06260"},"name":"Dee, Christian","npi":1871593392},"geometry":{"type":"Point","coordinates":[-71.905402,41.906986]}},{"type":"Feature","id":"5228ff0170d483a23804761d","properties":{"id":"5228ff0170d483a23804761d","incentives_received":{"year_2011":false,"year_2012":true,"year_2013":false},"phone_number":"(203) 845-4889","address":{"address":"40 Cross St 4th Fl, Norwalk Medical Group PC","city":"Norwalk","state":"Connecticut","zip":"06851"},"name":"Zahrah, George","npi":1871587030},"geometry":{"type":"Point","coordinates":[-73.416973,41.119617]}},{"type":"Feature","id":"5228ff0170d483a238047582","properties":{"id":"5228ff0170d483a238047582","incentives_received":{"year_2011":true,"year_2012":true,"year_2013":false},"phone_number":"(860) 442-9646","address":{"address":"342 Montauk Ave","city":"New London","state":"Connecticut","zip":"06320"},"name":"Spitz, Robert","npi":1871575696},"geometry":{"type":"Point","coordinates":[-72.103974,41.337748]}},{"type":"Feature","id":"5228ff0170d483a238047489","properties":{"id":"5228ff0170d483a238047489","incentives_received":{"year_2011":true,"year_2012":false,"year_2013":false},"phone_number":"(860) 646-0649","address":{"address":"921 Boston Tpke","city":"Bolton","state":"Connecticut","zip":"06043"},"name":"Buckman, Ronald","npi":1871561092},"geometry":{"type":"Point","coordinates":[-72.431096,41.796236]}},{"type":"Feature","id":"5228ff0170d483a238047438","properties":{"id":"5228ff0170d483a238047438","incentives_received":{"year_2011":false,"year_2012":true,"year_2013":false},"phone_number":"(203) 337-2616","address":{"address":"75 Kings Highway Cutoff","city":"Fairfield","state":"Connecticut","zip":"06824"},"name":"Kirschenbaum, Lawrence","npi":1871554881},"geometry":{"type":"Point","coordinates":[-73.238028,41.162326]}},{"type":"Feature","id":"5228ff0170d483a2380472e9","properties":{"id":"5228ff0170d483a2380472e9","incentives_received":{"year_2011":false,"year_2012":true,"year_2013":false},"phone_number":"(203) 797-7155","address":{"address":"27 Hospital Ave","city":"Danbury","state":"Connecticut","zip":"06810"},"name":"Copen, David","npi":1871529974},"geometry":{"type":"Point","coordinates":[-73.446772,41.405989]}},{"type":"Feature","id":"5228ff0170d483a2380472da","properties":{"id":"5228ff0170d483a2380472da","incentives_received":{"year_2011":false,"year_2012":true,"year_2013":false},"phone_number":"(203) 264-7999","address":{"address":"385 Main St South, Union Square","city":"Southbury","state":"Connecticut","zip":"06488"},"name":"Hawley, Jeffrey","npi":1871527788},"geometry":{"type":"Point","coordinates":[-73.174161,41.468997]}},{"type":"Feature","id":"5228ff0170d483a2380472c8","properties":{"id":"5228ff0170d483a2380472c8","incentives_received":{"year_2011":false,"year_2012":true,"year_2013":false},"phone_number":"(860) 432-2100","address":{"address":"2800 Tamarack Rd, suite 103","city":"South Windsor","state":"Connecticut","zip":"06074"},"name":"Suede, Mohamad","npi":1871525279},"geometry":{"type":"Point","coordinates":[-72.756739,41.67658]}},{"type":"Feature","id":"5228ff0170d483a23804729d","properties":{"id":"5228ff0170d483a23804729d","incentives_received":{"year_2011":false,"year_2012":true,"year_2013":false},"phone_number":"(203) 348-2437","address":{"address":"190 W Broad St","city":"Stamford","state":"Connecticut","zip":"06902"},"name":"Roca, Dominic","npi":1871521518},"geometry":{"type":"Point","coordinates":[-73.552454,41.056234]}},{"type":"Feature","id":"5228ff0170d483a238047184","properties":{"id":"5228ff0170d483a238047184","incentives_received":{"year_2011":true,"year_2012":true,"year_2013":false},"phone_number":"(203) 334-6955","address":{"address":"2409 Main St","city":"Bridgeport","state":"Connecticut","zip":"06606"},"name":"Howie, Sahani","npi":1861682122},"geometry":{"type":"Point","coordinates":[-73.199593,41.195762]}},{"type":"Feature","id":"5228ff0170d483a2380470ee","properties":{"id":"5228ff0170d483a2380470ee","incentives_received":{"year_2011":false,"year_2012":true,"year_2013":false},"phone_number":"(203) 865-6784","address":{"address":"199 Whitney Ave","city":"New Haven","state":"Connecticut","zip":"06511"},"name":"Shia, Derek","npi":1861600165},"geometry":{"type":"Point","coordinates":[-72.920499,41.316414]}},{"type":"Feature","id":"5228ff0170d483a2380470b3","properties":{"id":"5228ff0170d483a2380470b3","incentives_received":{"year_2011":false,"year_2012":true,"year_2013":false},"phone_number":"(860) 547-0306","address":{"address":"330 Western Blvd, Suite 102","city":"Glastonbury","state":"Connecticut","zip":"06033"},"name":"Graham, Neville","npi":1861591620},"geometry":{"type":"Point","coordinates":[-72.592337,41.716727]}},{"type":"Feature","id":"5228ff0170d483a238047051","properties":{"id":"5228ff0170d483a238047051","incentives_received":{"year_2011":true,"year_2012":true,"year_2013":false},"phone_number":"(860) 564-6293","address":{"address":"320 Pomfret St","city":"Putnam","state":"Connecticut","zip":"06260"},"name":"Nixon, Leilani","npi":1861577587},"geometry":{"type":"Point","coordinates":[-71.914565,41.907773]}},{"type":"Feature","id":"5228ff0070d483a238046f99","properties":{"id":"5228ff0070d483a238046f99","incentives_received":{"year_2011":false,"year_2012":true,"year_2013":false},"phone_number":"(203) 852-9525","address":{"address":"618 West Avenue","city":"Norwalk","state":"Connecticut","zip":"06850"},"name":"Sasse, Robert","npi":1861523466},"geometry":{"type":"Point","coordinates":[-73.415772,41.113393]}},{"type":"Feature","id":"5228ff0070d483a238046f62","properties":{"id":"5228ff0070d483a238046f62","incentives_received":{"year_2011":true,"year_2012":true,"year_2013":false},"phone_number":"(203) 271-3063","address":{"address":"335 Highland Ave","city":"Cheshire","state":"Connecticut","zip":"06410"},"name":"Williams, Richard","npi":1861505588},"geometry":{"type":"Point","coordinates":[-72.899985,41.507184]}},{"type":"Feature","id":"5228ff0070d483a238046f3e","properties":{"id":"5228ff0070d483a238046f3e","incentives_received":{"year_2011":false,"year_2012":true,"year_2013":false},"phone_number":"(203) 333-8800","address":{"address":"2979 Main St","city":"Bridgeport","state":"Connecticut","zip":"06606"},"name":"lisi, kenneth","npi":1861499824},"geometry":{"type":"Point","coordinates":[-73.204318,41.202802]}},{"type":"Feature","id":"5228ff0070d483a238046f28","properties":{"id":"5228ff0070d483a238046f28","incentives_received":{"year_2011":true,"year_2012":true,"year_2013":false},"phone_number":"(203) 389-4111","address":{"address":"1453 Whalley Ave","city":"New Haven","state":"Connecticut","zip":"06515"},"name":"Adetola, Adedayo","npi":1861498685},"geometry":{"type":"Point","coordinates":[-72.976486,41.334204]}},{"type":"Feature","id":"5228ff0070d483a238046f21","properties":{"id":"5228ff0070d483a238046f21","incentives_received":{"year_2011":false,"year_2012":true,"year_2013":false},"phone_number":"(203) 797-1500","address":{"address":"226 White St","city":"Danbury","state":"Connecticut","zip":"06810"},"name":"Hermantin, Frank","npi":1861498453},"geometry":{"type":"Point","coordinates":[-73.439835,41.399481]}},{"type":"Feature","id":"5228ff0070d483a238046e44","properties":{"id":"5228ff0070d483a238046e44","incentives_received":{"year_2011":false,"year_2012":true,"year_2013":false},"phone_number":"(203) 799-1252","address":{"address":"240 Indian River Road, Suite A5","city":"Orange","state":"Connecticut","zip":"06477"},"name":"Hotchkiss, Mark","npi":1861488033},"geometry":{"type":"Point","coordinates":[-73.055224,41.261296]}},{"type":"Feature","id":"5228ff0070d483a238046c88","properties":{"id":"5228ff0070d483a238046c88","incentives_received":{"year_2011":false,"year_2012":true,"year_2013":false},"phone_number":"(203) 755-6677","address":{"address":"500 Chase Pkwy, Suite 2A","city":"Waterbury","state":"Connecticut","zip":"06708"},"name":"Karnasiewicz, Michael","npi":1861459182},"geometry":{"type":"Point","coordinates":[-73.064016,41.547388]}},{"type":"Feature","id":"5228ff0070d483a238046b4d","properties":{"id":"5228ff0070d483a238046b4d","incentives_received":{"year_2011":true,"year_2012":true,"year_2013":false},"phone_number":"(860) 741-6058","address":{"address":"701 Enfield St","city":"Enfield","state":"Connecticut","zip":"06082"},"name":"O'Neill, Darren","npi":1861434607},"geometry":{"type":"Point","coordinates":[-72.592511,42.004367]}},{"type":"Feature","id":"5228ff0070d483a238046b11","properties":{"id":"5228ff0070d483a238046b11","incentives_received":{"year_2011":false,"year_2012":true,"year_2013":false},"phone_number":"(203) 661-5330","address":{"address":"5 Perryridge Rd","city":"Greenwich","state":"Connecticut","zip":"06830"},"name":"Kalan, Gary","npi":1861428831},"geometry":{"type":"Point","coordinates":[-73.629369,41.034956]}},{"type":"Feature","id":"5228ff0070d483a238046a37","properties":{"id":"5228ff0070d483a238046a37","incentives_received":{"year_2011":false,"year_2012":true,"year_2013":false},"phone_number":"(860) 443-7907","address":{"address":"276 Montauk Avenue","city":"New London","state":"Connecticut","zip":"06320"},"name":"Perry, Robert","npi":1861404402},"geometry":{"type":"Point","coordinates":[-72.105068,41.339562]}},{"type":"Feature","id":"5228ff0070d483a2380469b9","properties":{"id":"5228ff0070d483a2380469b9","incentives_received":{"year_2011":false,"year_2012":true,"year_2013":false},"phone_number":"(203) 264-6503","address":{"address":"22 Old Waterbury Rd, Suite 201","city":"Southbury","state":"Connecticut","zip":"06488"},"name":"Mosovich, Jonathan","npi":1851578660},"geometry":{"type":"Point","coordinates":[-73.212488,41.481613]}},{"type":"Feature","id":"5228ff0070d483a238046930","properties":{"id":"5228ff0070d483a238046930","incentives_received":{"year_2011":false,"year_2012":true,"year_2013":false},"phone_number":"(860) 583-1845","address":{"address":"291 Queen Street","city":"Bristol","state":"Connecticut","zip":"06010"},"name":"AZIZ, ZEESHAN","npi":1851512990},"geometry":{"type":"Point","coordinates":[-72.934644,41.672461]}},{"type":"Feature","id":"5228ff0070d483a2380468ed","properties":{"id":"5228ff0070d483a2380468ed","incentives_received":{"year_2011":false,"year_2012":true,"year_2013":false},"phone_number":"(860) 242-5580","address":{"address":"580 Cottage Grove Rd, Suite 201","city":"Bloomfield","state":"Connecticut","zip":"06002"},"name":"Goldenberg, Steven","npi":1851495931},"geometry":{"type":"Point","coordinates":[-72.726999,41.817309]}},{"type":"Feature","id":"5228ff0070d483a2380468ef","properties":{"id":"5228ff0070d483a2380468ef","incentives_received":{"year_2011":false,"year_2012":true,"year_2013":false},"phone_number":"(860) 258-3470","address":{"address":"Connecticut Multispecialty Group, PC, 2110 Silas Deane Highway","city":"Rocky Hill","state":"Connecticut","zip":"06067"},"name":"Defusco, Patricia","npi":1851496061},"geometry":{"type":"Point","coordinates":[-72.66747,41.720856]}},{"type":"Feature","id":"5228ff0070d483a23804683b","properties":{"id":"5228ff0070d483a23804683b","incentives_received":{"year_2011":false,"year_2012":true,"year_2013":false},"phone_number":"(860) 564-4054","address":{"address":"558 Norwich Road","city":"Plainfield","state":"Connecticut","zip":"06374"},"name":"Briones, Leah","npi":1851467161},"geometry":{"type":"Point","coordinates":[-71.914608,41.68255]}},{"type":"Feature","id":"5228ff0070d483a2380464c9","properties":{"id":"5228ff0070d483a2380464c9","incentives_received":{"year_2011":true,"year_2012":true,"year_2013":false},"phone_number":"(860) 204-0332","address":{"address":"2 Lathrop Ave","city":"Norwich","state":"Connecticut","zip":"06360"},"name":"Homiski, Christin","npi":1851359210},"geometry":{"type":"Point","coordinates":[-72.095032,41.547769]}},{"type":"Feature","id":"5228ff0070d483a238046486","properties":{"id":"5228ff0070d483a238046486","incentives_received":{"year_2011":false,"year_2012":true,"year_2013":false},"phone_number":"(203) 575-1811","address":{"address":"687 STRAITS TURNPIKE, Suite 2A","city":"MIDDLEBURY","state":"Connecticut","zip":"06762"},"name":"Matonis, Linda","npi":1851354534},"geometry":{"type":"Point","coordinates":[-73.08427,41.529198]}},{"type":"Feature","id":"5228ff0070d483a238046444","properties":{"id":"5228ff0070d483a238046444","incentives_received":{"year_2011":false,"year_2012":true,"year_2013":false},"phone_number":"(203) 384-3873","address":{"address":"226 Mill Hill Ave, 3rd floor","city":"Bridgeport","state":"Connecticut","zip":"06610"},"name":"Pronovost, Mary","npi":1851350011},"geometry":{"type":"Point","coordinates":[-73.165303,41.189498]}},{"type":"Feature","id":"5228ff0070d483a238046443","properties":{"id":"5228ff0070d483a238046443","incentives_received":{"year_2011":false,"year_2012":true,"year_2013":false},"phone_number":"(860) 263-7999","address":{"address":"580 Cottage Grove Road, Suite 203","city":"Bloomfield","state":"Connecticut","zip":"06002"},"name":"Gonzalez, Rafael","npi":1851349997},"geometry":{"type":"Point","coordinates":[-72.726999,41.817309]}},{"type":"Feature","id":"5228ff0070d483a238046349","properties":{"id":"5228ff0070d483a238046349","incentives_received":{"year_2011":true,"year_2012":true,"year_2013":false},"phone_number":"(203) 696-6125","address":{"address":"56 Quarry Road","city":"Trumbull","state":"Connecticut","zip":"06611"},"name":"Rosovsky, Mark","npi":1851329221},"geometry":{"type":"Point","coordinates":[-73.180671,41.224855]}},{"type":"Feature","id":"5228ff0070d483a23804625a","properties":{"id":"5228ff0070d483a23804625a","incentives_received":{"year_2011":true,"year_2012":true,"year_2013":false},"phone_number":"(860) 583-0053","address":{"address":"621 Terryville Ave","city":"Bristol","state":"Connecticut","zip":"06010"},"name":"adler, jack","npi":1851301709},"geometry":{"type":"Point","coordinates":[-72.971709,41.681511]}},{"type":"Feature","id":"5228ff0070d483a238046223","properties":{"id":"5228ff0070d483a238046223","incentives_received":{"year_2011":false,"year_2012":true,"year_2013":false},"phone_number":"(203) 264-7999","address":{"address":"385 Main St. South, c/o NVRA Union Square Bldg #1","city":"Southbury","state":"Connecticut","zip":"06488"},"name":"Leypold, Bradley","npi":1841495330},"geometry":{"type":"Point","coordinates":[-73.223168,41.471172]}},{"type":"Feature","id":"5228ff0070d483a238046202","properties":{"id":"5228ff0070d483a238046202","incentives_received":{"year_2011":false,"year_2012":true,"year_2013":false},"phone_number":"(203) 877-5522","address":{"address":"849 Boston Post Rd","city":"Milford","state":"Connecticut","zip":"06460"},"name":"Schachter, Aaron","npi":1841481306},"geometry":{"type":"Point","coordinates":[-73.053105,41.232057]}},{"type":"Feature","id":"5228ff0070d483a2380461e2","properties":{"id":"5228ff0070d483a2380461e2","incentives_received":{"year_2011":false,"year_2012":true,"year_2013":false},"phone_number":"(718) 670-1594","address":{"address":"32-25 FRANCIS LEWIS BLVD","city":"FLUSHING","state":"Connecticut","zip":"11358"},"name":"Jonisch, Ari","npi":1841466042},"geometry":{"type":"Point","coordinates":[-73.791525,40.768474]}},{"type":"Feature","id":"5228ff0070d483a2380461cf","properties":{"id":"5228ff0070d483a2380461cf","incentives_received":{"year_2011":false,"year_2012":true,"year_2013":false},"phone_number":"(203) 863-2900","address":{"address":"500 West Putnam Avenue, Suite 100","city":"Greenwich","state":"Connecticut","zip":"06830"},"name":"Schamberg, Neal","npi":1841458759},"geometry":{"type":"Point","coordinates":[-73.609335,41.03673]}},{"type":"Feature","id":"5228ff0070d483a23804612b","properties":{"id":"5228ff0070d483a23804612b","incentives_received":{"year_2011":true,"year_2012":true,"year_2013":false},"phone_number":"(860) 447-1426","address":{"address":"447 Montauk Avenue","city":"New London","state":"Connecticut","zip":"06320"},"name":"Ducey, Stephen","npi":1841394137},"geometry":{"type":"Point","coordinates":[-72.101431,41.334379]}},{"type":"Feature","id":"5228ff0070d483a238045fd4","properties":{"id":"5228ff0070d483a238045fd4","incentives_received":{"year_2011":true,"year_2012":true,"year_2013":false},"phone_number":"(203) 732-7325","address":{"address":"67 Maple Avenue","city":"Derby","state":"Connecticut","zip":"06418"},"name":"Lim, Lionel","npi":1841306818},"geometry":{"type":"Point","coordinates":[-73.088658,41.33463]}},{"type":"Feature","id":"5228ff0070d483a238045f98","properties":{"id":"5228ff0070d483a238045f98","incentives_received":{"year_2011":true,"year_2012":true,"year_2013":false},"phone_number":"(443) 481-5300","address":{"address":"67 MAPLE AVENUE","city":"DERBY","state":"Connecticut","zip":"06418"},"name":"Cheng, Zandra","npi":1841299708},"geometry":{"type":"Point","coordinates":[-73.088658,41.33463]}},{"type":"Feature","id":"5228ff0070d483a238045f1e","properties":{"id":"5228ff0070d483a238045f1e","incentives_received":{"year_2011":false,"year_2012":true,"year_2013":false},"phone_number":"(860) 669-2020","address":{"address":"145 E Main St","city":"Clinton","state":"Connecticut","zip":"06413"},"name":"Ostrom, Hal","npi":1841292802},"geometry":{"type":"Point","coordinates":[-72.515112,41.276398]}},{"type":"Feature","id":"5228ff0070d483a238045e98","properties":{"id":"5228ff0070d483a238045e98","incentives_received":{"year_2011":false,"year_2012":true,"year_2013":false},"phone_number":"(203) 281-6228","address":{"address":"2690 Whitney Ave","city":"Hamden","state":"Connecticut","zip":"06518"},"name":"SARACCO, FERNANDO","npi":1841284015},"geometry":{"type":"Point","coordinates":[-72.896999,41.394068]}},{"type":"Feature","id":"5228ff0070d483a238045e92","properties":{"id":"5228ff0070d483a238045e92","incentives_received":{"year_2011":false,"year_2012":true,"year_2013":false},"phone_number":"(860) 675-0357","address":{"address":"54 W Avon Rd, SUITE 202","city":"Avon","state":"Connecticut","zip":"06001"},"name":"KOZAR, ALBERT","npi":1841283744},"geometry":{"type":"Point","coordinates":[-72.866906,41.814507]}},{"type":"Feature","id":"5228ff0070d483a238045e10","properties":{"id":"5228ff0070d483a238045e10","incentives_received":{"year_2011":false,"year_2012":true,"year_2013":false},"phone_number":"(860) 561-7111","address":{"address":"445 S Main St","city":"West Hartford","state":"Connecticut","zip":"06110"},"name":"Stone, Susan","npi":1841276383},"geometry":{"type":"Point","coordinates":[-72.743361,41.73169]}},{"type":"Feature","id":"5228ff0070d483a238045e00","properties":{"id":"5228ff0070d483a238045e00","incentives_received":{"year_2011":false,"year_2012":true,"year_2013":false},"phone_number":"(860) 649-3477","address":{"address":"353 Main St","city":"Manchester","state":"Connecticut","zip":"06040"},"name":"O'Brien, James","npi":1841275252},"geometry":{"type":"Point","coordinates":[-72.522331,41.781366]}},{"type":"Feature","id":"5228ff0070d483a238045d16","properties":{"id":"5228ff0070d483a238045d16","incentives_received":{"year_2011":false,"year_2012":true,"year_2013":false},"phone_number":"(203) 459-9666","address":{"address":"888 White Plains Rd, Suite 202","city":"Trumbull","state":"Connecticut","zip":"06611"},"name":"Napolitano, Guido","npi":1841259397},"geometry":{"type":"Point","coordinates":[-73.196052,41.244534]}},{"type":"Feature","id":"5228ff0070d483a238045cfe","properties":{"id":"5228ff0070d483a238045cfe","incentives_received":{"year_2011":false,"year_2012":true,"year_2013":false},"phone_number":"(203) 789-1249","address":{"address":"2 Church Street South, Suite 305","city":"New Haven","state":"Connecticut","zip":"06519"},"name":"Ko, Christine","npi":1841258282},"geometry":{"type":"Point","coordinates":[-72.92837,41.296214]}},{"type":"Feature","id":"5228ff0070d483a238045cc6","properties":{"id":"5228ff0070d483a238045cc6","incentives_received":{"year_2011":false,"year_2012":true,"year_2013":false},"phone_number":"(203) 568-2929","address":{"address":"1625 Straits Tpke, Suite #200","city":"Middlebury","state":"Connecticut","zip":"06762"},"name":"Knight, David","npi":1841254539},"geometry":{"type":"Point","coordinates":[-73.092087,41.553431]}},{"type":"Feature","id":"5228ff0070d483a238045b5b","properties":{"id":"5228ff0070d483a238045b5b","incentives_received":{"year_2011":false,"year_2012":true,"year_2013":false},"phone_number":"(203) 371-0141","address":{"address":"2371 Black Rock Tpke","city":"Fairfield","state":"Connecticut","zip":"06825"},"name":"Sarracino, Joanna","npi":1841223484},"geometry":{"type":"Point","coordinates":[-73.229494,41.170432]}},{"type":"Feature","id":"5228feff70d483a2380458df","properties":{"id":"5228feff70d483a2380458df","incentives_received":{"year_2011":false,"year_2012":true,"year_2013":false},"phone_number":"(860) 763-4001","address":{"address":"170 Hazard Ave","city":"Enfield","state":"Connecticut","zip":"06082"},"name":"Machon, Timothy","npi":1831279082},"geometry":{"type":"Point","coordinates":[-72.552876,41.986769]}},{"type":"Feature","id":"5228feff70d483a238045885","properties":{"id":"5228feff70d483a238045885","incentives_received":{"year_2011":false,"year_2012":true,"year_2013":false},"phone_number":"(203) 852-3159","address":{"address":"24 Stevens St","city":"Norwalk","state":"Connecticut","zip":"06850"},"name":"Mahon, Theresa","npi":1831256916},"geometry":{"type":"Point","coordinates":[-73.421225,41.110377]}},{"type":"Feature","id":"5228feff70d483a23804581c","properties":{"id":"5228feff70d483a23804581c","incentives_received":{"year_2011":false,"year_2012":true,"year_2013":false},"phone_number":"(203) 281-5910","address":{"address":"3018 Dixwell Ave","city":"Hamden","state":"Connecticut","zip":"06518"},"name":"Desir, Deborah","npi":1831209865},"geometry":{"type":"Point","coordinates":[-72.899589,41.383276]}},{"type":"Feature","id":"5228feff70d483a2380457d1","properties":{"id":"5228feff70d483a2380457d1","incentives_received":{"year_2011":false,"year_2012":true,"year_2013":false},"phone_number":"(860) 350-4000","address":{"address":"146 Danbury Rd","city":"New Milford","state":"Connecticut","zip":"06776"},"name":"Barth, George","npi":1831200187},"geometry":{"type":"Point","coordinates":[-73.417273,41.553942]}},{"type":"Feature","id":"5228feff70d483a238045799","properties":{"id":"5228feff70d483a238045799","incentives_received":{"year_2011":false,"year_2012":true,"year_2013":false},"phone_number":"(860) 832-8150","address":{"address":"300 Kensington Ave, Grove Hill Medical Center","city":"New Britain","state":"Connecticut","zip":"06051"},"name":"Honor, Michael","npi":1831196161},"geometry":{"type":"Point","coordinates":[-72.788114,41.648297]}},{"type":"Feature","id":"5228feff70d483a2380456f6","properties":{"id":"5228feff70d483a2380456f6","incentives_received":{"year_2011":false,"year_2012":true,"year_2013":false},"phone_number":"(860) 928-7330","address":{"address":"145 Pomfret St","city":"Putnam","state":"Connecticut","zip":"06260"},"name":"Charon, Christopher","npi":1831186840},"geometry":{"type":"Point","coordinates":[-71.914648,41.913184]}},{"type":"Feature","id":"5228feff70d483a2380456f1","properties":{"id":"5228feff70d483a2380456f1","incentives_received":{"year_2011":false,"year_2012":true,"year_2013":false},"phone_number":"(203) 735-3500","address":{"address":"135 Division St","city":"Ansonia","state":"Connecticut","zip":"06401"},"name":"Moll, David","npi":1831186584},"geometry":{"type":"Point","coordinates":[-73.088206,41.33529]}},{"type":"Feature","id":"5228feff70d483a2380456d2","properties":{"id":"5228feff70d483a2380456d2","incentives_received":{"year_2011":false,"year_2012":true,"year_2013":false},"phone_number":"(860) 367-0087","address":{"address":"88 Norwich New London Tpke, Suite #2","city":"Uncasville","state":"Connecticut","zip":"06382"},"name":"Felitto, Donald","npi":1831184977},"geometry":{"type":"Point","coordinates":[-72.110271,41.426337]}},{"type":"Feature","id":"5228feff70d483a238045619","properties":{"id":"5228feff70d483a238045619","incentives_received":{"year_2011":false,"year_2012":true,"year_2013":false},"phone_number":"(860) 210-5002","address":{"address":"21 Elm St","city":"New Milford","state":"Connecticut","zip":"06776"},"name":"Pilchard, Kirstin","npi":1831174986},"geometry":{"type":"Point","coordinates":[-73.410667,41.580683]}},{"type":"Feature","id":"5228feff70d483a238045603","properties":{"id":"5228feff70d483a238045603","incentives_received":{"year_2011":false,"year_2012":true,"year_2013":false},"phone_number":"(203) 794-5639","address":{"address":"25 Germantown Rd, Endocrine & Diabetes Center","city":"Danbury","state":"Connecticut","zip":"06810"},"name":"Pons, Guillermo","npi":1831173277},"geometry":{"type":"Point","coordinates":[-73.435761,41.409583]}},{"type":"Feature","id":"5228feff70d483a2380455d5","properties":{"id":"5228feff70d483a2380455d5","incentives_received":{"year_2011":true,"year_2012":true,"year_2013":false},"phone_number":"(203) 696-6125","address":{"address":"56 Quarry Road","city":"Trumbull","state":"Connecticut","zip":"06611"},"name":"olsavsky, thomas","npi":1831170455},"geometry":{"type":"Point","coordinates":[-73.180671,41.224855]}},{"type":"Feature","id":"5228feff70d483a2380453bc","properties":{"id":"5228feff70d483a2380453bc","incentives_received":{"year_2011":true,"year_2012":true,"year_2013":false},"phone_number":"(203) 574-3777","address":{"address":"21 W Main St, One Exchange Place Building-3rd Floor","city":"Waterbury","state":"Connecticut","zip":"06702"},"name":"Schiff, Neil","npi":1831133800},"geometry":{"type":"Point","coordinates":[-73.041129,41.555906]}},{"type":"Feature","id":"5228feff70d483a2380453a1","properties":{"id":"5228feff70d483a2380453a1","incentives_received":{"year_2011":false,"year_2012":true,"year_2013":false},"phone_number":"(203) 785-2140","address":{"address":"300 George St, 6th floor","city":"New Haven","state":"Connecticut","zip":"06511"},"name":"Gottschalk, P. Christopher","npi":1831131176},"geometry":{"type":"Point","coordinates":[-72.931014,41.305293]}},{"type":"Feature","id":"5228feff70d483a23804536f","properties":{"id":"5228feff70d483a23804536f","incentives_received":{"year_2011":false,"year_2012":true,"year_2013":false},"phone_number":"(203) 834-2237","address":{"address":"1500 Post Rd","city":"Darien","state":"Connecticut","zip":"06820"},"name":"Aronow, Elisabeth","npi":1831127109},"geometry":{"type":"Point","coordinates":[-73.479067,41.066928]}},{"type":"Feature","id":"5228feff70d483a2380452d0","properties":{"id":"5228feff70d483a2380452d0","incentives_received":{"year_2011":true,"year_2012":true,"year_2013":false},"phone_number":"(860) 621-1024","address":{"address":"360 N Main St","city":"Southington","state":"Connecticut","zip":"06489"},"name":"Babiarz, Joseph","npi":1831109750},"geometry":{"type":"Point","coordinates":[-72.876905,41.610233]}},{"type":"Feature","id":"5228feff70d483a238045293","properties":{"id":"5228feff70d483a238045293","incentives_received":{"year_2011":true,"year_2012":true,"year_2013":false},"phone_number":"(860) 657-4080","address":{"address":"622 Hebron Ave, Suite 101","city":"Glastonbury","state":"Connecticut","zip":"06033"},"name":"Grimaldi, Stephen","npi":1831101229},"geometry":{"type":"Point","coordinates":[-72.590559,41.714129]}},{"type":"Feature","id":"5228feff70d483a23804524b","properties":{"id":"5228feff70d483a23804524b","incentives_received":{"year_2011":false,"year_2012":true,"year_2013":false},"phone_number":"(203) 226-0731","address":{"address":"162 Kings Hwy N","city":"Westport","state":"Connecticut","zip":"06880"},"name":"TELTSER, ROBERT","npi":1821291675},"geometry":{"type":"Point","coordinates":[-73.363403,41.146698]}},{"type":"Feature","id":"5228feff70d483a238045116","properties":{"id":"5228feff70d483a238045116","incentives_received":{"year_2011":false,"year_2012":true,"year_2013":false},"phone_number":"(203) 315-3326","address":{"address":"6 Business Park Drive","city":"Branford","state":"Connecticut","zip":"06405"},"name":"Milici, Linda","npi":1821186297},"geometry":{"type":"Point","coordinates":[-72.764818,41.296902]}},{"type":"Feature","id":"5228feff70d483a23804502e","properties":{"id":"5228feff70d483a23804502e","incentives_received":{"year_2011":false,"year_2012":true,"year_2013":false},"phone_number":"(203) 337-2600","address":{"address":"75 KINGS HIGHWAY CUTOFF","city":"Fairfield","state":"Connecticut","zip":"06824"},"name":"Carr, Brett","npi":1821118159},"geometry":{"type":"Point","coordinates":[-73.238028,41.162326]}},{"type":"Feature","id":"5228feff70d483a238044f9d","properties":{"id":"5228feff70d483a238044f9d","incentives_received":{"year_2011":false,"year_2012":true,"year_2013":false},"phone_number":"(860) 496-8990","address":{"address":"538 Litchfield St, Suite 102","city":"Torrington","state":"Connecticut","zip":"06790"},"name":"Devanney, James","npi":1821096579},"geometry":{"type":"Point","coordinates":[-73.132652,41.790864]}},{"type":"Feature","id":"5228feff70d483a238044ede","properties":{"id":"5228feff70d483a238044ede","incentives_received":{"year_2011":false,"year_2012":true,"year_2013":false},"phone_number":"(860) 224-2631","address":{"address":"292 W Main St, Grove Hill Medical Center","city":"New Britain","state":"Connecticut","zip":"06052"},"name":"Stock, Alden","npi":1821085093},"geometry":{"type":"Point","coordinates":[-72.791081,41.665841]}},{"type":"Feature","id":"5228feff70d483a238044ecd","properties":{"id":"5228feff70d483a238044ecd","incentives_received":{"year_2011":false,"year_2012":true,"year_2013":false},"phone_number":"(860) 572-8911","address":{"address":"200 Sandy Hollow Rd","city":"Mystic","state":"Connecticut","zip":"06355"},"name":"FIELDS, WARREN","npi":1821083999},"geometry":{"type":"Point","coordinates":[-71.981085,41.370228]}},{"type":"Feature","id":"5228feff70d483a238044e92","properties":{"id":"5228feff70d483a238044e92","incentives_received":{"year_2011":false,"year_2012":true,"year_2013":false},"phone_number":"(203) 845-4828","address":{"address":"40 Cross St, 4th Fl","city":"Norwalk","state":"Connecticut","zip":"06851"},"name":"Murphy, Andrew","npi":1821080375},"geometry":{"type":"Point","coordinates":[-73.422324,41.122995]}},{"type":"Feature","id":"5228feff70d483a238044b4d","properties":{"id":"5228feff70d483a238044b4d","incentives_received":{"year_2011":true,"year_2012":true,"year_2013":false},"phone_number":"(203) 227-4474","address":{"address":"256 Post Rd E","city":"Westport","state":"Connecticut","zip":"06880"},"name":"Gabriel, Julie","npi":1821016379},"geometry":{"type":"Point","coordinates":[-73.357194,41.141288]}},{"type":"Feature","id":"5228feff70d483a238044ae6","properties":{"id":"5228feff70d483a238044ae6","incentives_received":{"year_2011":false,"year_2012":true,"year_2013":false},"phone_number":"(203) 739-8200","address":{"address":"111 Osborn Street","city":"Danbury","state":"Connecticut","zip":"06810"},"name":"Passik, Cary","npi":1821006180},"geometry":{"type":"Point","coordinates":[-73.4424,41.403477]}},{"type":"Feature","id":"5228feff70d483a238044a54","properties":{"id":"5228feff70d483a238044a54","incentives_received":{"year_2011":false,"year_2012":true,"year_2013":false},"phone_number":null,"address":{"address":"687 Campbell Ave","city":"West Haven","state":"Connecticut","zip":"06516"},"name":"Drabinski, Mark","npi":1811992902},"geometry":{"type":"Point","coordinates":[-72.953521,41.27698]}},{"type":"Feature","id":"5228feff70d483a238044a51","properties":{"id":"5228feff70d483a238044a51","incentives_received":{"year_2011":false,"year_2012":true,"year_2013":false},"phone_number":"(203) 791-9661","address":{"address":"107 Newtown Rd, 2C","city":"Danbury","state":"Connecticut","zip":"06810"},"name":"Islam, Mohammed","npi":1811992878},"geometry":{"type":"Point","coordinates":[-73.440142,41.410274]}},{"type":"Feature","id":"5228feff70d483a238044a23","properties":{"id":"5228feff70d483a238044a23","incentives_received":{"year_2011":true,"year_2012":false,"year_2013":false},"phone_number":"(860) 889-0025","address":{"address":"86 New London Tpke","city":"Norwich","state":"Connecticut","zip":"06360"},"name":"Deutsch, Paul","npi":1811990013},"geometry":{"type":"Point","coordinates":[-72.096403,41.540113]}},{"type":"Feature","id":"5228feff70d483a2380449d8","properties":{"id":"5228feff70d483a2380449d8","incentives_received":{"year_2011":false,"year_2012":true,"year_2013":false},"phone_number":"(860) 741-6058","address":{"address":"701 Enfield St","city":"Enfield","state":"Connecticut","zip":"06082"},"name":"Burton, Jay","npi":1811986177},"geometry":{"type":"Point","coordinates":[-72.592511,42.004367]}},{"type":"Feature","id":"5228feff70d483a238044984","properties":{"id":"5228feff70d483a238044984","incentives_received":{"year_2011":false,"year_2012":true,"year_2013":false},"phone_number":"(203) 359-4444","address":{"address":"555 Newfield Ave","city":"Stamford","state":"Connecticut","zip":"06905"},"name":"Gallop, Vernetta","npi":1811981202},"geometry":{"type":"Point","coordinates":[-73.533965,41.078672]}},{"type":"Feature","id":"5228feff70d483a238044936","properties":{"id":"5228feff70d483a238044936","incentives_received":{"year_2011":false,"year_2012":true,"year_2013":false},"phone_number":"(860) 927-4875","address":{"address":"38 N Main St","city":"Kent","state":"Connecticut","zip":"06757"},"name":"MCINTOSH, DAVID","npi":1811976699},"geometry":{"type":"Point","coordinates":[-73.475493,41.72681]}},{"type":"Feature","id":"5228feff70d483a238044907","properties":{"id":"5228feff70d483a238044907","incentives_received":{"year_2011":false,"year_2012":true,"year_2013":false},"phone_number":"(860) 646-8595","address":{"address":"256 N Main St","city":"Manchester","state":"Connecticut","zip":"06042"},"name":"Wolpaw, David","npi":1811973332},"geometry":{"type":"Point","coordinates":[-72.526511,41.79509]}},{"type":"Feature","id":"5228feff70d483a2380448f4","properties":{"id":"5228feff70d483a2380448f4","incentives_received":{"year_2011":false,"year_2012":true,"year_2013":false},"phone_number":"(860) 826-4457","address":{"address":"1 Lake St, Grove Hill Medical Center","city":"New Britain","state":"Connecticut","zip":"06052"},"name":"Posner, Michael","npi":1811972755},"geometry":{"type":"Point","coordinates":[-72.787334,41.667929]}},{"type":"Feature","id":"5228feff70d483a238044842","properties":{"id":"5228feff70d483a238044842","incentives_received":{"year_2011":false,"year_2012":true,"year_2013":false},"phone_number":"(203) 573-9512","address":{"address":"1625 Straits Turnpike","city":"Middlebury","state":"Connecticut","zip":"06762"},"name":"Sofair, Andre","npi":1811961386},"geometry":{"type":"Point","coordinates":[-73.092087,41.553431]}},{"type":"Feature","id":"5228feff70d483a23804483e","properties":{"id":"5228feff70d483a23804483e","incentives_received":{"year_2011":false,"year_2012":true,"year_2013":false},"phone_number":"(203) 264-3319","address":{"address":"385 Main St S STE 301, Union Square","city":"Southbury","state":"Connecticut","zip":"06488"},"name":"Trager, Michael","npi":1811961014},"geometry":{"type":"Point","coordinates":[-73.174161,41.468997]}},{"type":"Feature","id":"5228feff70d483a2380447ea","properties":{"id":"5228feff70d483a2380447ea","incentives_received":{"year_2011":false,"year_2012":true,"year_2013":false},"phone_number":"(860) 928-2552","address":{"address":"346 Pomfret St","city":"Putnam","state":"Connecticut","zip":"06260"},"name":"Baum, Michael","npi":1811955396},"geometry":{"type":"Point","coordinates":[-71.91453,41.908142]}},{"type":"Feature","id":"5228feff70d483a238044716","properties":{"id":"5228feff70d483a238044716","incentives_received":{"year_2011":true,"year_2012":false,"year_2013":false},"phone_number":"(203) 225-0506","address":{"address":"555 Bridgeport Ave","city":"Shelton","state":"Connecticut","zip":"06484"},"name":"Asgari, Bardia","npi":1811938533},"geometry":{"type":"Point","coordinates":[-73.121261,41.27773]}},{"type":"Feature","id":"5228feff70d483a2380446fa","properties":{"id":"5228feff70d483a2380446fa","incentives_received":{"year_2011":true,"year_2012":true,"year_2013":false},"phone_number":"(203) 375-1200","address":{"address":"2890 Main Street","city":"Stratford","state":"Connecticut","zip":"06614"},"name":"Taubin, Howard","npi":1811936461},"geometry":{"type":"Point","coordinates":[-73.131471,41.199866]}},{"type":"Feature","id":"5228feff70d483a2380446bd","properties":{"id":"5228feff70d483a2380446bd","incentives_received":{"year_2011":true,"year_2012":false,"year_2013":false},"phone_number":"(203) 696-6125","address":{"address":"56 Quarry Road","city":"Trumbull","state":"Connecticut","zip":"06611"},"name":"Greenstein, Caren","npi":1811930910},"geometry":{"type":"Point","coordinates":[-73.180671,41.224855]}},{"type":"Feature","id":"5228feff70d483a23804467a","properties":{"id":"5228feff70d483a23804467a","incentives_received":{"year_2011":false,"year_2012":true,"year_2013":false},"phone_number":"(203) 797-7173","address":{"address":"95 Locust Ave","city":"Danbury","state":"Connecticut","zip":"06810"},"name":"Thomas, Byron","npi":1811924665},"geometry":{"type":"Point","coordinates":[-73.446909,41.404796]}},{"type":"Feature","id":"5228fefe70d483a238044499","properties":{"id":"5228fefe70d483a238044499","incentives_received":{"year_2011":false,"year_2012":true,"year_2013":false},"phone_number":"(860) 547-0306","address":{"address":"330 Western Blvd, Suite 102","city":"Glastonbury","state":"Connecticut","zip":"00603"},"name":"Grant, Jennifer","npi":1811096670},"geometry":{"type":"Point","coordinates":[-67.14578,18.455913]}},{"type":"Feature","id":"5228fefe70d483a238044479","properties":{"id":"5228fefe70d483a238044479","incentives_received":{"year_2011":true,"year_2012":true,"year_2013":false},"phone_number":"(860) 246-2571","address":{"address":"85 Seymour Street, Suite 1000","city":"Hartford","state":"Connecticut","zip":"06106"},"name":"Golioto, Michael","npi":1811091432},"geometry":{"type":"Point","coordinates":[-72.680798,41.754452]}},{"type":"Feature","id":"5228fefe70d483a238044348","properties":{"id":"5228fefe70d483a238044348","incentives_received":{"year_2011":false,"year_2012":true,"year_2013":false},"phone_number":"(860) 347-4258","address":{"address":"520 Saybrook Road, Middlesex Cardiology Associates","city":"Middletown","state":"Connecticut","zip":"06457"},"name":"Aithal, Keshava","npi":1811005713},"geometry":{"type":"Point","coordinates":[-72.621915,41.540094]}},{"type":"Feature","id":"5228fefe70d483a2380442cc","properties":{"id":"5228fefe70d483a2380442cc","incentives_received":{"year_2011":false,"year_2012":true,"year_2013":false},"phone_number":"(860) 547-0306","address":{"address":"330 Western Blvd","city":"Glastonbury","state":"Connecticut","zip":"06033"},"name":"Kuiper, Odin","npi":1801987201},"geometry":{"type":"Point","coordinates":[-72.592337,41.716727]}},{"type":"Feature","id":"5228fefe70d483a23804427d","properties":{"id":"5228fefe70d483a23804427d","incentives_received":{"year_2011":true,"year_2012":true,"year_2013":false},"phone_number":"(203) 334-6955","address":{"address":"2409 Main St","city":"Bridgeport","state":"Connecticut","zip":"06606"},"name":"Davis, Robert","npi":1801975537},"geometry":{"type":"Point","coordinates":[-73.199593,41.195762]}},{"type":"Feature","id":"5228fefe70d483a238044241","properties":{"id":"5228fefe70d483a238044241","incentives_received":{"year_2011":false,"year_2012":true,"year_2013":false},"phone_number":"(203) 679-4296","address":{"address":"97 Barnes Rd, Suite 5","city":"Wallingford","state":"Connecticut","zip":"06492"},"name":"Erlich, Wolf","npi":1801960901},"geometry":{"type":"Point","coordinates":[-72.830893,41.429375]}},{"type":"Feature","id":"5228fefe70d483a2380441c4","properties":{"id":"5228fefe70d483a2380441c4","incentives_received":{"year_2011":false,"year_2012":true,"year_2013":false},"phone_number":"(860) 527-7255","address":{"address":"576 Farmington Ave","city":"Hartford","state":"Connecticut","zip":"06105"},"name":"Isenberg, Gregory","npi":1801909643},"geometry":{"type":"Point","coordinates":[-72.711787,41.766036]}},{"type":"Feature","id":"5228fefe70d483a238043fdf","properties":{"id":"5228fefe70d483a238043fdf","incentives_received":{"year_2011":false,"year_2012":true,"year_2013":false},"phone_number":"(203) 380-5270","address":{"address":"999 Silver Ln, 3rd floor","city":"Trumbull","state":"Connecticut","zip":"06611"},"name":"Logiadis, Emmanuel","npi":1801874474},"geometry":{"type":"Point","coordinates":[-73.260626,41.274761]}},{"type":"Feature","id":"5228fefe70d483a238043fbc","properties":{"id":"5228fefe70d483a238043fbc","incentives_received":{"year_2011":false,"year_2012":true,"year_2013":false},"phone_number":"(860) 291-6554","address":{"address":"111 Founders Plz, Suite 400","city":"East Hartford","state":"Connecticut","zip":"06108"},"name":"Ohki, Stephen","npi":1801872106},"geometry":{"type":"Point","coordinates":[-72.621365,41.779799]}},{"type":"Feature","id":"5228fefe70d483a238043f6f","properties":{"id":"5228fefe70d483a238043f6f","incentives_received":{"year_2011":false,"year_2012":true,"year_2013":false},"phone_number":"(860) 827-1343","address":{"address":"1 Liberty Sq","city":"New Britain","state":"Connecticut","zip":"06051"},"name":"Graeber, Charles","npi":1801867452},"geometry":{"type":"Point","coordinates":[-72.736312,41.809362]}},{"type":"Feature","id":"5228fefe70d483a238043eb0","properties":{"id":"5228fefe70d483a238043eb0","incentives_received":{"year_2011":true,"year_2012":true,"year_2013":false},