[{"type":"Feature","id":"5228ff0670d483a23804d57b","properties":{"id":"5228ff0670d483a23804d57b","incentives_received":{"year_2011":true,"year_2012":true,"year_2013":false},"phone_number":"(808) 396-6321","address":{"address":"7192 Kalanianaole Hwy","city":"Honolulu","state":"Hawaii","zip":"96825"},"name":"Nordyke, Thomas","npi":1992878698},"geometry":{"type":"Point","coordinates":[-157.704885,21.276138]}},{"type":"Feature","id":"5228ff0670d483a23804d543","properties":{"id":"5228ff0670d483a23804d543","incentives_received":{"year_2011":true,"year_2012":true,"year_2013":false},"phone_number":"(808) 266-0066","address":{"address":"407 Uluniu St Ste 107","city":"Kailua","state":"Hawaii","zip":"96734"},"name":"LaReaux, Robert","npi":1992867030},"geometry":{"type":"Point","coordinates":[-157.744292,21.396097]}},{"type":"Feature","id":"5228ff0670d483a23804d51d","properties":{"id":"5228ff0670d483a23804d51d","incentives_received":{"year_2011":false,"year_2012":true,"year_2013":false},"phone_number":"(808) 885-5855","address":{"address":"67-1119 Mamalahoa Hwy","city":"Kamuela","state":"Hawaii","zip":"96743"},"name":"Wong, Howard","npi":1992858070},"geometry":{"type":"Point","coordinates":[-155.66546,20.023249]}},{"type":"Feature","id":"5228ff0570d483a23804d081","properties":{"id":"5228ff0570d483a23804d081","incentives_received":{"year_2011":false,"year_2012":true,"year_2013":false},"phone_number":"(808) 873-9588","address":{"address":"101 Pakaula Street","city":"Kahului","state":"Hawaii","zip":"96732"},"name":"Higuchi, Carlys","npi":1992727499},"geometry":{"type":"Point","coordinates":[-156.457868,20.878847]}},{"type":"Feature","id":"5228ff0570d483a23804ce24","properties":{"id":"5228ff0570d483a23804ce24","incentives_received":{"year_2011":true,"year_2012":true,"year_2013":false},"phone_number":"(808) 203-6552","address":{"address":"1319 Punahou St Ste 824","city":"Honolulu","state":"Hawaii","zip":"96826"},"name":"chang, ann","npi":1982800058},"geometry":{"type":"Point","coordinates":[-157.834505,21.299897]}},{"type":"Feature","id":"5228ff0570d483a23804cdf6","properties":{"id":"5228ff0570d483a23804cdf6","incentives_received":{"year_2011":true,"year_2012":true,"year_2013":false},"phone_number":"(808) 522-4233","address":{"address":"888 S King St","city":"Honolulu","state":"Hawaii","zip":"96813"},"name":"Hayashi, Kagehito","npi":1982793451},"geometry":{"type":"Point","coordinates":[-157.85051,21.302201]}},{"type":"Feature","id":"5228ff0570d483a23804cdbc","properties":{"id":"5228ff0570d483a23804cdbc","incentives_received":{"year_2011":false,"year_2012":true,"year_2013":false},"phone_number":"(808) 877-3984","address":{"address":"239 E Wakea Ave","city":"Kahului","state":"Hawaii","zip":"96732"},"name":"GRIFFITH, Don","npi":1982783684},"geometry":{"type":"Point","coordinates":[-156.460396,20.886951]}},{"type":"Feature","id":"5228ff0570d483a23804c9da","properties":{"id":"5228ff0570d483a23804c9da","incentives_received":{"year_2011":false,"year_2012":true,"year_2013":false},"phone_number":"(808) 484-2042","address":{"address":"98-1079 Moanalua Rd, Suite 300","city":"Aiea","state":"Hawaii","zip":"96701"},"name":"Oki, Alan","npi":1982657268},"geometry":{"type":"Point","coordinates":[-157.945805,21.383876]}},{"type":"Feature","id":"5228ff0570d483a23804c613","properties":{"id":"5228ff0570d483a23804c613","incentives_received":{"year_2011":true,"year_2012":true,"year_2013":false},"phone_number":"(808) 522-4000","address":{"address":"888 S King Street","city":"Honolulu","state":"Hawaii","zip":"96813"},"name":"Vellanki, Vijaya","npi":1972691590},"geometry":{"type":"Point","coordinates":[-157.85051,21.302201]}},{"type":"Feature","id":"5228ff0570d483a23804c612","properties":{"id":"5228ff0570d483a23804c612","incentives_received":{"year_2011":true,"year_2012":true,"year_2013":false},"phone_number":"(808) 522-4359","address":{"address":"888 S King St","city":"Honolulu","state":"Hawaii","zip":"96813"},"name":"Zerez, Charles","npi":1972691533},"geometry":{"type":"Point","coordinates":[-157.85051,21.302201]}},{"type":"Feature","id":"5228ff0570d483a23804c5c8","properties":{"id":"5228ff0570d483a23804c5c8","incentives_received":{"year_2011":false,"year_2012":true,"year_2013":false},"phone_number":"(808) 591-2131","address":{"address":"615 Piikoi St, #1401","city":"Honolulu","state":"Hawaii","zip":"96814"},"name":"York, Theodore","npi":1972675213},"geometry":{"type":"Point","coordinates":[-157.845849,21.295687]}},{"type":"Feature","id":"5228ff0570d483a23804c5c5","properties":{"id":"5228ff0570d483a23804c5c5","incentives_received":{"year_2011":false,"year_2012":true,"year_2013":false},"phone_number":"(808) 262-2424","address":{"address":"40 Aulike St, Suite 412","city":"Kailua","state":"Hawaii","zip":"96734"},"name":"Chung, Mark","npi":1972673416},"geometry":{"type":"Point","coordinates":[-157.742828,21.396197]}},{"type":"Feature","id":"5228ff0570d483a23804c50a","properties":{"id":"5228ff0570d483a23804c50a","incentives_received":{"year_2011":true,"year_2012":true,"year_2013":false},"phone_number":"(808) 522-4522","address":{"address":"888 S King St","city":"Honolulu","state":"Hawaii","zip":"96813"},"name":"Aboyoussef, Mohamed","npi":1972613057},"geometry":{"type":"Point","coordinates":[-157.85051,21.302201]}},{"type":"Feature","id":"5228ff0570d483a23804c4f2","properties":{"id":"5228ff0570d483a23804c4f2","incentives_received":{"year_2011":true,"year_2012":true,"year_2013":false},"phone_number":"(808) 245-1523","address":{"address":"3-3420 Kuhio Hwy, Suite B","city":"Lihue","state":"Hawaii","zip":"96766"},"name":"Chihara, Tyler","npi":1972608453},"geometry":{"type":"Point","coordinates":[-159.366366,21.985669]}},{"type":"Feature","id":"5228ff0570d483a23804c0ea","properties":{"id":"5228ff0570d483a23804c0ea","incentives_received":{"year_2011":false,"year_2012":true,"year_2013":false},"phone_number":"(808) 242-6464","address":{"address":"2180 Main St","city":"Wailuku","state":"Hawaii","zip":"96793"},"name":"Mitchell, William","npi":1972527877},"geometry":{"type":"Point","coordinates":[-156.504094,20.887143]}},{"type":"Feature","id":"5228ff0470d483a23804be7c","properties":{"id":"5228ff0470d483a23804be7c","incentives_received":{"year_2011":false,"year_2012":true,"year_2013":false},"phone_number":"(808) 961-4711","address":{"address":"47 Lanihuli Street","city":"Hilo","state":"Hawaii","zip":"96720"},"name":"Fernandez, Caron","npi":1962595116},"geometry":{"type":"Point","coordinates":[-155.0782,19.711399]}},{"type":"Feature","id":"5228ff0470d483a23804be5b","properties":{"id":"5228ff0470d483a23804be5b","incentives_received":{"year_2011":true,"year_2012":true,"year_2013":false},"phone_number":"(808) 263-9100","address":{"address":"602 Kailua Rd, 2nd Floor","city":"Kailua","state":"Hawaii","zip":"96734"},"name":"Glenn, Dale","npi":1962591552},"geometry":{"type":"Point","coordinates":[-157.740252,21.382755]}},{"type":"Feature","id":"5228ff0470d483a23804be4b","properties":{"id":"5228ff0470d483a23804be4b","incentives_received":{"year_2011":true,"year_2012":true,"year_2013":false},"phone_number":"(808) 522-4000","address":{"address":"888 S King St","city":"Honolulu","state":"Hawaii","zip":"96813"},"name":"Ikeguchi, Mari","npi":1962589218},"geometry":{"type":"Point","coordinates":[-157.85051,21.302201]}},{"type":"Feature","id":"5228ff0470d483a23804bae5","properties":{"id":"5228ff0470d483a23804bae5","incentives_received":{"year_2011":false,"year_2012":true,"year_2013":false},"phone_number":"(808) 521-4344","address":{"address":"2226 Liliha Street, # 302","city":"HONOLULU","state":"Hawaii","zip":"96817"},"name":"CHAN, PON-SANG","npi":1962463299},"geometry":{"type":"Point","coordinates":[-157.852008,21.32848]}},{"type":"Feature","id":"5228ff0470d483a23804bade","properties":{"id":"5228ff0470d483a23804bade","incentives_received":{"year_2011":true,"year_2012":false,"year_2013":false},"phone_number":"(808) 522-4000","address":{"address":"888 S King St","city":"Honolulu","state":"Hawaii","zip":"96813"},"name":"Quigley, Richard","npi":1962462838},"geometry":{"type":"Point","coordinates":[-157.85051,21.302201]}},{"type":"Feature","id":"5228ff0470d483a23804b883","properties":{"id":"5228ff0470d483a23804b883","incentives_received":{"year_2011":false,"year_2012":true,"year_2013":false},"phone_number":"(808) 246-3800","address":{"address":"4484 Pahee St","city":"Lihue","state":"Hawaii","zip":"96766"},"name":"Sciaroni, Daniel","npi":1962407692},"geometry":{"type":"Point","coordinates":[-159.384368,21.968948]}},{"type":"Feature","id":"5228ff0470d483a23804b6da","properties":{"id":"5228ff0470d483a23804b6da","incentives_received":{"year_2011":true,"year_2012":true,"year_2013":false},"phone_number":"(808) 483-6400","address":{"address":"98-151 Pali Momi St","city":"Aiea","state":"Hawaii","zip":"96701"},"name":"Bunn, Mikiko","npi":1952495319},"geometry":{"type":"Point","coordinates":[-157.939379,21.38228]}},{"type":"Feature","id":"5228ff0470d483a23804b684","properties":{"id":"5228ff0470d483a23804b684","incentives_received":{"year_2011":false,"year_2012":true,"year_2013":false},"phone_number":"(808) 523-6480","address":{"address":"321 North Kuakini Street, Suite 509","city":"Honolulu","state":"Hawaii","zip":"96817"},"name":"Marutani, Donn","npi":1952479578},"geometry":{"type":"Point","coordinates":[-157.855905,21.321788]}},{"type":"Feature","id":"5228ff0470d483a23804b5fd","properties":{"id":"5228ff0470d483a23804b5fd","incentives_received":{"year_2011":true,"year_2012":true,"year_2013":false},"phone_number":"(808) 535-5555","address":{"address":"932 Ward Ave Ste 600","city":"Honolulu","state":"Hawaii","zip":"96814"},"name":"ZUNIN, IRA","npi":1952437279},"geometry":{"type":"Point","coordinates":[-157.850856,21.301377]}},{"type":"Feature","id":"5228ff0470d483a23804b176","properties":{"id":"5228ff0470d483a23804b176","incentives_received":{"year_2011":true,"year_2012":true,"year_2013":false},"phone_number":"(808) 245-1500","address":{"address":"3-3420 Kuhio Hwy, Ste B","city":"Lihue","state":"Hawaii","zip":"96766"},"name":"Weiner, Robert","npi":1952332835},"geometry":{"type":"Point","coordinates":[-159.366366,21.985669]}},{"type":"Feature","id":"5228ff0470d483a23804ae9c","properties":{"id":"5228ff0470d483a23804ae9c","incentives_received":{"year_2011":true,"year_2012":true,"year_2013":false},"phone_number":"(808) 573-1677","address":{"address":"3681 Baldwin Ave, H 101","city":"Makawao","state":"Hawaii","zip":"96768"},"name":"Berman, Eve","npi":1942371877},"geometry":{"type":"Point","coordinates":[-156.311436,20.855414]}},{"type":"Feature","id":"5228ff0370d483a23804ac11","properties":{"id":"5228ff0370d483a23804ac11","incentives_received":{"year_2011":false,"year_2012":true,"year_2013":false},"phone_number":"(808) 522-4000","address":{"address":"888 S King St","city":"Honolulu","state":"Hawaii","zip":"96813"},"name":"Itagaki, Raymond","npi":1942276043},"geometry":{"type":"Point","coordinates":[-157.85051,21.302201]}},{"type":"Feature","id":"5228ff0370d483a23804ab1e","properties":{"id":"5228ff0370d483a23804ab1e","incentives_received":{"year_2011":true,"year_2012":true,"year_2013":false},"phone_number":"(808) 526-2477","address":{"address":"1329 Lusitana St, #803","city":"Honolulu","state":"Hawaii","zip":"96813"},"name":"Terada, Keith","npi":1942261862},"geometry":{"type":"Point","coordinates":[-157.852079,21.30667]}},{"type":"Feature","id":"5228ff0370d483a23804aa0a","properties":{"id":"5228ff0370d483a23804aa0a","incentives_received":{"year_2011":false,"year_2012":true,"year_2013":false},"phone_number":"(808) 261-6644","address":{"address":"642 ULUKAHILI ST, STE 305","city":"KAILUA","state":"Hawaii","zip":"96734"},"name":"Moore, Alison","npi":1942237417},"geometry":{"type":"Point","coordinates":[-157.731667,21.379444]}},{"type":"Feature","id":"5228ff0370d483a23804a9af","properties":{"id":"5228ff0370d483a23804a9af","incentives_received":{"year_2011":false,"year_2012":true,"year_2013":false},"phone_number":"(808) 531-5711","address":{"address":"2226 Liliha St Ste 306","city":"Honolulu","state":"Hawaii","zip":"96817"},"name":"Sugihara, Jared","npi":1942229489},"geometry":{"type":"Point","coordinates":[-157.852008,21.32848]}},{"type":"Feature","id":"5228ff0370d483a23804a801","properties":{"id":"5228ff0370d483a23804a801","incentives_received":{"year_2011":true,"year_2012":true,"year_2013":false},"phone_number":"(808) 246-1100","address":{"address":"3-3420 Kuhio Hwy, Suite B","city":"Lihue","state":"Hawaii","zip":"96766"},"name":"CHEN, SAM","npi":1932377900},"geometry":{"type":"Point","coordinates":[-159.366366,21.985669]}},{"type":"Feature","id":"5228ff0370d483a23804a7f7","properties":{"id":"5228ff0370d483a23804a7f7","incentives_received":{"year_2011":false,"year_2012":true,"year_2013":false},"phone_number":"(808) 245-1500","address":{"address":"3-3420 Kuhio Hwy, Ste B","city":"Lihue","state":"Hawaii","zip":"96766"},"name":"Prentice, Owen","npi":1932374642},"geometry":{"type":"Point","coordinates":[-159.366366,21.985669]}},{"type":"Feature","id":"5228ff0370d483a23804a579","properties":{"id":"5228ff0370d483a23804a579","incentives_received":{"year_2011":false,"year_2012":true,"year_2013":false},"phone_number":"(808) 533-7478","address":{"address":"1125 Bethel St","city":"Honolulu","state":"Hawaii","zip":"96813"},"name":"Young, Eugene","npi":1932196730},"geometry":{"type":"Point","coordinates":[-157.861124,21.310689]}},{"type":"Feature","id":"5228ff0370d483a23804a1c2","properties":{"id":"5228ff0370d483a23804a1c2","incentives_received":{"year_2011":false,"year_2012":true,"year_2013":false},"phone_number":"(808) 242-6464","address":{"address":"2180 Main St","city":"Wailuku","state":"Hawaii","zip":"96793"},"name":"Chumley, Keith","npi":1932126653},"geometry":{"type":"Point","coordinates":[-156.504094,20.887143]}},{"type":"Feature","id":"5228ff0370d483a23804a057","properties":{"id":"5228ff0370d483a23804a057","incentives_received":{"year_2011":false,"year_2012":true,"year_2013":false},"phone_number":"(808) 732-2244","address":{"address":"4747 Kilauea Ave, #107","city":"Honolulu","state":"Hawaii","zip":"96816"},"name":"Simmons, Jake","npi":1922328988},"geometry":{"type":"Point","coordinates":[-157.78462,21.277259]}},{"type":"Feature","id":"5228ff0370d483a238049e29","properties":{"id":"5228ff0370d483a238049e29","incentives_received":{"year_2011":false,"year_2012":true,"year_2013":false},"phone_number":"(808) 329-9744","address":{"address":"75-240 Nani Kailua Drive, Suite 157","city":"Kailua-Kona","state":"Hawaii","zip":"96740"},"name":"Oka, Loreli","npi":1922112648},"geometry":{"type":"Point","coordinates":[-155.97312,19.63993]}},{"type":"Feature","id":"5228ff0370d483a238049cca","properties":{"id":"5228ff0370d483a238049cca","incentives_received":{"year_2011":false,"year_2012":true,"year_2013":false},"phone_number":"(808) 949-5305","address":{"address":"1319 Punahou St, Ste 801","city":"Honolulu","state":"Hawaii","zip":"96826"},"name":"Aeby, Tod","npi":1922082049},"geometry":{"type":"Point","coordinates":[-157.834505,21.299897]}},{"type":"Feature","id":"5228ff0370d483a2380499bc","properties":{"id":"5228ff0370d483a2380499bc","incentives_received":{"year_2011":false,"year_2012":true,"year_2013":false},"phone_number":"(808) 242-6464","address":{"address":"2180 Main St","city":"Wailuku","state":"Hawaii","zip":"96793"},"name":"Lyons, Samuel","npi":1922021492},"geometry":{"type":"Point","coordinates":[-156.504094,20.887143]}},{"type":"Feature","id":"5228ff0270d483a23804966e","properties":{"id":"5228ff0270d483a23804966e","incentives_received":{"year_2011":false,"year_2012":true,"year_2013":false},"phone_number":"(808) 877-3984","address":{"address":"450 HOOKAHI sT","city":"WAILUKU","state":"Hawaii","zip":"96793"},"name":"carp, gerald","npi":1912963646},"geometry":{"type":"Point","coordinates":[-156.48691,20.905548]}},{"type":"Feature","id":"5228ff0270d483a23804961e","properties":{"id":"5228ff0270d483a23804961e","incentives_received":{"year_2011":false,"year_2012":true,"year_2013":false},"phone_number":"(808) 935-5522","address":{"address":"82 Puuhonu Pl, Suite 207","city":"Hilo","state":"Hawaii","zip":"96720"},"name":"Shikuma, Craig","npi":1912958661},"geometry":{"type":"Point","coordinates":[-155.10478,19.715895]}},{"type":"Feature","id":"5228ff0270d483a23804920a","properties":{"id":"5228ff0270d483a23804920a","incentives_received":{"year_2011":true,"year_2012":false,"year_2013":false},"phone_number":null,"address":{"address":"602 Kailua Rd, 2nd Floor","city":"Kailua","state":"Hawaii","zip":null},"name":"Aoki, John","npi":1912076902},"geometry":{"type":"Point","coordinates":[-157.740252,21.382755]}},{"type":"Feature","id":"5228ff0270d483a238049172","properties":{"id":"5228ff0270d483a238049172","incentives_received":{"year_2011":true,"year_2012":true,"year_2013":false},"phone_number":"(808) 244-0401","address":{"address":"1931 E Vineyard St","city":"Wailuku","state":"Hawaii","zip":"96793"},"name":"Lakhani, Avani","npi":1912018359},"geometry":{"type":"Point","coordinates":[-156.501014,20.890056]}},{"type":"Feature","id":"5228ff0270d483a23804906a","properties":{"id":"5228ff0270d483a23804906a","incentives_received":{"year_2011":true,"year_2012":true,"year_2013":false},"phone_number":"(808) 263-9100","address":{"address":"602 Kailua Rd, 2nd Floor","city":"Kailua","state":"Hawaii","zip":"96734"},"name":"Taba, Marti","npi":1902975683},"geometry":{"type":"Point","coordinates":[-157.740252,21.382755]}},{"type":"Feature","id":"5228ff0270d483a238048f87","properties":{"id":"5228ff0270d483a238048f87","incentives_received":{"year_2011":false,"year_2012":true,"year_2013":false},"phone_number":"(808) 521-4344","address":{"address":"2226 Liliha St, 302","city":"Honolulu","state":"Hawaii","zip":"96817"},"name":"Derbes, Lawrence","npi":1902906787},"geometry":{"type":"Point","coordinates":[-157.852008,21.32848]}},{"type":"Feature","id":"5228ff0270d483a2380488c8","properties":{"id":"5228ff0270d483a2380488c8","incentives_received":{"year_2011":true,"year_2012":true,"year_2013":false},"phone_number":"(808) 341-3238","address":{"address":"1100 Ward Ave","city":"Honolulu","state":"Hawaii","zip":"96814"},"name":"Chang, Jason","npi":1891988408},"geometry":{"type":"Point","coordinates":[-157.849798,21.302917]}},{"type":"Feature","id":"5228ff0270d483a238048873","properties":{"id":"5228ff0270d483a238048873","incentives_received":{"year_2011":false,"year_2012":true,"year_2013":false},"phone_number":"(808) 522-4000","address":{"address":"888 S King Street","city":"Honolulu","state":"Hawaii","zip":"96813"},"name":"Texeira, Ronnie","npi":1891956579},"geometry":{"type":"Point","coordinates":[-157.85051,21.302201]}},{"type":"Feature","id":"5228ff0270d483a238048791","properties":{"id":"5228ff0270d483a238048791","incentives_received":{"year_2011":false,"year_2012":true,"year_2013":false},"phone_number":"(808) 522-2547","address":{"address":"888 S King St","city":"Honolulu","state":"Hawaii","zip":"96813"},"name":"Chun, Hingson","npi":1891883468},"geometry":{"type":"Point","coordinates":[-157.85051,21.302201]}},{"type":"Feature","id":"5228ff0170d483a238048286","properties":{"id":"5228ff0170d483a238048286","incentives_received":{"year_2011":false,"year_2012":true,"year_2013":false},"phone_number":"(808) 828-1418","address":{"address":"2490 Oka St","city":"Kilauea","state":"Hawaii","zip":"96754"},"name":"Menezes, Melinda","npi":1891736641},"geometry":{"type":"Point","coordinates":[-159.406508,22.21]}},{"type":"Feature","id":"5228ff0170d483a238047b51","properties":{"id":"5228ff0170d483a238047b51","incentives_received":{"year_2011":false,"year_2012":true,"year_2013":false},"phone_number":"(808) 947-0111","address":{"address":"1580 Makaloa St, Suite 590","city":"Honolulu","state":"Hawaii","zip":"96814"},"name":"Lui, Kevin","npi":1881649226},"geometry":{"type":"Point","coordinates":[-157.839916,21.292863]}},{"type":"Feature","id":"5228ff0170d483a238047865","properties":{"id":"5228ff0170d483a238047865","incentives_received":{"year_2011":true,"year_2012":true,"year_2013":false},"phone_number":"(808) 246-1687","address":{"address":"3-3420 Kuhio Hwy, Suite B","city":"Lihue","state":"Hawaii","zip":"96766"},"name":"Rao, Surendra","npi":1871698688},"geometry":{"type":"Point","coordinates":[-159.366366,21.985669]}},{"type":"Feature","id":"5228ff0170d483a2380477dd","properties":{"id":"5228ff0170d483a2380477dd","incentives_received":{"year_2011":false,"year_2012":true,"year_2013":false},"phone_number":"(808) 599-8922","address":{"address":"1329 Lusitana St, #308","city":"Honolulu","state":"Hawaii","zip":"96813"},"name":"Houk, John","npi":1871676908},"geometry":{"type":"Point","coordinates":[-157.852079,21.30667]}},{"type":"Feature","id":"5228ff0070d483a238046bdc","properties":{"id":"5228ff0070d483a238046bdc","incentives_received":{"year_2011":false,"year_2012":true,"year_2013":false},"phone_number":"(808) 531-6727","address":{"address":"1380 Lusitana St, 504","city":"Honolulu","state":"Hawaii","zip":"96813"},"name":"Sato, Renee","npi":1861447120},"geometry":{"type":"Point","coordinates":[-157.853051,21.308733]}},{"type":"Feature","id":"5228ff0070d483a238046b82","properties":{"id":"5228ff0070d483a238046b82","incentives_received":{"year_2011":false,"year_2012":true,"year_2013":false},"phone_number":"(808) 536-2333","address":{"address":"2228 Liliha St, 405","city":"Honolulu","state":"Hawaii","zip":"96817"},"name":"Kuhn, Brigette","npi":1861439473},"geometry":{"type":"Point","coordinates":[-157.851963,21.328514]}},{"type":"Feature","id":"5228ff0070d483a238046ae6","properties":{"id":"5228ff0070d483a238046ae6","incentives_received":{"year_2011":false,"year_2012":true,"year_2013":false},"phone_number":"(808) 522-4000","address":{"address":"888 S King Street","city":"Honolulu","state":"Hawaii","zip":"96813"},"name":"Anae, Allen","npi":1861425183},"geometry":{"type":"Point","coordinates":[-157.85051,21.302201]}},{"type":"Feature","id":"5228ff0070d483a2380468bf","properties":{"id":"5228ff0070d483a2380468bf","incentives_received":{"year_2011":false,"year_2012":true,"year_2013":false},"phone_number":"(808) 522-4476","address":{"address":"888 S King St","city":"Honolulu","state":"Hawaii","zip":"96813"},"name":"Pearce, James","npi":1851488811},"geometry":{"type":"Point","coordinates":[-157.85051,21.302201]}},{"type":"Feature","id":"5228ff0070d483a238046794","properties":{"id":"5228ff0070d483a238046794","incentives_received":{"year_2011":false,"year_2012":true,"year_2013":false},"phone_number":"(808) 536-3825","address":{"address":"2228 Liliha St, Suite 104","city":"Honolulu","state":"Hawaii","zip":"96817"},"name":"Yee, Edwin","npi":1851409270},"geometry":{"type":"Point","coordinates":[-157.851963,21.328514]}},{"type":"Feature","id":"5228ff0070d483a23804677b","properties":{"id":"5228ff0070d483a23804677b","incentives_received":{"year_2011":false,"year_2012":true,"year_2013":false},"phone_number":"(808) 214-9074","address":{"address":"8 Kiopaa Pl, Suite 102","city":"Makawao","state":"Hawaii","zip":"96768"},"name":"Lee, Karsten","npi":1851405906},"geometry":{"type":"Point","coordinates":[-156.333531,20.833345]}},{"type":"Feature","id":"5228ff0070d483a238046721","properties":{"id":"5228ff0070d483a238046721","incentives_received":{"year_2011":false,"year_2012":false,"year_2013":true},"phone_number":"(808) 522-4000","address":{"address":"888 S King Street","city":"Honolulu","state":"Hawaii","zip":"96813"},"name":"Dy, Robert","npi":1851397210},"geometry":{"type":"Point","coordinates":[-157.85051,21.302201]}},{"type":"Feature","id":"5228ff0070d483a2380461e4","properties":{"id":"5228ff0070d483a2380461e4","incentives_received":{"year_2011":false,"year_2012":true,"year_2013":false},"phone_number":"(808) 756-1150","address":{"address":"65-1267 Kawaihae Rd","city":"Kamuela","state":"Hawaii","zip":"96743"},"name":"Reumann, Marko","npi":1841466711},"geometry":{"type":"Point","coordinates":[-155.701018,20.025908]}},{"type":"Feature","id":"5228ff0070d483a2380460e0","properties":{"id":"5228ff0070d483a2380460e0","incentives_received":{"year_2011":true,"year_2012":true,"year_2013":false},"phone_number":"(808) 245-1500","address":{"address":"3-3420 Kuhio Hwy, Ste B","city":"Lihue","state":"Hawaii","zip":"96701"},"name":"Denny, Aileen","npi":1841384732},"geometry":{"type":"Point","coordinates":[-157.939627,21.37769]}},{"type":"Feature","id":"5228ff0070d483a238046032","properties":{"id":"5228ff0070d483a238046032","incentives_received":{"year_2011":false,"year_2012":true,"year_2013":false},"phone_number":"(808) 263-9100","address":{"address":"602 Kailua Rd Ste 200","city":"Kailua","state":"Hawaii","zip":"96734"},"name":"Yonahara, Maria","npi":1841343373},"geometry":{"type":"Point","coordinates":[-157.742142,21.393969]}},{"type":"Feature","id":"5228ff0070d483a238045fbf","properties":{"id":"5228ff0070d483a238045fbf","incentives_received":{"year_2011":true,"year_2012":true,"year_2013":false},"phone_number":"(808) 522-4333","address":{"address":"888 S King St","city":"Honolulu","state":"Hawaii","zip":"96813"},"name":"Okazaki, Ian","npi":1841304409},"geometry":{"type":"Point","coordinates":[-157.85051,21.302201]}},{"type":"Feature","id":"5228ff0070d483a238045d8e","properties":{"id":"5228ff0070d483a238045d8e","incentives_received":{"year_2011":false,"year_2012":true,"year_2013":false},"phone_number":"(808) 524-3131","address":{"address":"1650 Liliha St, #105","city":"Honolulu","state":"Hawaii","zip":"96817"},"name":"Chong, Clayton","npi":1841267770},"geometry":{"type":"Point","coordinates":[-157.85929,21.322217]}},{"type":"Feature","id":"5228ff0070d483a238045c3d","properties":{"id":"5228ff0070d483a238045c3d","incentives_received":{"year_2011":false,"year_2012":true,"year_2013":false},"phone_number":"(808) 691-7786","address":{"address":"1301 Punchbowl Street","city":"Honolulu","state":"Hawaii","zip":"96813"},"name":"KANG, MARK","npi":1841243177},"geometry":{"type":"Point","coordinates":[-157.8551,21.307644]}},{"type":"Feature","id":"5228ff0070d483a238045b52","properties":{"id":"5228ff0070d483a238045b52","incentives_received":{"year_2011":false,"year_2012":true,"year_2013":false},"phone_number":"(808) 531-5711","address":{"address":"2226 Liliha St Ste 306","city":"Honolulu","state":"Hawaii","zip":"96817"},"name":"Ito, Jennifer","npi":1841222106},"geometry":{"type":"Point","coordinates":[-157.852008,21.32848]}},{"type":"Feature","id":"5228ff0070d483a238045b5a","properties":{"id":"5228ff0070d483a238045b5a","incentives_received":{"year_2011":false,"year_2012":true,"year_2013":false},"phone_number":"(808) 536-1754","address":{"address":"1712 Liliha St, Suite 202","city":"Honolulu","state":"Hawaii","zip":"96817"},"name":"Badua, Marina","npi":1841223450},"geometry":{"type":"Point","coordinates":[-157.8581,21.322989]}},{"type":"Feature","id":"5228feff70d483a2380453cc","properties":{"id":"5228feff70d483a2380453cc","incentives_received":{"year_2011":false,"year_2012":true,"year_2013":false},"phone_number":"(808) 955-1544","address":{"address":"2658 S King St","city":"Honolulu","state":"Hawaii","zip":"96826"},"name":"Takemoto- Gentile, Curtis","npi":1831135169},"geometry":{"type":"Point","coordinates":[-157.820703,21.291124]}},{"type":"Feature","id":"5228feff70d483a23804539e","properties":{"id":"5228feff70d483a23804539e","incentives_received":{"year_2011":false,"year_2012":true,"year_2013":false},"phone_number":"(808) 523-0445","address":{"address":"1520 LILIHA ST, #601","city":"HONOLULU","state":"Hawaii","zip":"96817"},"name":"KAANEHE, LEILANI","npi":1831130632},"geometry":{"type":"Point","coordinates":[-157.860465,21.321301]}},{"type":"Feature","id":"5228feff70d483a2380452d2","properties":{"id":"5228feff70d483a2380452d2","incentives_received":{"year_2011":false,"year_2012":true,"year_2013":false},"phone_number":"(808) 961-1400","address":{"address":"69 Lanihuli st","city":"Hilo","state":"Hawaii","zip":"96720"},"name":"Miller, Hart","npi":1831109933},"geometry":{"type":"Point","coordinates":[-155.078756,19.710968]}},{"type":"Feature","id":"5228feff70d483a238044fd4","properties":{"id":"5228feff70d483a238044fd4","incentives_received":{"year_2011":false,"year_2012":true,"year_2013":false},"phone_number":"(808) 521-4344","address":{"address":"2226 Liliha St, #302","city":"Honolulu","state":"Hawaii","zip":"96817"},"name":"CANETE, DANELO","npi":1821100736},"geometry":{"type":"Point","coordinates":[-157.852008,21.32848]}},{"type":"Feature","id":"5228feff70d483a238044fc4","properties":{"id":"5228feff70d483a238044fc4","incentives_received":{"year_2011":true,"year_2012":true,"year_2013":false},"phone_number":"(808) 245-1500","address":{"address":"3-3420 Kuhio Hwy Ste B","city":"Lihue","state":"Hawaii","zip":"96766"},"name":"Ogilvie, Patrick","npi":1821099003},"geometry":{"type":"Point","coordinates":[-159.366366,21.985669]}},{"type":"Feature","id":"5228feff70d483a238044ec7","properties":{"id":"5228feff70d483a238044ec7","incentives_received":{"year_2011":false,"year_2012":true,"year_2013":false},"phone_number":"(808) 591-2991","address":{"address":"1314 S KING ST, SUITE 610","city":"HONOLULU","state":"Hawaii","zip":"96814"},"name":"SHIBATA, VERNON","npi":1821083684},"geometry":{"type":"Point","coordinates":[-157.841532,21.299012]}},{"type":"Feature","id":"5228feff70d483a238044acd","properties":{"id":"5228feff70d483a238044acd","incentives_received":{"year_2011":true,"year_2012":true,"year_2013":false},"phone_number":"(808) 522-4333","address":{"address":"888 S King St","city":"Honolulu","state":"Hawaii","zip":"96813"},"name":"Liu, Randal","npi":1821002460},"geometry":{"type":"Point","coordinates":[-157.85051,21.302201]}},{"type":"Feature","id":"5228feff70d483a2380447d3","properties":{"id":"5228feff70d483a2380447d3","incentives_received":{"year_2011":true,"year_2012":true,"year_2013":false},"phone_number":"(808) 246-2951","address":{"address":"3-3420 Kuhio Hwy Ste B","city":"Lihue","state":"Hawaii","zip":"96766"},"name":"Hemingway, Thomas","npi":1811952971},"geometry":{"type":"Point","coordinates":[-159.366366,21.985669]}},{"type":"Feature","id":"5228feff70d483a238044757","properties":{"id":"5228feff70d483a238044757","incentives_received":{"year_2011":false,"year_2012":true,"year_2013":false},"phone_number":"(808) 203-6588","address":{"address":"1319 PUNAHOU ST, 8TH FLOOR","city":"HONOLULU","state":"Hawaii","zip":"96826"},"name":"HIRAOKA, MARK","npi":1811943236},"geometry":{"type":"Point","coordinates":[-157.834505,21.299897]}},{"type":"Feature","id":"5228feff70d483a2380445d6","properties":{"id":"5228feff70d483a2380445d6","incentives_received":{"year_2011":false,"year_2012":true,"year_2013":false},"phone_number":"(808) 263-7411","address":{"address":"30 Aulike St Ste 303","city":"Kailua","state":"Hawaii","zip":"96734"},"name":"Yong, Clara","npi":1811907074},"geometry":{"type":"Point","coordinates":[-157.742777,21.396115]}},{"type":"Feature","id":"5228fefe70d483a238044463","properties":{"id":"5228fefe70d483a238044463","incentives_received":{"year_2011":true,"year_2012":true,"year_2013":false},"phone_number":"(808) 522-4313","address":{"address":"888 S King St","city":"Honolulu","state":"Hawaii","zip":"96813"},"name":"Ho, Reginald","npi":1811086101},"geometry":{"type":"Point","coordinates":[-157.85051,21.302201]}},{"type":"Feature","id":"5228fefe70d483a238044461","properties":{"id":"5228fefe70d483a238044461","incentives_received":{"year_2011":true,"year_2012":true,"year_2013":false},"phone_number":"(808) 522-4530","address":{"address":"888 S King St","city":"Honolulu","state":"Hawaii","zip":"96813"},"name":"Kaku, Toshio","npi":1811086010},"geometry":{"type":"Point","coordinates":[-157.85051,21.302201]}},{"type":"Feature","id":"5228fefe70d483a238044313","properties":{"id":"5228fefe70d483a238044313","incentives_received":{"year_2011":false,"year_2012":true,"year_2013":false},"phone_number":"(808) 487-3685","address":{"address":"99-128 Aiea Heights Drive #109","city":"Aiea","state":"Hawaii","zip":"96701"},"name":"Teramoto, Ron","npi":1801997895},"geometry":{"type":"Point","coordinates":[-157.93023,21.379335]}},{"type":"Feature","id":"5228fefe70d483a238043fe9","properties":{"id":"5228fefe70d483a238043fe9","incentives_received":{"year_2011":true,"year_2012":true,"year_2013":false},"phone_number":"(808) 534-1919","address":{"address":"1380 Lusitana St, Suite  808","city":"Honolulu","state":"Hawaii","zip":"96813"},"name":"Chekuri, Satyanarayana","npi":1801875083},"geometry":{"type":"Point","coordinates":[-157.853051,21.308733]}},{"type":"Feature","id":"5228fefe70d483a238043dd8","properties":{"id":"5228fefe70d483a238043dd8","incentives_received":{"year_2011":true,"year_2012":true,"year_2013":false},"phone_number":"(808) 933-2399","address":{"address":"50 Ululani St","city":"Hilo","state":"Hawaii","zip":"96720"},"name":"Gedayloo, Sheareen","npi":1801840525},"geometry":{"type":"Point","coordinates":[-155.090341,19.725375]}},{"type":"Feature","id":"5228fefe70d483a238043d12","properties":{"id":"5228fefe70d483a238043d12","incentives_received":{"year_2011":false,"year_2012":true,"year_2013":false},"phone_number":"(808) 487-8922","address":{"address":"98-1079 Moanalua Rd, Ste 460","city":"Aiea","state":"Hawaii","zip":"96701"},"name":"Kim, Charles","npi":1801823398},"geometry":{"type":"Point","coordinates":[-157.945805,21.383876]}},{"type":"Feature","id":"5228fefe70d483a238043c2c","properties":{"id":"5228fefe70d483a238043c2c","incentives_received":{"year_2011":true,"year_2012":true,"year_2013":false},"phone_number":"(808) 522-4301","address":{"address":"888 S King St","city":"Honolulu","state":"Hawaii","zip":"96813"},"name":"Lee, Robin","npi":1801098405},"geometry":{"type":"Point","coordinates":[-157.85051,21.302201]}},{"type":"Feature","id":"5228fefe70d483a238043b0b","properties":{"id":"5228fefe70d483a238043b0b","incentives_received":{"year_2011":false,"year_2012":true,"year_2013":false},"phone_number":"(808) 935-0255","address":{"address":"126 Puuhonu Way","city":"Hilo","state":"Hawaii","zip":"96720"},"name":"Driscoll, Daniel","npi":1790970291},"geometry":{"type":"Point","coordinates":[-155.097902,19.716207]}},{"type":"Feature","id":"5228fefe70d483a2380439f6","properties":{"id":"5228fefe70d483a2380439f6","incentives_received":{"year_2011":true,"year_2012":true,"year_2013":false},"phone_number":"(808) 522-4322","address":{"address":"888 S King St","city":"Honolulu","state":"Hawaii","zip":"96813"},"name":"Mickey, John","npi":1790875888},"geometry":{"type":"Point","coordinates":[-157.85051,21.302201]}},{"type":"Feature","id":"5228fefe70d483a2380439ef","properties":{"id":"5228fefe70d483a2380439ef","incentives_received":{"year_2011":false,"year_2012":true,"year_2013":false},"phone_number":"(808) 261-1745","address":{"address":"30 Aulike Street, Ste 303","city":"Kailua","state":"Hawaii","zip":"96734"},"name":"Lum, Steven","npi":1790874972},"geometry":{"type":"Point","coordinates":[-157.741464,21.365437]}},{"type":"Feature","id":"5228fefe70d483a238043978","properties":{"id":"5228fefe70d483a238043978","incentives_received":{"year_2011":false,"year_2012":true,"year_2013":false},"phone_number":"(808) 691-7786","address":{"address":"1301 Punchbowl Street","city":"Honolulu","state":"Hawaii","zip":"96813"},"name":"Olaru, Eliza","npi":1790853125},"geometry":{"type":"Point","coordinates":[-157.8551,21.307644]}},{"type":"Feature","id":"5228fefe70d483a2380438df","properties":{"id":"5228fefe70d483a2380438df","incentives_received":{"year_2011":true,"year_2012":true,"year_2013":false},"phone_number":"(808) 522-4000","address":{"address":"888 S King St","city":"Honolulu","state":"Hawaii","zip":"96813"},"name":"Choy, C","npi":1790799393},"geometry":{"type":"Point","coordinates":[-157.85051,21.302201]}},{"type":"Feature","id":"5228fefe70d483a2380432fd","properties":{"id":"5228fefe70d483a2380432fd","incentives_received":{"year_2011":false,"year_2012":true,"year_2013":false},"phone_number":"(808) 942-5565","address":{"address":"1660 S King St","city":"Honolulu","state":"Hawaii","zip":"96826"},"name":"Inamine, Nikki","npi":1780848556},"geometry":{"type":"Point","coordinates":[-157.835062,21.296713]}},{"type":"Feature","id":"5228fefe70d483a2380431f8","properties":{"id":"5228fefe70d483a2380431f8","incentives_received":{"year_2011":false,"year_2012":true,"year_2013":false},"phone_number":"(808) 270-0491","address":{"address":"221 Piikea Ave # A","city":"Kihei","state":"Hawaii","zip":"96753"},"name":"Griffin, Marcus","npi":1780774174},"geometry":{"type":"Point","coordinates":[-156.452325,20.750639]}},{"type":"Feature","id":"5228fefe70d483a238043125","properties":{"id":"5228fefe70d483a238043125","incentives_received":{"year_2011":false,"year_2012":true,"year_2013":false},"phone_number":"(808) 521-5220","address":{"address":"405 N Kuakini St, #1104","city":"Honolulu","state":"Hawaii","zip":"96817"},"name":"MIKI, NOBUYUKI","npi":1780721290},"geometry":{"type":"Point","coordinates":[-157.856823,21.322753]}},{"type":"Feature","id":"5228fefd70d483a238042fb5","properties":{"id":"5228fefd70d483a238042fb5","incentives_received":{"year_2011":false,"year_2012":true,"year_2013":false},"phone_number":"(808) 523-0445","address":{"address":"1520 Liliha St Ste 601","city":"Honolulu","state":"Hawaii","zip":"96817"},"name":"SOLOMON, NOAH","npi":1780674754},"geometry":{"type":"Point","coordinates":[-157.860465,21.321301]}},{"type":"Feature","id":"5228fefd70d483a238042df0","properties":{"id":"5228fefd70d483a238042df0","incentives_received":{"year_2011":false,"year_2012":true,"year_2013":false},"phone_number":"(808) 395-6578","address":{"address":"333 Keahole St","city":"Honolulu","state":"Hawaii","zip":"96825"},"name":"Kubo, Brian","npi":1780645689},"geometry":{"type":"Point","coordinates":[-157.712861,21.283947]}},{"type":"Feature","id":"5228fefd70d483a2380425f9","properties":{"id":"5228fefd70d483a2380425f9","incentives_received":{"year_2011":false,"year_2012":true,"year_2013":false},"phone_number":"(808) 329-7314","address":{"address":"77-311 Sunset Dr","city":"Kailua-Kona","state":"Hawaii","zip":"96745"},"name":"Saito, Robert","npi":1770540312},"geometry":{"type":"Point","coordinates":[-155.961271,19.603098]}},{"type":"Feature","id":"5228fefd70d483a238042315","properties":{"id":"5228fefd70d483a238042315","incentives_received":{"year_2011":true,"year_2012":true,"year_2013":false},"phone_number":"(808) 483-6400","address":{"address":"98-151 Pali Momi St, Suite 142","city":"Aiea","state":"Hawaii","zip":"96701"},"name":"Martyak, Anthony","npi":1760596498},"geometry":{"type":"Point","coordinates":[-157.93826,21.393667]}},{"type":"Feature","id":"5228fefd70d483a2380422f1","properties":{"id":"5228fefd70d483a2380422f1","incentives_received":{"year_2011":false,"year_2012":true,"year_2013":false},"phone_number":"(808) 522-4370","address":{"address":"888 S King St","city":"Honolulu","state":"Hawaii","zip":"96813"},"name":"Schulz, Robert","npi":1760592729},"geometry":{"type":"Point","coordinates":[-157.85051,21.302201]}},{"type":"Feature","id":"5228fefd70d483a238042224","properties":{"id":"5228fefd70d483a238042224","incentives_received":{"year_2011":false,"year_2012":true,"year_2013":false},"phone_number":"(808) 847-4659","address":{"address":"1022 Gulick Avenue","city":"Honolulu","state":"Hawaii","zip":"96819"},"name":"Ramos, Antonio","npi":1760554737},"geometry":{"type":"Point","coordinates":[-157.878656,21.333792]}},{"type":"Feature","id":"5228fefd70d483a238041a3a","properties":{"id":"5228fefd70d483a238041a3a","incentives_received":{"year_2011":true,"year_2012":true,"year_2013":false},"phone_number":"(808) 245-1540","address":{"address":"3-3420 Kuhio Hwy, Suite B","city":"Lihue","state":"Hawaii","zip":"96766"},"name":"Yoon, James","npi":1750451977},"geometry":{"type":"Point","coordinates":[-159.366366,21.985669]}},{"type":"Feature","id":"5228fefc70d483a23804157f","properties":{"id":"5228fefc70d483a23804157f","incentives_received":{"year_2011":false,"year_2012":true,"year_2013":false},"phone_number":"(808) 522-4000","address":{"address":"888 S King Street","city":"Honolulu","state":"Hawaii","zip":"96813"},"name":"Kalathil, Sumodh","npi":1750318416},"geometry":{"type":"Point","coordinates":[-157.85051,21.302201]}},{"type":"Feature","id":"5228fefc70d483a238041370","properties":{"id":"5228fefc70d483a238041370","incentives_received":{"year_2011":true,"year_2012":true,"year_2013":false},"phone_number":"(808) 522-4360","address":{"address":"888 S King St","city":"Honolulu","state":"Hawaii","zip":"96813"},"name":"Glamb, Roman","npi":1740386325},"geometry":{"type":"Point","coordinates":[-157.85051,21.302201]}},{"type":"Feature","id":"5228fefc70d483a23804135b","properties":{"id":"5228fefc70d483a23804135b","incentives_received":{"year_2011":false,"year_2012":true,"year_2013":false},"phone_number":"(808) 943-9400","address":{"address":"1481 S King St Ste 343","city":"Honolulu","state":"Hawaii","zip":"96814"},"name":"Yamamoto, Irene","npi":1740382738},"geometry":{"type":"Point","coordinates":[-157.83818,21.29766]}},{"type":"Feature","id":"5228fefc70d483a238041290","properties":{"id":"5228fefc70d483a238041290","incentives_received":{"year_2011":false,"year_2012":true,"year_2013":false},"phone_number":"(808) 688-0045","address":{"address":"1380 Lusitana St, # 510","city":"Honolulu","state":"Hawaii","zip":"96813"},"name":"Naiki, Kumiko","npi":1740347897},"geometry":{"type":"Point","coordinates":[-157.853051,21.308733]}},{"type":"Feature","id":"5228fefc70d483a238040d60","properties":{"id":"5228fefc70d483a238040d60","incentives_received":{"year_2011":false,"year_2012":true,"year_2013":false},"phone_number":"(808) 486-0449","address":{"address":"98-211 Pali Momi St Ste 312","city":"Aiea","state":"Hawaii","zip":"96701"},"name":"Arahim, yousif","npi":1740213990},"geometry":{"type":"Point","coordinates":[-157.938655,21.382754]}},{"type":"Feature","id":"5228fefc70d483a238040b04","properties":{"id":"5228fefc70d483a238040b04","incentives_received":{"year_2011":true,"year_2012":true,"year_2013":false},"phone_number":"(808) 522-4430","address":{"address":"888 S King St","city":"Honolulu","state":"Hawaii","zip":"96813"},"name":"Douglas, John","npi":1730268772},"geometry":{"type":"Point","coordinates":[-157.85051,21.302201]}},{"type":"Feature","id":"5228fefc70d483a238040b00","properties":{"id":"5228fefc70d483a238040b00","incentives_received":{"year_2011":false,"year_2012":true,"year_2013":false},"phone_number":"(808) 242-2600","address":{"address":"227 Mahalani St","city":"Wailuku","state":"Hawaii","zip":"96793"},"name":"Tsai, Diane","npi":1730266966},"geometry":{"type":"Point","coordinates":[-156.489241,20.883647]}},{"type":"Feature","id":"5228fefc70d483a238040ac5","properties":{"id":"5228fefc70d483a238040ac5","incentives_received":{"year_2011":false,"year_2012":true,"year_2013":false},"phone_number":"(808) 678-1987","address":{"address":"94-1231 Ka Uka Blvd","city":"Waipahu","state":"Hawaii","zip":"96797"},"name":"takaki, randall","npi":1730254277},"geometry":{"type":"Point","coordinates":[-158.001849,21.427174]}},{"type":"Feature","id":"5228fefc70d483a238040a91","properties":{"id":"5228fefc70d483a238040a91","incentives_received":{"year_2011":false,"year_2012":true,"year_2013":false},"phone_number":"(808) 533-1372","address":{"address":"2228 Liliha St, Suite 104","city":"Honolulu","state":"Hawaii","zip":"96817"},"name":"Yim, Ernie","npi":1730238775},"geometry":{"type":"Point","coordinates":[-157.851963,21.328514]}},{"type":"Feature","id":"5228fefc70d483a238040658","properties":{"id":"5228fefc70d483a238040658","incentives_received":{"year_2011":true,"year_2012":true,"year_2013":false},"phone_number":"(808) 538-2800","address":{"address":"1286 Queen Emma St","city":"Honolulu","state":"Hawaii","zip":"96813"},"name":"Mee-Lee, Denis","npi":1730132416},"geometry":{"type":"Point","coordinates":[-157.857332,21.310584]}},{"type":"Feature","id":"5228fefb70d483a23804039d","properties":{"id":"5228fefb70d483a23804039d","incentives_received":{"year_2011":false,"year_2012":true,"year_2013":false},"phone_number":"(808) 935-0056","address":{"address":"1248 Kinoole St, Ste 104","city":"Hilo","state":"Hawaii","zip":"96720"},"name":"Matsuura, Don","npi":1720184120},"geometry":{"type":"Point","coordinates":[-155.078482,19.708581]}},{"type":"Feature","id":"5228fefb70d483a23804035b","properties":{"id":"5228fefb70d483a23804035b","incentives_received":{"year_2011":false,"year_2012":true,"year_2013":false},"phone_number":"(808) 597-8808","address":{"address":"1150 S King St, #908","city":"Honolulu","state":"Hawaii","zip":"96814"},"name":"Hoffmann, Tamar","npi":1720173347},"geometry":{"type":"Point","coordinates":[-157.844914,21.300204]}},{"type":"Feature","id":"5228fefb70d483a23804035a","properties":{"id":"5228fefb70d483a23804035a","incentives_received":{"year_2011":false,"year_2012":true,"year_2013":false},"phone_number":"(808) 242-5856","address":{"address":"24 N Church St, Suite 403","city":"Wailuku","state":"Hawaii","zip":"96793"},"name":"Hansen, Till","npi":1720173214},"geometry":{"type":"Point","coordinates":[-156.502611,20.886404]}},{"type":"Feature","id":"5228fefb70d483a238040284","properties":{"id":"5228fefb70d483a238040284","incentives_received":{"year_2011":false,"year_2012":true,"year_2013":false},"phone_number":"(808) 988-8700","address":{"address":"2756 Woodlawn Dr Ste 6-202","city":"Honolulu","state":"Hawaii","zip":"96822"},"name":"Jun, Andrew","npi":1720116809},"geometry":{"type":"Point","coordinates":[-157.809368,21.30784]}},{"type":"Feature","id":"5228fefb70d483a23803f9c5","properties":{"id":"5228fefb70d483a23803f9c5","incentives_received":{"year_2011":false,"year_2012":true,"year_2013":false},"phone_number":"(808) 261-0765","address":{"address":"642 Ulukahiki St, # 211","city":"Kailua","state":"Hawaii","zip":"96734"},"name":"Yee, Michael","npi":1710938675},"geometry":{"type":"Point","coordinates":[-157.757233,21.381497]}},{"type":"Feature","id":"5228fefb70d483a23803f7bc","properties":{"id":"5228fefb70d483a23803f7bc","incentives_received":{"year_2011":false,"year_2012":true,"year_2013":false},"phone_number":"(808) 245-1500","address":{"address":"3-3420 Kuhio Hwy, Ste B","city":"Lihue","state":"Hawaii","zip":"96766"},"name":"Zelada, Juliette","npi":1710179882},"geometry":{"type":"Point","coordinates":[-159.366366,21.985669]}},{"type":"Feature","id":"5228fefb70d483a23803f713","properties":{"id":"5228fefb70d483a23803f713","incentives_received":{"year_2011":true,"year_2012":true,"year_2013":false},"phone_number":"(808) 485-4250","address":{"address":"98-1079 Moanalua Rd, Suite 590","city":"Aiea","state":"Hawaii","zip":"96701"},"name":"Shu, Huidy","npi":1710098520},"geometry":{"type":"Point","coordinates":[-157.945805,21.383876]}},{"type":"Feature","id":"5228fefb70d483a23803f6af","properties":{"id":"5228fefb70d483a23803f6af","incentives_received":{"year_2011":true,"year_2012":true,"year_2013":false},"phone_number":"(808) 245-1548","address":{"address":"3-3420 Kuhio Hwy, Suite B","city":"Lihue","state":"Hawaii","zip":"96766"},"name":"Funai, John","npi":1710082912},"geometry":{"type":"Point","coordinates":[-159.366366,21.985669]}},{"type":"Feature","id":"5228fefb70d483a23803f6ae","properties":{"id":"5228fefb70d483a23803f6ae","incentives_received":{"year_2011":true,"year_2012":true,"year_2013":false},"phone_number":"(808) 522-4430","address":{"address":"888 S King St","city":"Honolulu","state":"Hawaii","zip":"96813"},"name":"Kortvelesy, John","npi":1710082813},"geometry":{"type":"Point","coordinates":[-157.85051,21.302201]}},{"type":"Feature","id":"5228fefb70d483a23803f667","properties":{"id":"5228fefb70d483a23803f667","incentives_received":{"year_2011":true,"year_2012":true,"year_2013":false},"phone_number":"(808) 522-4000","address":{"address":"888 S King St","city":"Honolulu","state":"Hawaii","zip":"96813"},"name":"Fu, Rebekah","npi":1710071188},"geometry":{"type":"Point","coordinates":[-157.85051,21.302201]}},{"type":"Feature","id":"5228fefb70d483a23803f5f2","properties":{"id":"5228fefb70d483a23803f5f2","incentives_received":{"year_2011":false,"year_2012":true,"year_2013":false},"phone_number":"(808) 622-4191","address":{"address":"34 Makani Ave","city":"Wahiawa","state":"Hawaii","zip":"96786"},"name":"YASUI, STEVE","npi":1710049903},"geometry":{"type":"Point","coordinates":[-158.027864,21.49615]}},{"type":"Feature","id":"5228fefb70d483a23803f5c9","properties":{"id":"5228fefb70d483a23803f5c9","incentives_received":{"year_2011":false,"year_2012":true,"year_2013":false},"phone_number":"(808) 522-4000","address":{"address":"888 S King Street","city":"Honolulu","state":"Hawaii","zip":"96813"},"name":"Iizuka, Katsuya","npi":1710040977},"geometry":{"type":"Point","coordinates":[-157.85051,21.302201]}},{"type":"Feature","id":"5228fefb70d483a23803f562","properties":{"id":"5228fefb70d483a23803f562","incentives_received":{"year_2011":false,"year_2012":true,"year_2013":false},"phone_number":"(808) 935-1956","address":{"address":"134 Puuhonu Way","city":"Hilo","state":"Hawaii","zip":"96720"},"name":"Montell, Edwin","npi":1700998432},"geometry":{"type":"Point","coordinates":[-155.09786,19.716237]}},{"type":"Feature","id":"5228fefb70d483a23803f4c7","properties":{"id":"5228fefb70d483a23803f4c7","incentives_received":{"year_2011":false,"year_2012":true,"year_2013":false},"phone_number":"(808) 247-2255","address":{"address":"46-001 kamehameha highway, suite 312","city":"kaneohe","state":"Hawaii","zip":"96744"},"name":"tanaka, clifford","npi":1700972452},"geometry":{"type":"Point","coordinates":[-157.843761,21.474617]}},{"type":"Feature","id":"5228fefb70d483a23803f3c5","properties":{"id":"5228fefb70d483a23803f3c5","incentives_received":{"year_2011":false,"year_2012":true,"year_2013":false},"phone_number":"(808) 242-8877","address":{"address":"1885 Main St, Ste 206","city":"Wailuku","state":"Hawaii","zip":"96793"},"name":"Tasaki, Mitchell","npi":1700893559},"geometry":{"type":"Point","coordinates":[-156.50002,20.888178]}},{"type":"Feature","id":"5228fefa70d483a23803ec39","properties":{"id":"5228fefa70d483a23803ec39","incentives_received":{"year_2011":false,"year_2012":true,"year_2013":false},"phone_number":"(808) 961-4711","address":{"address":"47 Lanihuli Street","city":"Hilo","state":"Hawaii","zip":"96720"},"name":"Miyashiro, Michael","npi":1699868844},"geometry":{"type":"Point","coordinates":[-155.0782,19.711399]}},{"type":"Feature","id":"5228fefa70d483a23803e955","properties":{"id":"5228fefa70d483a23803e955","incentives_received":{"year_2011":false,"year_2012":true,"year_2013":false},"phone_number":"(808) 203-6580","address":{"address":"1319 Punahou St, 801","city":"Honolulu","state":"Hawaii","zip":"96826"},"name":"Li, Gaylyn","npi":1699759746},"geometry":{"type":"Point","coordinates":[-157.834505,21.299897]}},{"type":"Feature","id":"5228fefa70d483a23803e7e2","properties":{"id":"5228fefa70d483a23803e7e2","incentives_received":{"year_2011":true,"year_2012":true,"year_2013":false},"phone_number":"(808) 245-1500","address":{"address":"3-3420 Kuhio Hwy, Ste B","city":"Lihue","state":"Hawaii","zip":"96766"},"name":"Leckova, Katarina","npi":1699734251},"geometry":{"type":"Point","coordinates":[-159.366366,21.985669]}},{"type":"Feature","id":"5228fefa70d483a23803e6ac","properties":{"id":"5228fefa70d483a23803e6ac","incentives_received":{"year_2011":true,"year_2012":true,"year_2013":false},"phone_number":"(808) 522-4000","address":{"address":"888 S King St","city":"Honolulu","state":"Hawaii","zip":"96813"},"name":"Beale, Keola","npi":1699706622},"geometry":{"type":"Point","coordinates":[-157.85051,21.302201]}},{"type":"Feature","id":"5228fefa70d483a23803e41f","properties":{"id":"5228fefa70d483a23803e41f","incentives_received":{"year_2011":true,"year_2012":true,"year_2013":false},"phone_number":"(808) 483-6400","address":{"address":"98-151 Pali Momi St, Suite 142","city":"Aiea","state":"Hawaii","zip":"96701"},"name":"Wu, Daniel","npi":1689743387},"geometry":{"type":"Point","coordinates":[-157.93826,21.393667]}},{"type":"Feature","id":"5228fefa70d483a23803e3b1","properties":{"id":"5228fefa70d483a23803e3b1","incentives_received":{"year_2011":false,"year_2012":true,"year_2013":false},"phone_number":"(808) 242-6464","address":{"address":"2180 Main St","city":"Wailuku","state":"Hawaii","zip":"96793"},"name":"Garcia, Daniel","npi":1689699449},"geometry":{"type":"Point","coordinates":[-156.504094,20.887143]}},{"type":"Feature","id":"5228fefa70d483a23803de39","properties":{"id":"5228fefa70d483a23803de39","incentives_received":{"year_2011":true,"year_2012":true,"year_2013":false},"phone_number":"(808) 933-2399","address":{"address":"50 Ululani St","city":"Hilo","state":"Hawaii","zip":"96720"},"name":"Mitchell, Michelle","npi":1679779730},"geometry":{"type":"Point","coordinates":[-155.090341,19.725375]}},{"type":"Feature","id":"5228fefa70d483a23803dd53","properties":{"id":"5228fefa70d483a23803dd53","incentives_received":{"year_2011":true,"year_2012":false,"year_2013":false},"phone_number":null,"address":{"address":"3-3420 Kuhio Hwy, Ste B","city":"Lihue","state":"Hawaii","zip":null},"name":"Rushanaedy, Agustinus","npi":1679683742},"geometry":{"type":"Point","coordinates":[-159.366366,21.985669]}},{"type":"Feature","id":"5228fefa70d483a23803dd25","properties":{"id":"5228fefa70d483a23803dd25","incentives_received":{"year_2011":true,"year_2012":true,"year_2013":false},"phone_number":"(808) 822-3431","address":{"address":"4-1105 Kuhio Hwy","city":"Kapaa","state":"Hawaii","zip":"96746"},"name":"Trpkovski, Tony","npi":1679678379},"geometry":{"type":"Point","coordinates":[-159.319509,22.068697]}},{"type":"Feature","id":"5228fefa70d483a23803dceb","properties":{"id":"5228fefa70d483a23803dceb","incentives_received":{"year_2011":false,"year_2012":true,"year_2013":false},"phone_number":"(808) 531-0848","address":{"address":"1329 Lusitana St, #108","city":"Honolulu","state":"Hawaii","zip":"96813"},"name":"Chinn, Herbert","npi":1679670939},"geometry":{"type":"Point","coordinates":[-157.852079,21.30667]}},{"type":"Feature","id":"5228fef970d483a23803da8d","properties":{"id":"5228fef970d483a23803da8d","incentives_received":{"year_2011":true,"year_2012":true,"year_2013":false},"phone_number":"(808) 245-1529","address":{"address":"3-3420 Kuhio Hwy, Suite B","city":"Lihue","state":"Hawaii","zip":"96766"},"name":"Murphy, Jay","npi":1679569586},"geometry":{"type":"Point","coordinates":[-159.366366,21.985669]}},{"type":"Feature","id":"5228fef970d483a23803d539","properties":{"id":"5228fef970d483a23803d539","incentives_received":{"year_2011":true,"year_2012":true,"year_2013":false},"phone_number":"(808) 522-4310","address":{"address":"888 S King St","city":"Honolulu","state":"Hawaii","zip":"96813"},"name":"Kam, Jeffrey","npi":1669561841},"geometry":{"type":"Point","coordinates":[-157.85051,21.302201]}},{"type":"Feature","id":"5228fef970d483a23803d419","properties":{"id":"5228fef970d483a23803d419","incentives_received":{"year_2011":false,"year_2012":true,"year_2013":false},"phone_number":"(808) 242-6464","address":{"address":"2180 Main St","city":"Wailuku","state":"Hawaii","zip":"96793"},"name":"Johnsen, Samuel","npi":1669491858},"geometry":{"type":"Point","coordinates":[-156.504094,20.887143]}},{"type":"Feature","id":"5228fef970d483a23803cb71","properties":{"id":"5228fef970d483a23803cb71","incentives_received":{"year_2011":true,"year_2012":true,"year_2013":false},"phone_number":"(808) 522-4000","address":{"address":"888 S King St","city":"Honolulu","state":"Hawaii","zip":"96813"},"name":"KWAN, YVONNE","npi":1659378966},"geometry":{"type":"Point","coordinates":[-157.85051,21.302201]}},{"type":"Feature","id":"5228fef970d483a23803c986","properties":{"id":"5228fef970d483a23803c986","incentives_received":{"year_2011":false,"year_2012":true,"year_2013":false},"phone_number":"(808) 524-3131","address":{"address":"1650 Liliha St, #105","city":"Honolulu","state":"Hawaii","zip":"96817"},"name":"Higuchi, Carl","npi":1659348597},"geometry":{"type":"Point","coordinates":[-157.85929,21.322217]}},{"type":"Feature","id":"5228fef970d483a23803c84e","properties":{"id":"5228fef970d483a23803c84e","incentives_received":{"year_2011":false,"year_2012":true,"year_2013":false},"phone_number":"(808) 245-1500","address":{"address":"3-3420 Kuhio Hwy, Ste B","city":"Lihue","state":"Hawaii","zip":"96766"},"name":"MURRAY, SCOT","npi":1659328102},"geometry":{"type":"Point","coordinates":[-159.366366,21.985669]}},{"type":"Feature","id":"5228fef870d483a23803c706","properties":{"id":"5228fef870d483a23803c706","incentives_received":{"year_2011":false,"year_2012":true,"year_2013":false},"phone_number":"(808) 245-1500","address":{"address":"3-3420 Kuhio Hwy, Suite B","city":"Lihue","state":"Hawaii","zip":"96766"},"name":"Rodriguez, Amy","npi":1649592098},"geometry":{"type":"Point","coordinates":[-159.366366,21.985669]}},{"type":"Feature","id":"5228fef870d483a23803c542","properties":{"id":"5228fef870d483a23803c542","incentives_received":{"year_2011":false,"year_2012":true,"year_2013":false},"phone_number":"(808) 270-0491","address":{"address":"221 Piikea Ave # A","city":"Kihei","state":"Hawaii","zip":"96753"},"name":"Kepler, Kenneth","npi":1649360033},"geometry":{"type":"Point","coordinates":[-156.452325,20.750639]}},{"type":"Feature","id":"5228fef870d483a23803c4ec","properties":{"id":"5228fef870d483a23803c4ec","incentives_received":{"year_2011":true,"year_2012":true,"year_2013":false},"phone_number":"(808) 522-4234","address":{"address":"888 S King St","city":"Honolulu","state":"Hawaii","zip":"96813"},"name":"Balfour, John","npi":1649344110},"geometry":{"type":"Point","coordinates":[-157.85051,21.302201]}},{"type":"Feature","id":"5228fef870d483a23803c4da","properties":{"id":"5228fef870d483a23803c4da","incentives_received":{"year_2011":false,"year_2012":true,"year_2013":false},"phone_number":"(808) 522-7380","address":{"address":"1329 Lusitana St, Suite 709","city":"Honolulu","state":"Hawaii","zip":"96813"},"name":"Lee, Irwin","npi":1649337486},"geometry":{"type":"Point","coordinates":[-157.852079,21.30667]}},{"type":"Feature","id":"5228fef870d483a23803c3d2","properties":{"id":"5228fef870d483a23803c3d2","incentives_received":{"year_2011":false,"year_2012":true,"year_2013":false},"phone_number":"(808) 935-5768","address":{"address":"41 Hoku St","city":"Hilo","state":"Hawaii","zip":"96720"},"name":"Jung, David","npi":1649281643},"geometry":{"type":"Point","coordinates":[-155.080049,19.716665]}},{"type":"Feature","id":"5228fef870d483a23803c370","properties":{"id":"5228fef870d483a23803c370","incentives_received":{"year_2011":false,"year_2012":true,"year_2013":false},"phone_number":"(808) 822-4333","address":{"address":"4-1461 Kuhio Hwy","city":"Kapaa","state":"Hawaii","zip":"96746"},"name":"Esaki, Paul","npi":1649275561},"geometry":{"type":"Point","coordinates":[-159.316663,22.077853]}},{"type":"Feature","id":"5228fef870d483a23803c191","properties":{"id":"5228fef870d483a23803c191","incentives_received":{"year_2011":false,"year_2012":false,"year_2013":true},"phone_number":"(808) 632-0200","address":{"address":"4473 Pahee St, Suite L","city":"Lihue","state":"Hawaii","zip":"96766"},"name":"Desai, Niraj","npi":1649246059},"geometry":{"type":"Point","coordinates":[-159.384379,21.968839]}},{"type":"Feature","id":"5228fef870d483a23803c111","properties":{"id":"5228fef870d483a23803c111","incentives_received":{"year_2011":true,"year_2012":true,"year_2013":false},"phone_number":"(808) 877-2020","address":{"address":"53 S Puunene Ave, #125","city":"Kahului","state":"Hawaii","zip":"96732"},"name":"Kato, Kevin","npi":1649238114},"geometry":{"type":"Point","coordinates":[-156.466694,20.889865]}},{"type":"Feature","id":"5228fef870d483a23803be4f","properties":{"id":"5228fef870d483a23803be4f","incentives_received":{"year_2011":false,"year_2012":true,"year_2013":false},"phone_number":"(808) 627-3230","address":{"address":"95-390 Kuahelani Ave","city":"Mililani","state":"Hawaii","zip":"96789"},"name":"Kim, Elizabeth","npi":1639304124},"geometry":{"type":"Point","coordinates":[-158.014269,21.457682]}},{"type":"Feature","id":"5228fef870d483a23803bdc4","properties":{"id":"5228fef870d483a23803bdc4","incentives_received":{"year_2011":true,"year_2012":true,"year_2013":false},"phone_number":"(808) 822-3431","address":{"address":"4-1105 Kuhio Hwy","city":"Kapaa","state":"Hawaii","zip":"96746"},"name":"Goodale, Richard","npi":1639274202},"geometry":{"type":"Point","coordinates":[-159.319509,22.068697]}},{"type":"Feature","id":"5228fef870d483a23803bd16","properties":{"id":"5228fef870d483a23803bd16","incentives_received":{"year_2011":true,"year_2012":true,"year_2013":false},"phone_number":"(808) 483-6400","address":{"address":"98-151 Pali Momi St, Suite 142","city":"Aiea","state":"Hawaii","zip":"96701"},"name":"Kurosawa, Michael","npi":1639242829},"geometry":{"type":"Point","coordinates":[-157.93826,21.393667]}},{"type":"Feature","id":"5228fef870d483a23803b2c3","properties":{"id":"5228fef870d483a23803b2c3","incentives_received":{"year_2011":true,"year_2012":true,"year_2013":false},"phone_number":"(808) 522-4000","address":{"address":"888 S King St","city":"Honolulu","state":"Hawaii","zip":"96813"},"name":"GOCHU, JONATHAN","npi":1629058987},"geometry":{"type":"Point","coordinates":[-157.85051,21.302201]}},{"type":"Feature","id":"5228fef770d483a23803b13d","properties":{"id":"5228fef770d483a23803b13d","incentives_received":{"year_2011":false,"year_2012":true,"year_2013":false},"phone_number":"(808) 942-8411","address":{"address":"1319 Punahou St, Suite 510","city":"Honolulu","state":"Hawaii","zip":"96826"},"name":"Service, Jane","npi":1629035613},"geometry":{"type":"Point","coordinates":[-157.834505,21.299897]}},{"type":"Feature","id":"5228fef770d483a23803af1f","properties":{"id":"5228fef770d483a23803af1f","incentives_received":{"year_2011":false,"year_2012":true,"year_2013":false},"phone_number":"(808) 486-0449","address":{"address":"98-211 Pali Momi St Ste 312","city":"Aiea","state":"Hawaii","zip":"96701"},"name":"Kim, Jeong","npi":1619986437},"geometry":{"type":"Point","coordinates":[-157.938655,21.382754]}},{"type":"Feature","id":"5228fef770d483a23803accb","properties":{"id":"5228fef770d483a23803accb","incentives_received":{"year_2011":false,"year_2012":true,"year_2013":false},"phone_number":"(808) 522-4000","address":{"address":"888 South King Street","city":"Honolulu","state":"Hawaii","zip":"96813"},"name":"Strickland, Lauren","npi":1619947231},"geometry":{"type":"Point","coordinates":[-157.85051,21.302201]}},{"type":"Feature","id":"5228fef770d483a23803a836","properties":{"id":"5228fef770d483a23803a836","incentives_received":{"year_2011":true,"year_2012":true,"year_2013":false},"phone_number":"(808) 245-1529","address":{"address":"3-3420 Kuhio Hwy, Suite B","city":"Lihue","state":"Hawaii","zip":"96766"},"name":"Netzer, Harold","npi":1619047842},"geometry":{"type":"Point","coordinates":[-159.366366,21.985669]}},{"type":"Feature","id":"5228fef770d483a23803a819","properties":{"id":"5228fef770d483a23803a819","incentives_received":{"year_2011":false,"year_2012":true,"year_2013":false},"phone_number":"(808) 691-7786","address":{"address":"1301 Punchbowl St","city":"Honolulu","state":"Hawaii","zip":"96813"},"name":"Onopa, Janet","npi":1619039856},"geometry":{"type":"Point","coordinates":[-157.8551,21.307644]}},{"type":"Feature","id":"5228fef770d483a23803a694","properties":{"id":"5228fef770d483a23803a694","incentives_received":{"year_2011":false,"year_2012":true,"year_2013":false},"phone_number":"(808) 875-4466","address":{"address":"380 Huku Lii Pl, Suite #107","city":"Kihei","state":"Hawaii","zip":"96753"},"name":"Van, Alicia","npi":1609938398},"geometry":{"type":"Point","coordinates":[-156.44346,20.722041]}},{"type":"Feature","id":"5228fef770d483a23803a240","properties":{"id":"5228fef770d483a23803a240","incentives_received":{"year_2011":false,"year_2012":true,"year_2013":false},"phone_number":"(808) 329-7314","address":{"address":"77-311 Sunset Dr","city":"Kailua Kona","state":"Hawaii","zip":"96740"},"name":"Wilhelm, Lori","npi":1609825728},"geometry":{"type":"Point","coordinates":[-155.961271,19.603098]}},{"type":"Feature","id":"5228fef770d483a23803a1d1","properties":{"id":"5228fef770d483a23803a1d1","incentives_received":{"year_2011":false,"year_2012":true,"year_2013":false},"phone_number":"(808) 332-5580","address":{"address":"2-2514 Kaumualii Hwy #211, PO Box 895","city":"kalaheo","state":"Hawaii","zip":"96741"},"name":"Young, Zachary","npi":1609815711},"geometry":{"type":"Point","coordinates":[-159.530254,21.925909]}},{"type":"Feature","id":"5228fef770d483a23803a0fa","properties":{"id":"5228fef770d483a23803a0fa","incentives_received":{"year_2011":false,"year_2012":true,"year_2013":false},"phone_number":"(808) 733-5111","address":{"address":"1029 Kapahulu Avenue, Suite 300","city":"Honolulu","state":"Hawaii","zip":"96816"},"name":"Ching-Endow, Chelsea","npi":1609087832},"geometry":{"type":"Point","coordinates":[-157.813095,21.286703]}},{"type":"Feature","id":"5228fef770d483a23803a041","properties":{"id":"5228fef770d483a23803a041","incentives_received":{"year_2011":false,"year_2012":true,"year_2013":false},"phone_number":"(323) 257-3937","address":{"address":"88 Piikoi Street Ste. 4405","city":"Honolulu","state":"Hawaii","zip":"96814"},"name":"Ng, Eugene","npi":1609021831},"geometry":{"type":"Point","coordinates":[-157.847447,21.292021]}},{"type":"Feature","id":"5228fef770d483a238039f5d","properties":{"id":"5228fef770d483a238039f5d","incentives_received":{"year_2011":false,"year_2012":true,"year_2013":false},"phone_number":"(808) 935-0255","address":{"address":"126 Puuhonu Way","city":"Hilo","state":"Hawaii","zip":"96720"},"name":"Souza, Jana","npi":1598913121},"geometry":{"type":"Point","coordinates":[-155.097902,19.716207]}},{"type":"Feature","id":"5228fef770d483a238039ef6","properties":{"id":"5228fef770d483a238039ef6","incentives_received":{"year_2011":false,"year_2012":true,"year_2013":false},"phone_number":"(808) 691-7786","address":{"address":"1301 Punchbowl St","city":"Honolulu","state":"Hawaii","zip":"96813"},"name":"Chun, Jeremy","npi":1598873465},"geometry":{"type":"Point","coordinates":[-157.8551,21.307644]}},{"type":"Feature","id":"5228fef770d483a238039e9c","properties":{"id":"5228fef770d483a238039e9c","incentives_received":{"year_2011":true,"year_2012":true,"year_2013":false},"phone_number":"(808) 522-4511","address":{"address":"888 S King St","city":"Honolulu","state":"Hawaii","zip":"96813"},"name":"Arnold, Stephen","npi":1598859928},"geometry":{"type":"Point","coordinates":[-157.85051,21.302201]}},{"type":"Feature","id":"5228fef770d483a238039e6f","properties":{"id":"5228fef770d483a238039e6f","incentives_received":{"year_2011":true,"year_2012":true,"year_2013":false},"phone_number":"(808) 522-3555","address":{"address":"888 S King St","city":"Honolulu","state":"Hawaii","zip":"96813"},"name":"Kai, Wesley","npi":1598853160},"geometry":{"type":"Point","coordinates":[-157.85051,21.302201]}},{"type":"Feature","id":"5228fef770d483a238039e40","properties":{"id":"5228fef770d483a238039e40","incentives_received":{"year_2011":false,"year_2012":true,"year_2013":false},"phone_number":"(808) 526-0030","address":{"address":"1329 Lusitana St, POB II, Ste 806","city":"Honolulu","state":"Hawaii","zip":"96813"},"name":"bossert, jenifer","npi":1598846669},"geometry":{"type":"Point","coordinates":[-157.866199,21.324539]}},{"type":"Feature","id":"5228fef770d483a238039de0","properties":{"id":"5228fef770d483a238039de0","incentives_received":{"year_2011":false,"year_2012":true,"year_2013":false},"phone_number":"(808) 357-0451","address":{"address":"33 Lono Ave, Suite 260","city":"Kahului","state":"Hawaii","zip":"96732"},"name":"Guild, Jeffrey","npi":1598824369},"geometry":{"type":"Point","coordinates":[-156.469768,20.889552]}},{"type":"Feature","id":"5228fef770d483a238039d75","properties":{"id":"5228fef770d483a238039d75","incentives_received":{"year_2011":false,"year_2012":false,"year_2013":true},"phone_number":"(808) 887-0600","address":{"address":"64-5188 Kinohou St","city":"Kamuela","state":"Hawaii","zip":"96743"},"name":"Ah Loy, Ron","npi":1598795403},"geometry":{"type":"Point","coordinates":[-155.659407,20.024232]}},{"type":"Feature","id":"5228fef670d483a238039b20","properties":{"id":"5228fef670d483a238039b20","incentives_received":{"year_2011":true,"year_2012":true,"year_2013":false},"phone_number":"(808) 203-6585","address":{"address":"1319 Punahou St, Ste 800","city":"Honolulu","state":"Hawaii","zip":"96826"},"name":"Oyama, Ian","npi":1598749640},"geometry":{"type":"Point","coordinates":[-157.834505,21.299897]}},{"type":"Feature","id":"5228fef670d483a238039959","properties":{"id":"5228fef670d483a238039959","incentives_received":{"year_2011":false,"year_2012":true,"year_2013":false},"phone_number":"(808) 689-7911","address":{"address":"91-803 Papipi Rd","city":"Ewa Beach","state":"Hawaii","zip":"96706"},"name":"Nagahiro, Ken","npi":1598717902},"geometry":{"type":"Point","coordinates":[-158.013825,21.315549]}},{"type":"Feature","id":"5228fef670d483a23803991a","properties":{"id":"5228fef670d483a23803991a","incentives_received":{"year_2011":false,"year_2012":true,"year_2013":false},"phone_number":"(808) 961-1400","address":{"address":"391 Kilauea Ave","city":"Hilo","state":"Hawaii","zip":"96720"},"name":"Harmeling, Stefan","npi":1598713471},"geometry":{"type":"Point","coordinates":[-155.082639,19.719738]}},{"type":"Feature","id":"5228fef670d483a2380396d5","properties":{"id":"5228fef670d483a2380396d5","incentives_received":{"year_2011":true,"year_2012":true,"year_2013":false},"phone_number":"(808) 522-4322","address":{"address":"888 S King St","city":"Honolulu","state":"Hawaii","zip":"96813"},"name":"Omori, Sean","npi":1588751630},"geometry":{"type":"Point","coordinates":[-157.85051,21.302201]}},{"type":"Feature","id":"5228fef670d483a23803951e","properties":{"id":"5228fef670d483a23803951e","incentives_received":{"year_2011":true,"year_2012":true,"year_2013":false},"phone_number":"(808) 245-1500","address":{"address":"3-3420 Kuhio Hwy, Ste B","city":"Lihue","state":"Hawaii","zip":"96766"},"name":"Sable, David","npi":1588677611},"geometry":{"type":"Point","coordinates":[-159.366366,21.985669]}},{"type":"Feature","id":"5228fef670d483a2380391a0","properties":{"id":"5228fef670d483a2380391a0","incentives_received":{"year_2011":false,"year_2012":true,"year_2013":false},"phone_number":"(808) 842-7126","address":{"address":"2055 North King Street, Suite 102","city":"Honolulu","state":"Hawaii","zip":"96819"},"name":"Vinzons, Gavino","npi":1588617492},"geometry":{"type":"Point","coordinates":[-157.878888,21.333118]}},{"type":"Feature","id":"5228fef670d483a238038f93","properties":{"id":"5228fef670d483a238038f93","incentives_received":{"year_2011":false,"year_2012":true,"year_2013":false},"phone_number":"(808) 637-5087","address":{"address":"66-125 Kamehameha Hwy","city":"Haleiwa","state":"Hawaii","zip":"96712"},"name":"Teruya, Summer","npi":1578679668},"geometry":{"type":"Point","coordinates":[-158.040324,21.673787]}},{"type":"Feature","id":"5228fef670d483a238038e27","properties":{"id":"5228fef670d483a238038e27","incentives_received":{"year_2011":false,"year_2012":true,"year_2013":false},"phone_number":"(808) 676-2271","address":{"address":"94-141 Pupupuhi St","city":"Waipahu","state":"Hawaii","zip":"96797"},"name":"alquero, edward","npi":1578610168},"geometry":{"type":"Point","coordinates":[-158.015291,21.381136]}},{"type":"Feature","id":"5228fef670d483a238038e12","properties":{"id":"5228fef670d483a238038e12","incentives_received":{"year_2011":false,"year_2012":true,"year_2013":false},"phone_number":"(808) 522-4000","address":{"address":"888 S King Street","city":"Honolulu","state":"Hawaii","zip":"96813"},"name":"Lum, Jeremy","npi":1578602561},"geometry":{"type":"Point","coordinates":[-157.85051,21.302201]}},{"type":"Feature","id":"5228fef670d483a238038d3c","properties":{"id":"5228fef670d483a238038d3c","incentives_received":{"year_2011":false,"year_2012":true,"year_2013":false},"phone_number":"(808) 242-6464","address":{"address":"2180 Main St","city":"Wailuku","state":"Hawaii","zip":"96793"},"name":"Fusato, Ryan","npi":1578580296},"geometry":{"type":"Point","coordinates":[-156.504094,20.887143]}},{"type":"Feature","id":"5228fef670d483a238038ccd","properties":{"id":"5228fef670d483a238038ccd","incentives_received":{"year_2011":false,"year_2012":true,"year_2013":false},"phone_number":"(808) 531-5711","address":{"address":"2226 Liliha St, Ste 306","city":"Honolulu","state":"Hawaii","zip":"96817"},"name":"Naai, David","npi":1578568416},"geometry":{"type":"Point","coordinates":[-157.852008,21.32848]}},{"type":"Feature","id":"5228fef670d483a2380389f8","properties":{"id":"5228fef670d483a2380389f8","incentives_received":{"year_2011":false,"year_2012":true,"year_2013":false},"phone_number":"(808) 969-3814","address":{"address":"75 Puuhonu Place, Suite 205","city":"Hilo","state":"Hawaii","zip":"96720"},"name":"Kurohara, Kevin","npi":1578519229},"geometry":{"type":"Point","coordinates":[-155.104476,19.715542]}},{"type":"Feature","id":"5228fef570d483a23803870e","properties":{"id":"5228fef570d483a23803870e","incentives_received":{"year_2011":true,"year_2012":true,"year_2013":false},"phone_number":"(808) 522-5232","address":{"address":"888 S King St","city":"Honolulu","state":"Hawaii","zip":"96813"},"name":"Weldon, Edward","npi":1568536241},"geometry":{"type":"Point","coordinates":[-157.85051,21.302201]}},{"type":"Feature","id":"5228fef570d483a23803870d","properties":{"id":"5228fef570d483a23803870d","incentives_received":{"year_2011":true,"year_2012":true,"year_2013":false},"phone_number":"(808) 522-4000","address":{"address":"888 South King Street","city":"Honolulu","state":"Hawaii","zip":"96813"},"name":"Chang, Spencer","npi":1568536233},"geometry":{"type":"Point","coordinates":[-157.85051,21.302201]}},{"type":"Feature","id":"5228fef570d483a238038376","properties":{"id":"5228fef570d483a238038376","incentives_received":{"year_2011":true,"year_2012":true,"year_2013":false},"phone_number":"(808) 524-0066","address":{"address":"1380 Lusitana St,, suite 810","city":"Honolulu","state":"Hawaii","zip":"96813"},"name":"Nishida, Steven","npi":1568439347},"geometry":{"type":"Point","coordinates":[-157.853051,21.308733]}},{"type":"Feature","id":"5228fef570d483a238038278","properties":{"id":"5228fef570d483a238038278","incentives_received":{"year_2011":false,"year_2012":true,"year_2013":false},"phone_number":"(808) 531-7111","address":{"address":"1329 Lusitana St., # 804","city":"Honolulu","state":"Hawaii","zip":"96813"},"name":"John, David","npi":1568424174},"geometry":{"type":"Point","coordinates":[-157.852079,21.30667]}},{"type":"Feature","id":"5228fef570d483a238037fd7","properties":{"id":"5228fef570d483a238037fd7","incentives_received":{"year_2011":false,"year_2012":true,"year_2013":false},"phone_number":"(808) 782-1861","address":{"address":"1029 Kapahulu Ave Ste 502","city":"Honolulu","state":"Hawaii","zip":"96816"},"name":"Tokunaga, Jason","npi":1558463794},"geometry":{"type":"Point","coordinates":[-157.813095,21.286703]}},{"type":"Feature","id":"5228fef570d483a238037faa","properties":{"id":"5228fef570d483a238037faa","incentives_received":{"year_2011":true,"year_2012":true,"year_2013":false},"phone_number":"(808) 522-4530","address":{"address":"888 S King St","city":"Honolulu","state":"Hawaii","zip":"96813"},"name":"Park, Alfred","npi":1558458505},"geometry":{"type":"Point","coordinates":[-157.85051,21.302201]}},{"type":"Feature","id":"5228fef570d483a238037efd","properties":{"id":"5228fef570d483a238037efd","incentives_received":{"year_2011":false,"year_2012":true,"year_2013":false},"phone_number":"(808) 244-3278","address":{"address":"1962 E Vineyard St","city":"Wailuku","state":"Hawaii","zip":"96793"},"name":"Drood, Jeffrey","npi":1558419770},"geometry":{"type":"Point","coordinates":[-156.501825,20.889761]}},{"type":"Feature","id":"5228fef570d483a238037e47","properties":{"id":"5228fef570d483a238037e47","incentives_received":{"year_2011":false,"year_2012":true,"year_2013":false},"phone_number":"(808) 242-6464","address":{"address":"2180 Main St","city":"Wailuku","state":"Hawaii","zip":"96793"},"name":"Gutermuth, Kristen","npi":1558386243},"geometry":{"type":"Point","coordinates":[-156.504094,20.887143]}},{"type":"Feature","id":"5228fef570d483a238037df4","properties":{"id":"5228fef570d483a238037df4","incentives_received":{"year_2011":false,"year_2012":true,"year_2013":false},"phone_number":"(808) 246-3800","address":{"address":"4484 Pahee St","city":"Lihue","state":"Hawaii","zip":"96766"},"name":"Lanson, Edward","npi":1558375659},"geometry":{"type":"Point","coordinates":[-159.384368,21.968948]}},{"type":"Feature","id":"5228fef570d483a2380379fd","properties":{"id":"5228fef570d483a2380379fd","incentives_received":{"year_2011":false,"year_2012":true,"year_2013":false},"phone_number":"(808) 885-4444","address":{"address":"67 1125 Mamalahoa Hwy","city":"Kamuela","state":"Hawaii","zip":"96743"},"name":"HARKER, MELANI","npi":1558302745},"geometry":{"type":"Point","coordinates":[-155.665676,20.022964]}},{"type":"Feature","id":"5228fef570d483a238037792","properties":{"id":"5228fef570d483a238037792","incentives_received":{"year_2011":true,"year_2012":true,"year_2013":false},"phone_number":"(808) 742-1621","address":{"address":"5371 Koloa Rd","city":"Koloa","state":"Hawaii","zip":"96756"},"name":"Murray, Joseph","npi":1548330657},"geometry":{"type":"Point","coordinates":[-159.467837,21.903754]}},{"type":"Feature","id":"5228fef570d483a238037761","properties":{"id":"5228fef570d483a238037761","incentives_received":{"year_2011":false,"year_2012":true,"year_2013":false},"phone_number":"(808) 242-6464","address":{"address":"2180 Main St","city":"Wailuku","state":"Hawaii","zip":"96793"},"name":"Au, Melinda","npi":1548316482},"geometry":{"type":"Point","coordinates":[-156.504094,20.887143]}},{"type":"Feature","id":"5228fef570d483a23803741b","properties":{"id":"5228fef570d483a23803741b","incentives_received":{"year_2011":false,"year_2012":true,"year_2013":false},"phone_number":"(808) 263-3020","address":{"address":"328 Uluniu St, Suite 103","city":"Kailua","state":"Hawaii","zip":"96734"},"name":"Kimbrell, Mark","npi":1548238058},"geometry":{"type":"Point","coordinates":[-157.742278,21.397175]}},{"type":"Feature","id":"5228fef570d483a238037381","properties":{"id":"5228fef570d483a238037381","incentives_received":{"year_2011":false,"year_2012":true,"year_2013":false},"phone_number":"(808) 933-2540","address":{"address":"670 Ponahawai St, #110","city":"Hilo","state":"Hawaii","zip":"96720"},"name":"Nakamura, Harvey","npi":1548227861},"geometry":{"type":"Point","coordinates":[-155.09634,19.713743]}},{"type":"Feature","id":"5228fef470d483a23803725a","properties":{"id":"5228fef470d483a23803725a","incentives_received":{"year_2011":false,"year_2012":true,"year_2013":false},"phone_number":"(808) 933-9187","address":{"address":"409 Kilauea Ave","city":"Hilo","state":"Hawaii","zip":"96720"},"name":"Dolan, Lynda","npi":1548207319},"geometry":{"type":"Point","coordinates":[-155.082172,19.719521]}},{"type":"Feature","id":"5228fef470d483a238036ecb","properties":{"id":"5228fef470d483a238036ecb","incentives_received":{"year_2011":false,"year_2012":true,"year_2013":false},"phone_number":"(808) 242-6464","address":{"address":"2180 Main St","city":"Wailuku","state":"Hawaii","zip":"96793"},"name":"Guzman, Ma Rosario","npi":1538184221},"geometry":{"type":"Point","coordinates":[-156.504094,20.887143]}},{"type":"Feature","id":"5228fef470d483a238036889","properties":{"id":"5228fef470d483a238036889","incentives_received":{"year_2011":true,"year_2012":true,"year_2013":false},"phone_number":"(808) 245-1524","address":{"address":"3-3420 Kuhio Hwy, Suite B","city":"Lihue","state":"Hawaii","zip":"96766"},"name":"Rovinsky, David","npi":1528163284},"geometry":{"type":"Point","coordinates":[-159.366366,21.985669]}},{"type":"Feature","id":"5228fef470d483a2380367ea","properties":{"id":"5228fef470d483a2380367ea","incentives_received":{"year_2011":true,"year_2012":true,"year_2013":false},"phone_number":"(808) 522-4000","address":{"address":"888 S King St","city":"Honolulu","state":"Hawaii","zip":"96813"},"name":"Maeda, Ikuo","npi":1528132297},"geometry":{"type":"Point","coordinates":[-157.85051,21.302201]}},{"type":"Feature","id":"5228fef470d483a2380366aa","properties":{"id":"5228fef470d483a2380366aa","incentives_received":{"year_2011":false,"year_2012":true,"year_2013":false},"phone_number":"(808) 486-5556","address":{"address":"98-1079 Moanalua Rd, Suite 670","city":"Aiea","state":"Hawaii","zip":"96701"},"name":"Otaka, Dean","npi":1528079134},"geometry":{"type":"Point","coordinates":[-157.945805,21.383876]}},{"type":"Feature","id":"5228fef470d483a238036477","properties":{"id":"5228fef470d483a238036477","incentives_received":{"year_2011":false,"year_2012":true,"year_2013":false},"phone_number":"(808) 261-3364","address":{"address":"407 Uluniu St Ste 313","city":"Kailua","state":"Hawaii","zip":"96734"},"name":"chang, sally","npi":1528041621},"geometry":{"type":"Point","coordinates":[-157.744292,21.396097]}},{"type":"Feature","id":"5228fef470d483a238035fda","properties":{"id":"5228fef470d483a238035fda","incentives_received":{"year_2011":false,"year_2012":true,"year_2013":false},"phone_number":"(808) 955-8660","address":{"address":"1525 Kalakaua Ave","city":"Honolulu","state":"Hawaii","zip":"96826"},"name":"Yee, Aileen","npi":1518948058},"geometry":{"type":"Point","coordinates":[-157.836982,21.296478]}},{"type":"Feature","id":"5228fef370d483a238035dc5","properties":{"id":"5228fef370d483a238035dc5","incentives_received":{"year_2011":false,"year_2012":true,"year_2013":false},"phone_number":"(808) 671-3911","address":{"address":"94-837 Waipahu St","city":"Waipahu","state":"Hawaii","zip":"96797"},"name":"Sonido, Charlie","npi":1518910660},"geometry":{"type":"Point","coordinates":[-158.007956,21.385372]}},{"type":"Feature","id":"5228fef370d483a238035aaa","properties":{"id":"5228fef370d483a238035aaa","incentives_received":{"year_2011":true,"year_2012":true,"year_2013":false},"phone_number":"(808) 522-2400","address":{"address":"888 S King St","city":"Honolulu","state":"Hawaii","zip":"96813"},"name":"Chen, Janny","npi":1518016476},"geometry":{"type":"Point","coordinates":[-157.85051,21.302201]}},{"type":"Feature","id":"5228fef370d483a238035a5e","properties":{"id":"5228fef370d483a238035a5e","incentives_received":{"year_2011":false,"year_2012":true,"year_2013":false},"phone_number":"(808) 691-7786","address":{"address":"1301 Punchbowl Street","city":"Honolulu","state":"Hawaii","zip":"96813"},"name":"Godley, Joanne","npi":1508982828},"geometry":{"type":"Point","coordinates":[-157.8551,21.307644]}},{"type":"Feature","id":"5228fef370d483a238035a56","properties":{"id":"5228fef370d483a238035a56","incentives_received":{"year_2011":false,"year_2012":true,"year_2013":false},"phone_number":"(808) 245-4500","address":{"address":"3-3420 Kuhio Hwy, Ste B","city":"Lihue","state":"Hawaii","zip":"96766"},"name":"Tamanaha, Reid","npi":1508979709},"geometry":{"type":"Point","coordinates":[-159.366366,21.985669]}},{"type":"Feature","id":"5228fef370d483a23803585f","properties":{"id":"5228fef370d483a23803585f","incentives_received":{"year_2011":false,"year_2012":true,"year_2013":false},"phone_number":"(808) 524-3131","address":{"address":"1650 Liliha Street, #105","city":"Honolulu","state":"Hawaii","zip":"96817"},"name":"ACOBA, JARED","npi":1508889338},"geometry":{"type":"Point","coordinates":[-157.85929,21.322217]}},{"type":"Feature","id":"5228fef370d483a238035806","properties":{"id":"5228fef370d483a238035806","incentives_received":{"year_2011":false,"year_2012":true,"year_2013":false},"phone_number":"(808) 242-6464","address":{"address":"2180 Main St","city":"Wailuku","state":"Hawaii","zip":"96793"},"name":"Ricalde, Arleen","npi":1508878497},"geometry":{"type":"Point","coordinates":[-156.504094,20.887143]}},{"type":"Feature","id":"5228fef370d483a23803557d","properties":{"id":"5228fef370d483a23803557d","incentives_received":{"year_2011":false,"year_2012":true,"year_2013":false},"phone_number":"(808) 524-3131","address":{"address":"1650 Liliha St, #105","city":"Honolulu","state":"Hawaii","zip":"96817"},"name":"Palalay, Melvin","npi":1508833971},"geometry":{"type":"Point","coordinates":[-157.85929,21.322217]}},{"type":"Feature","id":"5228fef370d483a2380354cc","properties":{"id":"5228fef370d483a2380354cc","incentives_received":{"year_2011":false,"year_2012":false,"year_2013":true},"phone_number":"(808) 523-9400","address":{"address":"1380 Lusitana St #1004","city":"Honolulu","state":"Hawaii","zip":"96813"},"name":"CARLILE, ROBERT","npi":1508821794},"geometry":{"type":"Point","coordinates":[-157.853051,21.308733]}},{"type":"Feature","id":"5228fef370d483a238035295","properties":{"id":"5228fef370d483a238035295","incentives_received":{"year_2011":true,"year_2012":true,"year_2013":false},"phone_number":"(808) 522-4000","address":{"address":"888 S King St","city":"Honolulu","state":"Hawaii","zip":"96813"},"name":"Maldini, Gregorio","npi":1497958748},"geometry":{"type":"Point","coordinates":[-157.85051,21.302201]}},{"type":"Feature","id":"5228fef370d483a238035114","properties":{"id":"5228fef370d483a238035114","incentives_received":{"year_2011":true,"year_2012":true,"year_2013":false},"phone_number":"(808) 246-1622","address":{"address":"3-3420 Kuhio Hwy, Suite B","city":"Lihue","state":"Hawaii","zip":"96766"},"name":"Krebs, Clara","npi":1497842827},"geometry":{"type":"Point","coordinates":[-159.366366,21.985669]}},{"type":"Feature","id":"5228fef370d483a23803510c","properties":{"id":"5228fef370d483a23803510c","incentives_received":{"year_2011":false,"year_2012":true,"year_2013":false},"phone_number":"(808) 935-6319","address":{"address":"101 AUPUNI STREET, SUITE 305","city":"HILO","state":"Hawaii","zip":"96720"},"name":"KUNIMURA, GLENN","npi":1497841050},"geometry":{"type":"Point","coordinates":[-155.077641,19.718225]}},{"type":"Feature","id":"5228fef370d483a2380350db","properties":{"id":"5228fef370d483a2380350db","incentives_received":{"year_2011":true,"year_2012":true,"year_2013":false},"phone_number":"(808) 335-0499","address":{"address":"4382 Waialo Rd","city":"Eleele","state":"Hawaii","zip":"96705"},"name":"Williamson, Thomas","npi":1497829139},"geometry":{"type":"Point","coordinates":[-159.585626,21.903279]}},{"type":"Feature","id":"5228fef370d483a238034b25","properties":{"id":"5228fef370d483a238034b25","incentives_received":{"year_2011":true,"year_2012":true,"year_2013":false},"phone_number":"(808) 522-4344","address":{"address":"888 S King St","city":"Honolulu","state":"Hawaii","zip":"96813"},"name":"Chinen, Sheri","npi":1487873600},"geometry":{"type":"Point","coordinates":[-157.85051,21.302201]}},{"type":"Feature","id":"5228fef370d483a238034a51","properties":{"id":"5228fef370d483a238034a51","incentives_received":{"year_2011":false,"year_2012":true,"year_2013":false},"phone_number":"(808) 988-8700","address":{"address":"2756 Woodlawn Dr, Suite 6-202","city":"Honolulu","state":"Hawaii","zip":"96822"},"name":"Masaki Tesoro, Traci","npi":1487782736},"geometry":{"type":"Point","coordinates":[-157.809368,21.30784]}},{"type":"Feature","id":"5228fef370d483a2380349bb","properties":{"id":"5228fef370d483a2380349bb","incentives_received":{"year_2011":true,"year_2012":true,"year_2013":false},"phone_number":"(808) 538-1905","address":{"address":"1650 Liliha St, #101","city":"Honolulu","state":"Hawaii","zip":"96817"},"name":"Yeo, Choon","npi":1487751285},"geometry":{"type":"Point","coordinates":[-157.85929,21.322217]}},{"type":"Feature","id":"5228fef270d483a238034936","properties":{"id":"5228fef270d483a238034936","incentives_received":{"year_2011":true,"year_2012":true,"year_2013":false},"phone_number":"(808) 522-4232","address":{"address":"888 S King St","city":"Honolulu","state":"Hawaii","zip":"96813"},"name":"Montemayor, Andrew","npi":1487731063},"geometry":{"type":"Point","coordinates":[-157.85051,21.302201]}},{"type":"Feature","id":"5228fef270d483a2380348b4","properties":{"id":"5228fef270d483a2380348b4","incentives_received":{"year_2011":false,"year_2012":true,"year_2013":false},"phone_number":"(808) 828-1418","address":{"address":"2490 Oka St","city":"Kilauea","state":"Hawaii","zip":"96754"},"name":"Capelli, Thomas","npi":1487698155},"geometry":{"type":"Point","coordinates":[-159.406508,22.21]}},{"type":"Feature","id":"5228fef270d483a2380346b4","properties":{"id":"5228fef270d483a2380346b4","incentives_received":{"year_2011":true,"year_2012":false,"year_2013":false},"phone_number":"(808) 533-7400","address":{"address":"2055 N King St, #100","city":"Honolulu","state":"Hawaii","zip":"96819"},"name":"Pang, M Pierre","npi":1487654794},"geometry":{"type":"Point","coordinates":[-157.878888,21.333118]}},{"type":"Feature","id":"5228fef270d483a238034311","properties":{"id":"5228fef270d483a238034311","incentives_received":{"year_2011":false,"year_2012":true,"year_2013":false},"phone_number":"(808) 777-0689","address":{"address":"99-080 Kauhale St Ste C22","city":"Aiea","state":"Hawaii","zip":"96701"},"name":"Yamaki, Rodney","npi":1477760452},"geometry":{"type":"Point","coordinates":[-157.931688,21.379164]}},{"type":"Feature","id":"5228fef270d483a23803429d","properties":{"id":"5228fef270d483a23803429d","incentives_received":{"year_2011":false,"year_2012":true,"year_2013":false},"phone_number":"(808) 935-6319","address":{"address":"101 Aupuni St Ste 305","city":"Hilo","state":"Hawaii","zip":"96720"},"name":"Otomo, Rolin","npi":1477719706},"geometry":{"type":"Point","coordinates":[-155.077641,19.718225]}},{"type":"Feature","id":"5228fef270d483a238034167","properties":{"id":"5228fef270d483a238034167","incentives_received":{"year_2011":true,"year_2012":true,"year_2013":false},"phone_number":"(808) 522-4514","address":{"address":"888 S King St","city":"Honolulu","state":"Hawaii","zip":"96813"},"name":"Loui, Bennett","npi":1477643542},"geometry":{"type":"Point","coordinates":[-157.85051,21.302201]}},{"type":"Feature","id":"5228fef270d483a238033f91","properties":{"id":"5228fef270d483a238033f91","incentives_received":{"year_2011":true,"year_2012":true,"year_2013":false},"phone_number":"(808) 245-1523","address":{"address":"3-3420 Kuhio Hwy, Suite B","city":"Lihue","state":"Hawaii","zip":"96766"},"name":"Pohlman, Floyd","npi":1477570190},"geometry":{"type":"Point","coordinates":[-159.366366,21.985669]}},{"type":"Feature","id":"5228fef270d483a238033cac","properties":{"id":"5228fef270d483a238033cac","incentives_received":{"year_2011":true,"year_2012":true,"year_2013":false},"phone_number":"(808) 522-3570","address":{"address":"888 S King St","city":"Honolulu","state":"Hawaii","zip":"96813"},"name":"Wong, James","npi":1477519734},"geometry":{"type":"Point","coordinates":[-157.85051,21.302201]}},{"type":"Feature","id":"5228fef270d483a2380339bf","properties":{"id":"5228fef270d483a2380339bf","incentives_received":{"year_2011":false,"year_2012":true,"year_2013":false},"phone_number":"(808) 969-1671","address":{"address":"868 Ululani St, Ste 102","city":"Hilo","state":"Hawaii","zip":"96720"},"name":"Tatsuno, Sydney","npi":1467547307},"geometry":{"type":"Point","coordinates":[-155.084497,19.71551]}},{"type":"Feature","id":"5228fef270d483a238033955","properties":{"id":"5228fef270d483a238033955","incentives_received":{"year_2011":true,"year_2012":true,"year_2013":false},"phone_number":"(808) 522-4512","address":{"address":"888 S King St","city":"Honolulu","state":"Hawaii","zip":"96813"},"name":"Williams, Katherine","npi":1467527556},"geometry":{"type":"Point","coordinates":[-157.85051,21.302201]}},{"type":"Feature","id":"5228fef270d483a238033726","properties":{"id":"5228fef270d483a238033726","incentives_received":{"year_2011":false,"year_2012":true,"year_2013":false},"phone_number":"(808) 822-4333","address":{"address":"4-1461 Kuhio Hwy","city":"Kapaa","state":"Hawaii","zip":"96746"},"name":"Ayabe, Sharon","npi":1467457382},"geometry":{"type":"Point","coordinates":[-159.316663,22.077853]}},{"type":"Feature","id":"5228fef170d483a2380335be","properties":{"id":"5228fef170d483a2380335be","incentives_received":{"year_2011":false,"year_2012":true,"year_2013":false},"phone_number":"(808) 885-9606","address":{"address":"67-1123 Mamalahoa Hwy","city":"Kamuela","state":"Hawaii","zip":"96743"},"name":"Szczygiel, Gerard","npi":1467436006},"geometry":{"type":"Point","coordinates":[-155.665654,20.022983]}},{"type":"Feature","id":"5228fef170d483a2380334ba","properties":{"id":"5228fef170d483a2380334ba","incentives_received":{"year_2011":false,"year_2012":true,"year_2013":false},"phone_number":"(808) 935-6635","address":{"address":"670 Ponahawai St, Suite 206","city":"Hilo","state":"Hawaii","zip":"96720"},"name":"Kadooka, Craig","npi":1467419630},"geometry":{"type":"Point","coordinates":[-155.09634,19.713743]}},{"type":"Feature","id":"5228fef170d483a2380333ae","properties":{"id":"5228fef170d483a2380333ae","incentives_received":{"year_2011":false,"year_2012":true,"year_2013":false},"phone_number":"(808) 244-7032","address":{"address":"811 Kolu St., Ste. 101","city":"Wailuku","state":"Hawaii","zip":"96793"},"name":"Kocivar, Jane","npi":1467400770},"geometry":{"type":"Point","coordinates":[-156.487318,20.903714]}},{"type":"Feature","id":"5228fef170d483a238033216","properties":{"id":"5228fef170d483a238033216","incentives_received":{"year_2011":true,"year_2012":true,"year_2013":false},"phone_number":"(808) 969-2011","address":{"address":"670 Ponahawai St Ste 218","city":"Hilo","state":"Hawaii","zip":"96720"},"name":"Lee Loy, Henry","npi":1457459653},"geometry":{"type":"Point","coordinates":[-155.09634,19.713743]}},{"type":"Feature","id":"5228fef170d483a2380330ae","properties":{"id":"5228fef170d483a2380330ae","incentives_received":{"year_2011":false,"year_2012":true,"year_2013":false},"phone_number":"(808) 733-5111","address":{"address":"1029 Kapahulu Ave, 301","city":"Honolulu","state":"Hawaii","zip":"96816"},"name":"Miyaki, Clyde","npi":1457392029},"geometry":{"type":"Point","coordinates":[-157.813095,21.286703]}},{"type":"Feature","id":"5228fef170d483a238032fd8","properties":{"id":"5228fef170d483a238032fd8","incentives_received":{"year_2011":true,"year_2012":false,"year_2013":false},"phone_number":null,"address":{"address":"25 Maluniu Ave Ste 201","city":"Kailua","state":"Hawaii","zip":null},"name":"Wong, Sonny","npi":1457369571},"geometry":{"type":"Point","coordinates":[-157.741657,21.397234]}},{"type":"Feature","id":"5228fef170d483a238032bc1","properties":{"id":"5228fef170d483a238032bc1","incentives_received":{"year_2011":false,"year_2012":true,"year_2013":false},"phone_number":"(808) 691-7786","address":{"address":"1301 Punchbowl St","city":"Honolulu","state":"Hawaii","zip":"96813"},"name":"Haley, Amanda","npi":1447473327},"geometry":{"type":"Point","coordinates":[-157.8551,21.307644]}},{"type":"Feature","id":"5228fef170d483a238032b51","properties":{"id":"5228fef170d483a238032b51","incentives_received":{"year_2011":false,"year_2012":true,"year_2013":false},"phone_number":"(808) 637-5087","address":{"address":"66-125 Kamehameha Hwy.","city":"Haleiwa","state":"Hawaii","zip":"96712"},"name":"Goh, Jodi","npi":1447438494},"geometry":{"type":"Point","coordinates":[-158.040324,21.673787]}},{"type":"Feature","id":"5228fef170d483a2380329bc","properties":{"id":"5228fef170d483a2380329bc","incentives_received":{"year_2011":false,"year_2012":true,"year_2013":false},"phone_number":"(808) 536-9326","address":{"address":"2228 Liliha St, Suite #103","city":"Honolulu","state":"Hawaii","zip":"96817"},"name":"Tan, Thomas","npi":1447328620},"geometry":{"type":"Point","coordinates":[-157.851963,21.328514]}},{"type":"Feature","id":"5228fef170d483a2380329af","properties":{"id":"5228fef170d483a2380329af","incentives_received":{"year_2011":true,"year_2012":true,"year_2013":false},"phone_number":"(808) 244-9555","address":{"address":"105 Mauilani Pkwy, Suite 100","city":"Wailuku","state":"Hawaii","zip":"96793"},"name":"Lakkis, Jay","npi":1447325782},"geometry":{"type":"Point","coordinates":[-156.475549,20.871045]}},{"type":"Feature","id":"5228fef170d483a238032349","properties":{"id":"5228fef170d483a238032349","incentives_received":{"year_2011":true,"year_2012":false,"year_2013":false},"phone_number":"(808) 935-3121","address":{"address":"1028 Kinoole St Ste 104","city":"Hilo","state":"Hawaii","zip":"96720"},"name":"mundo, rand","npi":1437294667},"geometry":{"type":"Point","coordinates":[-155.081823,19.713684]}},{"type":"Feature","id":"5228fef170d483a238032342","properties":{"id":"5228fef170d483a238032342","incentives_received":{"year_2011":false,"year_2012":true,"year_2013":false},"phone_number":"(808) 921-0330","address":{"address":"2222 KALAKAUA AVE., SUITE 603","city":"HONOLULU","state":"Hawaii","zip":"96815"},"name":"Yeh, Su Juen","npi":1437292729},"geometry":{"type":"Point","coordinates":[-157.829224,21.27949]}},{"type":"Feature","id":"5228fef170d483a238032337","properties":{"id":"5228fef170d483a238032337","incentives_received":{"year_2011":false,"year_2012":true,"year_2013":false},"phone_number":"(808) 535-5555","address":{"address":"932 Ward Ave Ste 600","city":"Honolulu","state":"Hawaii","zip":"96814"},"name":"Sloan, Robert","npi":1437287869},"geometry":{"type":"Point","coordinates":[-157.850856,21.301377]}},{"type":"Feature","id":"5228fef170d483a238032295","properties":{"id":"5228fef170d483a238032295","incentives_received":{"year_2011":true,"year_2012":true,"year_2013":false},"phone_number":"(808) 522-4275","address":{"address":"888 S King St","city":"Honolulu","state":"Hawaii","zip":"96813"},"name":"Akau, Cedric","npi":1437254034},"geometry":{"type":"Point","coordinates":[-157.85051,21.302201]}},{"type":"Feature","id":"5228fef170d483a23803211d","properties":{"id":"5228fef170d483a23803211d","incentives_received":{"year_2011":false,"year_2012":true,"year_2013":false},"phone_number":"(808) 522-4000","address":{"address":"888 S King Street","city":"Honolulu","state":"Hawaii","zip":"96813"},"name":"Lee, Stephen","npi":1437193422},"geometry":{"type":"Point","coordinates":[-157.85051,21.302201]}},{"type":"Feature","id":"5228fef070d483a238031da2","properties":{"id":"5228fef070d483a238031da2","incentives_received":{"year_2011":false,"year_2012":true,"year_2013":false},"phone_number":"(808) 524-3131","address":{"address":"1650 Liliha St, #105","city":"Honolulu","state":"Hawaii","zip":"96817"},"name":"Sumida, Kenneth","npi":1437126380},"geometry":{"type":"Point","coordinates":[-157.85929,21.322217]}},{"type":"Feature","id":"5228fef070d483a238031a94","properties":{"id":"5228fef070d483a238031a94","incentives_received":{"year_2011":true,"year_2012":true,"year_2013":false},"phone_number":"(808) 522-4476","address":{"address":"888 S King St","city":"Honolulu","state":"Hawaii","zip":"96813"},"name":"Gerber, Mark","npi":1427153634},"geometry":{"type":"Point","coordinates":[-157.85051,21.302201]}},{"type":"Feature","id":"5228fef070d483a238031a36","properties":{"id":"5228fef070d483a238031a36","incentives_received":{"year_2011":false,"year_2012":true,"year_2013":false},"phone_number":"(808) 322-9621","address":{"address":"78-6824 Mamalahoa Hwy","city":"Holualoa","state":"Hawaii","zip":"96725"},"name":"Cheng, Minolu","npi":1427138544},"geometry":{"type":"Point","coordinates":[-155.940536,19.565303]}},{"type":"Feature","id":"5228fef070d483a2380318ca","properties":{"id":"5228fef070d483a2380318ca","incentives_received":{"year_2011":false,"year_2012":true,"year_2013":false},"phone_number":"(808) 245-8874","address":{"address":"3-3295 Kuhio Hwy","city":"Lihue","state":"Hawaii","zip":"96766"},"name":"Martinez, Raymond","npi":1427080878},"geometry":{"type":"Point","coordinates":[-159.367065,21.982873]}},{"type":"Feature","id":"5228fef070d483a23803180c","properties":{"id":"5228fef070d483a23803180c","incentives_received":{"year_2011":false,"year_2012":true,"year_2013":false},"phone_number":"(808) 488-7770","address":{"address":"98-1079 Moanalua Rd, # 420","city":"Aiea","state":"Hawaii","zip":"96701"},"name":"Ebisu, Roy","npi":1427060763},