[{"type":"Feature","id":"5228ff0670d483a23804d627","properties":{"id":"5228ff0670d483a23804d627","incentives_received":{"year_2011":false,"year_2012":true,"year_2013":false},"phone_number":"(508) 646-7710","address":{"address":"289 Pleasant St, Suite 604","city":"Fall River","state":"Massachusetts","zip":"02721"},"name":"Lakshman, Kishore","npi":1992909568},"geometry":{"type":"Point","coordinates":[-71.150661,41.69963]}},{"type":"Feature","id":"5228ff0670d483a23804d5f4","properties":{"id":"5228ff0670d483a23804d5f4","incentives_received":{"year_2011":false,"year_2012":true,"year_2013":false},"phone_number":"(508) 236-8171","address":{"address":"19 Sturdy Street","city":"Attleboro","state":"Massachusetts","zip":"02703"},"name":"Schulman, Howard","npi":1992898233},"geometry":{"type":"Point","coordinates":[-71.274602,41.943636]}},{"type":"Feature","id":"5228ff0670d483a23804d5b5","properties":{"id":"5228ff0670d483a23804d5b5","incentives_received":{"year_2011":true,"year_2012":true,"year_2013":false},"phone_number":"(413) 794-7491","address":{"address":"3300 Main St, 3rd Floor Suite C&D","city":"Springfield","state":"Massachusetts","zip":"01199"},"name":"Gottlieb, Robin","npi":1992889992},"geometry":{"type":"Point","coordinates":[-72.609612,42.123069]}},{"type":"Feature","id":"5228ff0670d483a23804d58b","properties":{"id":"5228ff0670d483a23804d58b","incentives_received":{"year_2011":false,"year_2012":true,"year_2013":false},"phone_number":"(857) 307-0896","address":{"address":"111 Cypress Street","city":"Brookline","state":"Massachusetts","zip":"02445"},"name":"Brick, Gregory","npi":1992882195},"geometry":{"type":"Point","coordinates":[-71.125963,42.331063]}},{"type":"Feature","id":"5228ff0670d483a23804d57c","properties":{"id":"5228ff0670d483a23804d57c","incentives_received":{"year_2011":false,"year_2012":true,"year_2013":false},"phone_number":"(617) 726-8650","address":{"address":"55 Fruit Street","city":"Boston","state":"Massachusetts","zip":"02114"},"name":"Winkfield, Karen","npi":1992879456},"geometry":{"type":"Point","coordinates":[-71.069772,42.362505]}},{"type":"Feature","id":"5228ff0670d483a23804d55c","properties":{"id":"5228ff0670d483a23804d55c","incentives_received":{"year_2011":true,"year_2012":true,"year_2013":false},"phone_number":"(978) 465-7322","address":{"address":"3 Cherry St","city":"Newburyport","state":"Massachusetts","zip":"01950"},"name":"Lanphear, Kevin","npi":1992872626},"geometry":{"type":"Point","coordinates":[-70.876358,42.800287]}},{"type":"Feature","id":"5228ff0670d483a23804d536","properties":{"id":"5228ff0670d483a23804d536","incentives_received":{"year_2011":false,"year_2012":true,"year_2013":false},"phone_number":"(617) 667-9600","address":{"address":"330 Brookline Ave","city":"Boston","state":"Massachusetts","zip":"02215"},"name":"reale, eileen","npi":1992864326},"geometry":{"type":"Point","coordinates":[-71.105846,42.34034]}},{"type":"Feature","id":"5228ff0670d483a23804d512","properties":{"id":"5228ff0670d483a23804d512","incentives_received":{"year_2011":true,"year_2012":true,"year_2013":false},"phone_number":"(508) 334-4465","address":{"address":"55 Lake Ave N, Renal Medicine","city":"Worcester","state":"Massachusetts","zip":"01655"},"name":"Abramov, Konstantin","npi":1992854707},"geometry":{"type":"Point","coordinates":[-71.758855,42.271796]}},{"type":"Feature","id":"5228ff0670d483a23804d509","properties":{"id":"5228ff0670d483a23804d509","incentives_received":{"year_2011":false,"year_2012":true,"year_2013":false},"phone_number":"(781) 744-8000","address":{"address":"41 Mall Rd","city":"Burlington","state":"Massachusetts","zip":"01805"},"name":"Tuck, Dennis","npi":1992852099},"geometry":{"type":"Point","coordinates":[-71.338398,42.579152]}},{"type":"Feature","id":"5228ff0670d483a23804d4f7","properties":{"id":"5228ff0670d483a23804d4f7","incentives_received":{"year_2011":true,"year_2012":false,"year_2013":false},"phone_number":"(508) 872-0508","address":{"address":"855 Worcester Rd","city":"Framingham","state":"Massachusetts","zip":"01701"},"name":"Chemmanur, Annie","npi":1992844484},"geometry":{"type":"Point","coordinates":[-71.429437,42.299267]}},{"type":"Feature","id":"5228ff0570d483a23804d4d3","properties":{"id":"5228ff0570d483a23804d4d3","incentives_received":{"year_2011":false,"year_2012":true,"year_2013":false},"phone_number":"(508) 653-7388","address":{"address":"67 Union St, SUITE 202","city":"Natick","state":"Massachusetts","zip":"01760"},"name":"KAPLAN, L","npi":1992826648},"geometry":{"type":"Point","coordinates":[-71.332821,42.280526]}},{"type":"Feature","id":"5228ff0570d483a23804d49e","properties":{"id":"5228ff0570d483a23804d49e","incentives_received":{"year_2011":false,"year_2012":true,"year_2013":false},"phone_number":"(617) 636-5000","address":{"address":"800 Washington St, NEMC Box 836","city":"Boston","state":"Massachusetts","zip":"02111"},"name":"Olans, Lori Beth","npi":1992814255},"geometry":{"type":"Point","coordinates":[-71.059365,42.351047]}},{"type":"Feature","id":"5228ff0570d483a23804d427","properties":{"id":"5228ff0570d483a23804d427","incentives_received":{"year_2011":false,"year_2012":true,"year_2013":false},"phone_number":"(978) 664-1990","address":{"address":"203 Main St","city":"North Reading","state":"Massachusetts","zip":"01864"},"name":"Ordonez, Joseph","npi":1992799183},"geometry":{"type":"Point","coordinates":[-71.115561,42.587638]}},{"type":"Feature","id":"5228ff0570d483a23804d43b","properties":{"id":"5228ff0570d483a23804d43b","incentives_received":{"year_2011":true,"year_2012":true,"year_2013":false},"phone_number":"(978) 365-8200","address":{"address":"201 Highland St, Suite 1","city":"Clinton","state":"Massachusetts","zip":"01510"},"name":"Dharampuriya, Rajesh","npi":1992801971},"geometry":{"type":"Point","coordinates":[-71.685389,42.427915]}},{"type":"Feature","id":"5228ff0570d483a23804d3fc","properties":{"id":"5228ff0570d483a23804d3fc","incentives_received":{"year_2011":false,"year_2012":true,"year_2013":false},"phone_number":"(617) 726-7939","address":{"address":"55 Fruit Street","city":"Boston","state":"Massachusetts","zip":"02114"},"name":"Chueh, Henry","npi":1992796353},"geometry":{"type":"Point","coordinates":[-71.069772,42.362505]}},{"type":"Feature","id":"5228ff0570d483a23804d3e9","properties":{"id":"5228ff0570d483a23804d3e9","incentives_received":{"year_2011":false,"year_2012":true,"year_2013":false},"phone_number":"(617) 726-8403","address":{"address":"55 Fruit Street","city":"Boston","state":"Massachusetts","zip":"02114"},"name":"Gandhi, Rajesh","npi":1992795512},"geometry":{"type":"Point","coordinates":[-71.069772,42.362505]}},{"type":"Feature","id":"5228ff0570d483a23804d3b4","properties":{"id":"5228ff0570d483a23804d3b4","incentives_received":{"year_2011":true,"year_2012":true,"year_2013":false},"phone_number":"(508) 897-6200","address":{"address":"1 Pearl St, Suite 1400","city":"Brockton","state":"Massachusetts","zip":"02301"},"name":"Williams, Margaret-Mary","npi":1992792055},"geometry":{"type":"Point","coordinates":[-71.064341,42.089188]}},{"type":"Feature","id":"5228ff0570d483a23804d383","properties":{"id":"5228ff0570d483a23804d383","incentives_received":{"year_2011":false,"year_2012":true,"year_2013":false},"phone_number":"(617) 726-3850","address":{"address":"55 Fruit Street","city":"Boston","state":"Massachusetts","zip":"02114"},"name":"Hesterberg, Paul","npi":1992788988},"geometry":{"type":"Point","coordinates":[-71.069772,42.362505]}},{"type":"Feature","id":"5228ff0570d483a23804d37e","properties":{"id":"5228ff0570d483a23804d37e","incentives_received":{"year_2011":true,"year_2012":true,"year_2013":false},"phone_number":"(508) 334-4465","address":{"address":"1 W Boylston St","city":"Worcester","state":"Massachusetts","zip":"01605"},"name":"Said, Sameh","npi":1992788665},"geometry":{"type":"Point","coordinates":[-71.806243,42.290517]}},{"type":"Feature","id":"5228ff0570d483a23804d377","properties":{"id":"5228ff0570d483a23804d377","incentives_received":{"year_2011":false,"year_2012":true,"year_2013":false},"phone_number":"(413) 532-1076","address":{"address":"38 ERICKA CIR","city":"EAST LONGMEADOW","state":"Massachusetts","zip":"01028"},"name":"PADMANABHAN, SIVAKUMAR","npi":1992788442},"geometry":{"type":"Point","coordinates":[-72.491765,42.078418]}},{"type":"Feature","id":"5228ff0570d483a23804d373","properties":{"id":"5228ff0570d483a23804d373","incentives_received":{"year_2011":false,"year_2012":true,"year_2013":false},"phone_number":"(413) 787-0090","address":{"address":"300 Stafford St, Suite 161","city":"Springfield","state":"Massachusetts","zip":"01104"},"name":"SLATER, JONATHAN","npi":1992788160},"geometry":{"type":"Point","coordinates":[-72.592722,42.113687]}},{"type":"Feature","id":"5228ff0570d483a23804d36f","properties":{"id":"5228ff0570d483a23804d36f","incentives_received":{"year_2011":false,"year_2012":true,"year_2013":false},"phone_number":"(617) 726-2066","address":{"address":"55 Fruit St","city":"Boston","state":"Massachusetts","zip":"02114"},"name":"Cho, Tracey","npi":1992787915},"geometry":{"type":"Point","coordinates":[-71.069772,42.362505]}},{"type":"Feature","id":"5228ff0570d483a23804d351","properties":{"id":"5228ff0570d483a23804d351","incentives_received":{"year_2011":false,"year_2012":true,"year_2013":false},"phone_number":"(508) 334-4465","address":{"address":"1069 Central Street","city":"Leominster","state":"Massachusetts","zip":"01453"},"name":"Parikh, Toral","npi":1992785919},"geometry":{"type":"Point","coordinates":[-71.745114,42.496041]}},{"type":"Feature","id":"5228ff0570d483a23804d313","properties":{"id":"5228ff0570d483a23804d313","incentives_received":{"year_2011":false,"year_2012":true,"year_2013":false},"phone_number":"(781) 792-6500","address":{"address":"15 Roche Bros Way, Suite 110","city":"North Easton","state":"Massachusetts","zip":"02356"},"name":"Rosen, Matthew","npi":1992780571},"geometry":{"type":"Point","coordinates":[-71.104652,42.064655]}},{"type":"Feature","id":"5228ff0570d483a23804d308","properties":{"id":"5228ff0570d483a23804d308","incentives_received":{"year_2011":false,"year_2012":true,"year_2013":false},"phone_number":"(617) 724-8610","address":{"address":"55 Fruit Street","city":"Boston","state":"Massachusetts","zip":"02114"},"name":"Elias, Nahel","npi":1992780084},"geometry":{"type":"Point","coordinates":[-71.069772,42.362505]}},{"type":"Feature","id":"5228ff0570d483a23804d303","properties":{"id":"5228ff0570d483a23804d303","incentives_received":{"year_2011":true,"year_2012":true,"year_2013":false},"phone_number":"(617) 354-8771","address":{"address":"300 Mount Auburn St, Suite 419","city":"Cambridge","state":"Massachusetts","zip":"02138"},"name":"Thomson, Carey","npi":1992779623},"geometry":{"type":"Point","coordinates":[-71.134272,42.375004]}},{"type":"Feature","id":"5228ff0570d483a23804d2fa","properties":{"id":"5228ff0570d483a23804d2fa","incentives_received":{"year_2011":false,"year_2012":true,"year_2013":false},"phone_number":"(781) 306-5083","address":{"address":"26 City Hall Mall, Internal Medicine","city":"Medford","state":"Massachusetts","zip":"02155"},"name":"NAHAR, SHAMSUN","npi":1992779037},"geometry":{"type":"Point","coordinates":[-71.106664,42.417513]}},{"type":"Feature","id":"5228ff0570d483a23804d2ea","properties":{"id":"5228ff0570d483a23804d2ea","incentives_received":{"year_2011":false,"year_2012":true,"year_2013":false},"phone_number":"(617) 726-0340","address":{"address":"55 Fruit Street","city":"Boston","state":"Massachusetts","zip":"02114"},"name":"Specht, Michelle","npi":1992778187},"geometry":{"type":"Point","coordinates":[-71.069772,42.362505]}},{"type":"Feature","id":"5228ff0570d483a23804d29a","properties":{"id":"5228ff0570d483a23804d29a","incentives_received":{"year_2011":true,"year_2012":true,"year_2013":false},"phone_number":"(617) 497-1560","address":{"address":"300 Mount Auburn St, Suite 310","city":"Cambridge","state":"Massachusetts","zip":"02138"},"name":"Kjelsberg, Michael","npi":1992772867},"geometry":{"type":"Point","coordinates":[-71.134272,42.375004]}},{"type":"Feature","id":"5228ff0570d483a23804d2b6","properties":{"id":"5228ff0570d483a23804d2b6","incentives_received":{"year_2011":true,"year_2012":true,"year_2013":false},"phone_number":"(508) 852-0600","address":{"address":"630 Plantation St","city":"Worcester","state":"Massachusetts","zip":"01605"},"name":"McRae, Simon","npi":1992774723},"geometry":{"type":"Point","coordinates":[-71.760988,42.29327]}},{"type":"Feature","id":"5228ff0570d483a23804d285","properties":{"id":"5228ff0570d483a23804d285","incentives_received":{"year_2011":false,"year_2012":true,"year_2013":false},"phone_number":"(617) 724-7436","address":{"address":"55 Fruit Street","city":"Boston","state":"Massachusetts","zip":"02114"},"name":"Pallais, Juan","npi":1992771497},"geometry":{"type":"Point","coordinates":[-71.069772,42.362505]}},{"type":"Feature","id":"5228ff0570d483a23804d25a","properties":{"id":"5228ff0570d483a23804d25a","incentives_received":{"year_2011":false,"year_2012":true,"year_2013":false},"phone_number":"(617) 636-5019","address":{"address":"800 Washington St, Box 259 Tufts Medical center,","city":"Boston","state":"Massachusetts","zip":"02111"},"name":"Iafrati, Mark","npi":1992769145},"geometry":{"type":"Point","coordinates":[-71.059365,42.351047]}},{"type":"Feature","id":"5228ff0570d483a23804d257","properties":{"id":"5228ff0570d483a23804d257","incentives_received":{"year_2011":false,"year_2012":true,"year_2013":false},"phone_number":"(978) 369-2665","address":{"address":"1732 Main Street","city":"Concord","state":"Massachusetts","zip":"01742"},"name":"Gregorian, Ayleen","npi":1992768873},"geometry":{"type":"Point","coordinates":[-71.409804,42.452486]}},{"type":"Feature","id":"5228ff0570d483a23804d255","properties":{"id":"5228ff0570d483a23804d255","incentives_received":{"year_2011":false,"year_2012":true,"year_2013":false},"phone_number":"(413) 794-8484","address":{"address":"2 Medical Center Dr, Suite 206","city":"Springfield","state":"Massachusetts","zip":"01107"},"name":"Case, Charlene","npi":1992768824},"geometry":{"type":"Point","coordinates":[-72.600668,42.12734]}},{"type":"Feature","id":"5228ff0570d483a23804d21f","properties":{"id":"5228ff0570d483a23804d21f","incentives_received":{"year_2011":false,"year_2012":true,"year_2013":false},"phone_number":"(413) 584-1588","address":{"address":"10 Main St","city":"Florence","state":"Massachusetts","zip":"01062"},"name":"Porway, Mark","npi":1992765036},"geometry":{"type":"Point","coordinates":[-72.66765,42.334751]}},{"type":"Feature","id":"5228ff0570d483a23804d1e2","properties":{"id":"5228ff0570d483a23804d1e2","incentives_received":{"year_2011":false,"year_2012":true,"year_2013":false},"phone_number":"(857) 307-0896","address":{"address":"111 Cypress St, Brigham and Women's Hospital","city":"Brookline","state":"Massachusetts","zip":"02445"},"name":"Sonis, Stephen","npi":1992761167},"geometry":{"type":"Point","coordinates":[-71.125963,42.331063]}},{"type":"Feature","id":"5228ff0570d483a23804d1c3","properties":{"id":"5228ff0570d483a23804d1c3","incentives_received":{"year_2011":false,"year_2012":true,"year_2013":false},"phone_number":"(508) 907-6063","address":{"address":"67 Union St, Suite 410 Hodgson Building 5th Floor","city":"Natick","state":"Massachusetts","zip":"01760"},"name":"Smith, Christopher","npi":1992758528},"geometry":{"type":"Point","coordinates":[-71.332821,42.280526]}},{"type":"Feature","id":"5228ff0570d483a23804d1c1","properties":{"id":"5228ff0570d483a23804d1c1","incentives_received":{"year_2011":true,"year_2012":false,"year_2013":false},"phone_number":"(413) 772-0211","address":{"address":"164 High Street","city":"Greenfield","state":"Massachusetts","zip":"01301"},"name":"Waien, Sohail","npi":1992758445},"geometry":{"type":"Point","coordinates":[-72.591221,42.595755]}},{"type":"Feature","id":"5228ff0570d483a23804d11d","properties":{"id":"5228ff0570d483a23804d11d","incentives_received":{"year_2011":true,"year_2012":false,"year_2013":false},"phone_number":"(781) 453-5238","address":{"address":"148 Chestnut Street","city":"Needham","state":"Massachusetts","zip":"02492"},"name":"Kannam, Joseph","npi":1992742779},"geometry":{"type":"Point","coordinates":[-71.237286,42.277614]}},{"type":"Feature","id":"5228ff0570d483a23804d0fe","properties":{"id":"5228ff0570d483a23804d0fe","incentives_received":{"year_2011":true,"year_2012":true,"year_2013":false},"phone_number":"(508) 852-0600","address":{"address":"630 Plantation St","city":"Worcester","state":"Massachusetts","zip":"01605"},"name":"Rosiello, Richard","npi":1992739791},"geometry":{"type":"Point","coordinates":[-71.760988,42.29327]}},{"type":"Feature","id":"5228ff0570d483a23804d09f","properties":{"id":"5228ff0570d483a23804d09f","incentives_received":{"year_2011":false,"year_2012":true,"year_2013":false},"phone_number":"(617) 522-4943","address":{"address":"1153 Centre Street, Suite 4950, Faulkner Hospital","city":"Boston","state":"Massachusetts","zip":"02130"},"name":"McGowan, Katherine","npi":1992730816},"geometry":{"type":"Point","coordinates":[-71.126988,42.301029]}},{"type":"Feature","id":"5228ff0570d483a23804d094","properties":{"id":"5228ff0570d483a23804d094","incentives_received":{"year_2011":true,"year_2012":true,"year_2013":false},"phone_number":"(508) 236-8171","address":{"address":"19 Sturdy St","city":"Attleboro","state":"Massachusetts","zip":"02703"},"name":"Johnson, Peter","npi":1992729834},"geometry":{"type":"Point","coordinates":[-71.274602,41.943636]}},{"type":"Feature","id":"5228ff0570d483a23804d04f","properties":{"id":"5228ff0570d483a23804d04f","incentives_received":{"year_2011":true,"year_2012":true,"year_2013":false},"phone_number":"(508) 852-0600","address":{"address":"630 Plantation St","city":"Worcester","state":"Massachusetts","zip":"01605"},"name":"Kim, David","npi":1992721724},"geometry":{"type":"Point","coordinates":[-71.760988,42.29327]}},{"type":"Feature","id":"5228ff0570d483a23804cff8","properties":{"id":"5228ff0570d483a23804cff8","incentives_received":{"year_2011":false,"year_2012":true,"year_2013":false},"phone_number":"(617) 632-6049","address":{"address":"450 Brookline Ave, Dana Farber Cancer Institute","city":"Boston","state":"Massachusetts","zip":"02215"},"name":"Janne, Pasi","npi":1992712178},"geometry":{"type":"Point","coordinates":[-71.1083,42.337886]}},{"type":"Feature","id":"5228ff0570d483a23804cf4b","properties":{"id":"5228ff0570d483a23804cf4b","incentives_received":{"year_2011":true,"year_2012":true,"year_2013":false},"phone_number":"(978) 521-3235","address":{"address":"1 Parkway","city":"Haverhill","state":"Massachusetts","zip":"01830"},"name":"WIENER, STEPHEN","npi":1992700702},"geometry":{"type":"Point","coordinates":[-71.283912,42.571152]}},{"type":"Feature","id":"5228ff0570d483a23804cede","properties":{"id":"5228ff0570d483a23804cede","incentives_received":{"year_2011":false,"year_2012":true,"year_2013":false},"phone_number":"(617) 726-7643","address":{"address":"55 Fruit Street","city":"Boston","state":"Massachusetts","zip":"02114"},"name":"Klawiter, Eric","npi":1982874046},"geometry":{"type":"Point","coordinates":[-71.069772,42.362505]}},{"type":"Feature","id":"5228ff0570d483a23804cea5","properties":{"id":"5228ff0570d483a23804cea5","incentives_received":{"year_2011":true,"year_2012":true,"year_2013":false},"phone_number":"(781) 329-1400","address":{"address":"1 Lyons St., Dedham Medical Associates, Inc.","city":"Dedham","state":"Massachusetts","zip":"02026"},"name":"Ferrante, Noreen","npi":1982854154},"geometry":{"type":"Point","coordinates":[-71.20689,42.26555]}},{"type":"Feature","id":"5228ff0570d483a23804ce65","properties":{"id":"5228ff0570d483a23804ce65","incentives_received":{"year_2011":false,"year_2012":true,"year_2013":false},"phone_number":"(413) 794-7330","address":{"address":"3300 Main St, 2nd Floor, Suite A","city":"Springfield","state":"Massachusetts","zip":"01199"},"name":"GURUNG, PUNCHO","npi":1982819132},"geometry":{"type":"Point","coordinates":[-72.609612,42.123069]}},{"type":"Feature","id":"5228ff0570d483a23804ce71","properties":{"id":"5228ff0570d483a23804ce71","incentives_received":{"year_2011":false,"year_2012":true,"year_2013":false},"phone_number":"(215) 917-8268","address":{"address":"331 Highland Ave","city":"Salem","state":"Massachusetts","zip":"01970"},"name":"ALABI, TITILAYO","npi":1982824389},"geometry":{"type":"Point","coordinates":[-70.927469,42.500272]}},{"type":"Feature","id":"5228ff0570d483a23804cde9","properties":{"id":"5228ff0570d483a23804cde9","incentives_received":{"year_2011":true,"year_2012":true,"year_2013":false},"phone_number":"(413) 794-7045","address":{"address":"3300 Main St, 4th Floor Suite D","city":"Springfield","state":"Massachusetts","zip":"01199"},"name":"Harmanli, Oz","npi":1982791505},"geometry":{"type":"Point","coordinates":[-72.609612,42.123069]}},{"type":"Feature","id":"5228ff0570d483a23804cdc4","properties":{"id":"5228ff0570d483a23804cdc4","incentives_received":{"year_2011":false,"year_2012":true,"year_2013":false},"phone_number":"(781) 744-8000","address":{"address":"Lahey Clinic, 41 Mall Road","city":"Burlington","state":"Massachusetts","zip":"01805"},"name":"MacCormack, Mollie","npi":1982784823},"geometry":{"type":"Point","coordinates":[-71.106025,42.658836]}},{"type":"Feature","id":"5228ff0570d483a23804cdbd","properties":{"id":"5228ff0570d483a23804cdbd","incentives_received":{"year_2011":false,"year_2012":true,"year_2013":false},"phone_number":"(617) 726-8720","address":{"address":"55 Fruit Street","city":"Boston","state":"Massachusetts","zip":"02114"},"name":"Leder, Benjamin","npi":1982783924},"geometry":{"type":"Point","coordinates":[-71.069772,42.362505]}},{"type":"Feature","id":"5228ff0570d483a23804cd66","properties":{"id":"5228ff0570d483a23804cd66","incentives_received":{"year_2011":false,"year_2012":true,"year_2013":false},"phone_number":"(617) 722-4100","address":{"address":"30 Lancaster Street, Suite 400","city":"Boston","state":"Massachusetts","zip":"02114"},"name":"Grevelink, Suzanne","npi":1982756581},"geometry":{"type":"Point","coordinates":[-71.062206,42.36389]}},{"type":"Feature","id":"5228ff0570d483a23804cd61","properties":{"id":"5228ff0570d483a23804cd61","incentives_received":{"year_2011":true,"year_2012":true,"year_2013":false},"phone_number":"(781) 279-7040","address":{"address":"92 Montvale Ave","city":"Stoneham","state":"Massachusetts","zip":"02180"},"name":"Baker, Christopher","npi":1982753703},"geometry":{"type":"Point","coordinates":[-71.110229,42.480732]}},{"type":"Feature","id":"5228ff0570d483a23804cd26","properties":{"id":"5228ff0570d483a23804cd26","incentives_received":{"year_2011":false,"year_2012":true,"year_2013":false},"phone_number":"(617) 724-4255","address":{"address":"55 Fruit Street","city":"Boston","state":"Massachusetts","zip":"02114"},"name":"Flores, Efren","npi":1982730628},"geometry":{"type":"Point","coordinates":[-71.069772,42.362505]}},{"type":"Feature","id":"5228ff0570d483a23804cd1e","properties":{"id":"5228ff0570d483a23804cd1e","incentives_received":{"year_2011":false,"year_2012":true,"year_2013":false},"phone_number":"(617) 789-2442","address":{"address":"77 Warren Street, Third Floor","city":"Brighton","state":"Massachusetts","zip":"02135"},"name":"PHILLIPS, ALFRED","npi":1982727129},"geometry":{"type":"Point","coordinates":[-71.141654,42.349273]}},{"type":"Feature","id":"5228ff0570d483a23804cd1d","properties":{"id":"5228ff0570d483a23804cd1d","incentives_received":{"year_2011":false,"year_2012":true,"year_2013":false},"phone_number":"(508) 334-4465","address":{"address":"119 Belmont St, Orthopedics-Physiatry","city":"Worcester","state":"Massachusetts","zip":"01605"},"name":"Dalton, Catherine","npi":1982726865},"geometry":{"type":"Point","coordinates":[-71.792206,42.272092]}},{"type":"Feature","id":"5228ff0570d483a23804cd15","properties":{"id":"5228ff0570d483a23804cd15","incentives_received":{"year_2011":false,"year_2012":true,"year_2013":false},"phone_number":"(978) 882-6060","address":{"address":"55 Fruit Street","city":"Boston","state":"Massachusetts","zip":"02114"},"name":"Soto, Daniel","npi":1982723334},"geometry":{"type":"Point","coordinates":[-71.069772,42.362505]}},{"type":"Feature","id":"5228ff0570d483a23804cd0d","properties":{"id":"5228ff0570d483a23804cd0d","incentives_received":{"year_2011":true,"year_2012":false,"year_2013":false},"phone_number":null,"address":{"address":"591 Lincoln St","city":"Worcester","state":"Massachusetts","zip":null},"name":"Arinella, Dennis","npi":1982719944},"geometry":{"type":"Point","coordinates":[-71.768903,42.296744]}},{"type":"Feature","id":"5228ff0570d483a23804ccde","properties":{"id":"5228ff0570d483a23804ccde","incentives_received":{"year_2011":false,"year_2012":true,"year_2013":false},"phone_number":"(978) 686-7623","address":{"address":"451 Andover St, Suite 209","city":"North Andover","state":"Massachusetts","zip":"01845"},"name":"Burtoft, Teresa","npi":1982715140},"geometry":{"type":"Point","coordinates":[-71.116789,42.661398]}},{"type":"Feature","id":"5228ff0570d483a23804ccdf","properties":{"id":"5228ff0570d483a23804ccdf","incentives_received":{"year_2011":true,"year_2012":true,"year_2013":false},"phone_number":"(617) 696-7600","address":{"address":"199 Reedsdale Road","city":"Milton","state":"Massachusetts","zip":"02459"},"name":"Song, Min","npi":1982715256},"geometry":{"type":"Point","coordinates":[-71.144832,42.401492]}},{"type":"Feature","id":"5228ff0570d483a23804cc92","properties":{"id":"5228ff0570d483a23804cc92","incentives_received":{"year_2011":true,"year_2012":true,"year_2013":false},"phone_number":"(508) 350-2350","address":{"address":"362 North Bedford Street","city":"East Bridgewater","state":"Massachusetts","zip":"02333"},"name":"Filipek-Moskal, Kasia","npi":1982702957},"geometry":{"type":"Point","coordinates":[-70.956181,42.043008]}},{"type":"Feature","id":"5228ff0570d483a23804cc69","properties":{"id":"5228ff0570d483a23804cc69","incentives_received":{"year_2011":true,"year_2012":true,"year_2013":false},"phone_number":"(781) 279-7040","address":{"address":"92 Montvale Ave","city":"Stoneham","state":"Massachusetts","zip":"02180"},"name":"Andersen, Christian","npi":1982698999},"geometry":{"type":"Point","coordinates":[-71.110229,42.480732]}},{"type":"Feature","id":"5228ff0570d483a23804cc30","properties":{"id":"5228ff0570d483a23804cc30","incentives_received":{"year_2011":true,"year_2012":false,"year_2013":false},"phone_number":"(617) 754-0650","address":{"address":"392 Chestnut Street, Suite 100","city":"Needham","state":"Massachusetts","zip":"02492"},"name":"McDonald, William","npi":1982695383},"geometry":{"type":"Point","coordinates":[-71.237922,42.273451]}},{"type":"Feature","id":"5228ff0570d483a23804cc2a","properties":{"id":"5228ff0570d483a23804cc2a","incentives_received":{"year_2011":false,"year_2012":true,"year_2013":false},"phone_number":"(978) 882-6060","address":{"address":"55 Fruit Street","city":"Boston","state":"Massachusetts","zip":"02114"},"name":"Linden, Erica","npi":1982695086},"geometry":{"type":"Point","coordinates":[-71.069772,42.362505]}},{"type":"Feature","id":"5228ff0570d483a23804cc1e","properties":{"id":"5228ff0570d483a23804cc1e","incentives_received":{"year_2011":false,"year_2012":true,"year_2013":false},"phone_number":"(617) 724-6620","address":{"address":"55 Fruit Street","city":"Boston","state":"Massachusetts","zip":"02114"},"name":"Weiss, Charles","npi":1982694493},"geometry":{"type":"Point","coordinates":[-71.069772,42.362505]}},{"type":"Feature","id":"5228ff0570d483a23804cc1b","properties":{"id":"5228ff0570d483a23804cc1b","incentives_received":{"year_2011":false,"year_2012":true,"year_2013":false},"phone_number":"(857) 307-0896","address":{"address":"111 Cypress St","city":"Brookline","state":"Massachusetts","zip":"02445"},"name":"Golshan, Mehra","npi":1982694113},"geometry":{"type":"Point","coordinates":[-71.125963,42.331063]}},{"type":"Feature","id":"5228ff0570d483a23804cbc6","properties":{"id":"5228ff0570d483a23804cbc6","incentives_received":{"year_2011":false,"year_2012":true,"year_2013":false},"phone_number":"(617) 243-5590","address":{"address":"9 Hope Ave, Waltham Urgent Care Center","city":"Waltham","state":"Massachusetts","zip":"02453"},"name":"Robb, Christine","npi":1982688719},"geometry":{"type":"Point","coordinates":[-71.248742,42.370139]}},{"type":"Feature","id":"5228ff0570d483a23804cba0","properties":{"id":"5228ff0570d483a23804cba0","incentives_received":{"year_2011":true,"year_2012":true,"year_2013":false},"phone_number":"(508) 852-0600","address":{"address":"630 Plantation St","city":"Worcester","state":"Massachusetts","zip":"01605"},"name":"Whiting, John","npi":1982686341},"geometry":{"type":"Point","coordinates":[-71.760988,42.29327]}},{"type":"Feature","id":"5228ff0570d483a23804cb96","properties":{"id":"5228ff0570d483a23804cb96","incentives_received":{"year_2011":false,"year_2012":true,"year_2013":false},"phone_number":"(617) 726-1869","address":{"address":"55 Fruit Street","city":"Boston","state":"Massachusetts","zip":"02114"},"name":"Neel, Victor","npi":1982685475},"geometry":{"type":"Point","coordinates":[-71.069772,42.362505]}},{"type":"Feature","id":"5228ff0570d483a23804cb5e","properties":{"id":"5228ff0570d483a23804cb5e","incentives_received":{"year_2011":false,"year_2012":true,"year_2013":false},"phone_number":"(617) 724-6700","address":{"address":"55 Fruit St, YAW 4730B","city":"Boston","state":"Massachusetts","zip":"02114"},"name":"Zucker, Marcia","npi":1982682142},"geometry":{"type":"Point","coordinates":[-71.069772,42.362505]}},{"type":"Feature","id":"5228ff0570d483a23804cb33","properties":{"id":"5228ff0570d483a23804cb33","incentives_received":{"year_2011":false,"year_2012":true,"year_2013":false},"phone_number":"(617) 243-5590","address":{"address":"9 Hope Ave","city":"Waltham","state":"Massachusetts","zip":"02453"},"name":"Foster, Richard","npi":1982679643},"geometry":{"type":"Point","coordinates":[-71.248742,42.370139]}},{"type":"Feature","id":"5228ff0570d483a23804cb32","properties":{"id":"5228ff0570d483a23804cb32","incentives_received":{"year_2011":true,"year_2012":true,"year_2013":false},"phone_number":"(978) 630-4455","address":{"address":"250 Green St","city":"Gardner","state":"Massachusetts","zip":"01440"},"name":"Sweeney, Francis","npi":1982679601},"geometry":{"type":"Point","coordinates":[-71.986496,42.587128]}},{"type":"Feature","id":"5228ff0570d483a23804cb21","properties":{"id":"5228ff0570d483a23804cb21","incentives_received":{"year_2011":false,"year_2012":true,"year_2013":false},"phone_number":"(978) 369-1337","address":{"address":"290 Baker Ave","city":"Concord","state":"Massachusetts","zip":"01742"},"name":"Blute, John","npi":1982678397},"geometry":{"type":"Point","coordinates":[-71.386906,42.458264]}},{"type":"Feature","id":"5228ff0570d483a23804cab1","properties":{"id":"5228ff0570d483a23804cab1","incentives_received":{"year_2011":true,"year_2012":true,"year_2013":false},"phone_number":"(617) 868-7456","address":{"address":"300 Mt. Auburn Street, Suite 407","city":"Cambridge","state":"Massachusetts","zip":"02138"},"name":"Kasparian, Armen","npi":1982671962},"geometry":{"type":"Point","coordinates":[-71.134272,42.375004]}},{"type":"Feature","id":"5228ff0570d483a23804ca8c","properties":{"id":"5228ff0570d483a23804ca8c","incentives_received":{"year_2011":false,"year_2012":true,"year_2013":false},"phone_number":"(508) 907-6542","address":{"address":"83 Speen St","city":"Natick","state":"Massachusetts","zip":"01760"},"name":"Anderson, Kathlyne","npi":1982669925},"geometry":{"type":"Point","coordinates":[-71.376302,42.278154]}},{"type":"Feature","id":"5228ff0570d483a23804ca53","properties":{"id":"5228ff0570d483a23804ca53","incentives_received":{"year_2011":false,"year_2012":true,"year_2013":false},"phone_number":"(617) 726-1915","address":{"address":"55 Fruit St","city":"Boston","state":"Massachusetts","zip":"02114"},"name":"Winograd, Jonathan","npi":1982665485},"geometry":{"type":"Point","coordinates":[-71.069772,42.362505]}},{"type":"Feature","id":"5228ff0570d483a23804ca38","properties":{"id":"5228ff0570d483a23804ca38","incentives_received":{"year_2011":false,"year_2012":true,"year_2013":false},"phone_number":"(857) 307-0896","address":{"address":"111 Cypress St, Brigham and Women's Physicians Organization","city":"Brookline","state":"Massachusetts","zip":"02445"},"name":"Scirica, Benjamin","npi":1982664033},"geometry":{"type":"Point","coordinates":[-71.125963,42.331063]}},{"type":"Feature","id":"5228ff0570d483a23804ca4a","properties":{"id":"5228ff0570d483a23804ca4a","incentives_received":{"year_2011":true,"year_2012":true,"year_2013":false},"phone_number":"(978) 345-1700","address":{"address":"104 Whalon St, SUITE 2A","city":"Fitchburg","state":"Massachusetts","zip":"01420"},"name":"Radhakrishnan, Vasuki","npi":1982665089},"geometry":{"type":"Point","coordinates":[-71.78644,42.583512]}},{"type":"Feature","id":"5228ff0570d483a23804ca2d","properties":{"id":"5228ff0570d483a23804ca2d","incentives_received":{"year_2011":false,"year_2012":true,"year_2013":false},"phone_number":"(781) 710-1765","address":{"address":"45 Wyman St","city":"Jamaica Plain","state":"Massachusetts","zip":"02130"},"name":"BIAL, ERICA","npi":1982663332},"geometry":{"type":"Point","coordinates":[-71.1058,42.320889]}},{"type":"Feature","id":"5228ff0570d483a23804ca29","properties":{"id":"5228ff0570d483a23804ca29","incentives_received":{"year_2011":false,"year_2012":true,"year_2013":false},"phone_number":"(781) 391-5525","address":{"address":"91 Montvale Ave, Suite 206","city":"Stoneham","state":"Massachusetts","zip":"02180"},"name":"Muggia, Robert","npi":1982662813},"geometry":{"type":"Point","coordinates":[-71.110237,42.480888]}},{"type":"Feature","id":"5228ff0570d483a23804ca09","properties":{"id":"5228ff0570d483a23804ca09","incentives_received":{"year_2011":false,"year_2012":true,"year_2013":false},"phone_number":"(617) 928-1500","address":{"address":"2000 Washington St, MOB GREEN 567","city":"Newton","state":"Massachusetts","zip":"02462"},"name":"ALMOZLINO, AVRAHAM","npi":1982660619},"geometry":{"type":"Point","coordinates":[-71.246626,42.332183]}},{"type":"Feature","id":"5228ff0570d483a23804c9e9","properties":{"id":"5228ff0570d483a23804c9e9","incentives_received":{"year_2011":false,"year_2012":true,"year_2013":false},"phone_number":"(508) 693-0410","address":{"address":"One Hospital Road, P.O. Box 1477","city":"Oak Bluffs","state":"Massachusetts","zip":"02557"},"name":"Gill, Gurcharan","npi":1982658274},"geometry":{"type":"Point","coordinates":[-70.56197,41.45428]}},{"type":"Feature","id":"5228ff0570d483a23804c9c2","properties":{"id":"5228ff0570d483a23804c9c2","incentives_received":{"year_2011":false,"year_2012":false,"year_2013":true},"phone_number":"(781) 245-5200","address":{"address":"669 Main St","city":"Wakefield","state":"Massachusetts","zip":"01880"},"name":"Evans, C. Douglas","npi":1982655643},"geometry":{"type":"Point","coordinates":[-71.069268,42.497758]}},{"type":"Feature","id":"5228ff0570d483a23804c9cb","properties":{"id":"5228ff0570d483a23804c9cb","incentives_received":{"year_2011":false,"year_2012":true,"year_2013":false},"phone_number":"(857) 307-0896","address":{"address":"111 Cypress Street, Brigham and Women's Physicians Organization","city":"Brookline","state":"Massachusetts","zip":"02445"},"name":"Mauch, Peter","npi":1982656237},"geometry":{"type":"Point","coordinates":[-71.125963,42.331063]}},{"type":"Feature","id":"5228ff0570d483a23804c951","properties":{"id":"5228ff0570d483a23804c951","incentives_received":{"year_2011":false,"year_2012":true,"year_2013":false},"phone_number":"(781) 337-9091","address":{"address":"51 Performance Drive, Suite #110","city":"Weymouth","state":"Massachusetts","zip":"02189"},"name":"Britt, Gregory","npi":1982645982},"geometry":{"type":"Point","coordinates":[-70.944504,42.194561]}},{"type":"Feature","id":"5228ff0570d483a23804c921","properties":{"id":"5228ff0570d483a23804c921","incentives_received":{"year_2011":false,"year_2012":true,"year_2013":false},"phone_number":"(781) 642-8877","address":{"address":"45 Colpitts Rd, Newton Wellesley Primary Care","city":"Weston","state":"Massachusetts","zip":"02493"},"name":"Goldman, Frederic","npi":1982642260},"geometry":{"type":"Point","coordinates":[-71.303848,42.365876]}},{"type":"Feature","id":"5228ff0570d483a23804c8e8","properties":{"id":"5228ff0570d483a23804c8e8","incentives_received":{"year_2011":true,"year_2012":true,"year_2013":false},"phone_number":"(508) 460-3024","address":{"address":"Southboro Medical Group, 24 Newton Street","city":"Southboro","state":"Massachusetts","zip":"01772"},"name":"Mirzabegian, Armineh","npi":1982636411},"geometry":{"type":"Point","coordinates":[-71.523451,42.306163]}},{"type":"Feature","id":"5228ff0570d483a23804c8b0","properties":{"id":"5228ff0570d483a23804c8b0","incentives_received":{"year_2011":false,"year_2012":true,"year_2013":false},"phone_number":"(508) 746-4858","address":{"address":"10 Cordage Park Cir, Suite 211","city":"Plymouth","state":"Massachusetts","zip":"02360"},"name":"Northrop, Mead","npi":1982630968},"geometry":{"type":"Point","coordinates":[-70.669537,41.960521]}},{"type":"Feature","id":"5228ff0570d483a23804c855","properties":{"id":"5228ff0570d483a23804c855","incentives_received":{"year_2011":false,"year_2012":true,"year_2013":false},"phone_number":"(617) 667-1769","address":{"address":"77 WARREN STREET, THIRD FLOOR","city":"BRIGHTON","state":"Massachusetts","zip":"02135"},"name":"lokhandwala, naaznin","npi":1982620910},"geometry":{"type":"Point","coordinates":[-71.141654,42.349273]}},{"type":"Feature","id":"5228ff0570d483a23804c830","properties":{"id":"5228ff0570d483a23804c830","incentives_received":{"year_2011":true,"year_2012":false,"year_2013":false},"phone_number":"(781) 431-5420","address":{"address":"230 Worcester St, Internal Medicine","city":"Wellesley","state":"Massachusetts","zip":"02481"},"name":"LIN, FENNY","npi":1982616785},"geometry":{"type":"Point","coordinates":[-71.269814,42.300297]}},{"type":"Feature","id":"5228ff0570d483a23804c81f","properties":{"id":"5228ff0570d483a23804c81f","incentives_received":{"year_2011":false,"year_2012":false,"year_2013":true},"phone_number":"(508) 679-7888","address":{"address":"363 Highland Ave","city":"Fall River","state":"Massachusetts","zip":"02720"},"name":"Shparber, Mark","npi":1982614160},"geometry":{"type":"Point","coordinates":[-71.146721,41.710377]}},{"type":"Feature","id":"5228ff0570d483a23804c7e5","properties":{"id":"5228ff0570d483a23804c7e5","incentives_received":{"year_2011":false,"year_2012":true,"year_2013":false},"phone_number":"(508) 675-0369","address":{"address":"1565 North Main Street, Suite 306","city":"Fall River","state":"Massachusetts","zip":"02720"},"name":"MEUTH, MICHAEL","npi":1982608956},"geometry":{"type":"Point","coordinates":[-71.145598,41.721312]}},{"type":"Feature","id":"5228ff0570d483a23804c777","properties":{"id":"5228ff0570d483a23804c777","incentives_received":{"year_2011":false,"year_2012":true,"year_2013":false},"phone_number":"(978) 534-3399","address":{"address":"50 Memorial Dr, Suite 112","city":"Leominster","state":"Massachusetts","zip":"01453"},"name":"Hoenig, Stephen","npi":1982602975},"geometry":{"type":"Point","coordinates":[-71.762922,42.541994]}},{"type":"Feature","id":"5228ff0570d483a23804c75f","properties":{"id":"5228ff0570d483a23804c75f","incentives_received":{"year_2011":false,"year_2012":true,"year_2013":false},"phone_number":"(617) 632-8140","address":{"address":"110 Francis St, Ste 9F","city":"Boston","state":"Massachusetts","zip":"02215"},"name":"Whyte, Richard","npi":1982601373},"geometry":{"type":"Point","coordinates":[-71.108394,42.336522]}},{"type":"Feature","id":"5228ff0570d483a23804c758","properties":{"id":"5228ff0570d483a23804c758","incentives_received":{"year_2011":true,"year_2012":true,"year_2013":false},"phone_number":"(413) 594-3111","address":{"address":"444 Montgomery St","city":"Chicopee","state":"Massachusetts","zip":"01020"},"name":"GERCHBERG, ROLF","npi":1982601092},"geometry":{"type":"Point","coordinates":[-72.586657,42.172475]}},{"type":"Feature","id":"5228ff0570d483a23804c740","properties":{"id":"5228ff0570d483a23804c740","incentives_received":{"year_2011":false,"year_2012":true,"year_2013":false},"phone_number":"(617) 726-3212","address":{"address":"55 Fruit Street","city":"Boston","state":"Massachusetts","zip":"02114"},"name":"CHAN, ANDREW","npi":1982600144},"geometry":{"type":"Point","coordinates":[-71.069772,42.362505]}},{"type":"Feature","id":"5228ff0570d483a23804c721","properties":{"id":"5228ff0570d483a23804c721","incentives_received":{"year_2011":false,"year_2012":true,"year_2013":false},"phone_number":"(617) 724-3123","address":{"address":"55 Fruit Street","city":"Boston","state":"Massachusetts","zip":"02114"},"name":"Haq, Rizwan","npi":1972798783},"geometry":{"type":"Point","coordinates":[-71.069772,42.362505]}},{"type":"Feature","id":"5228ff0570d483a23804c700","properties":{"id":"5228ff0570d483a23804c700","incentives_received":{"year_2011":false,"year_2012":true,"year_2013":false},"phone_number":"(517) 267-2486","address":{"address":"55 Fruit Street","city":"Boston","state":"Massachusetts","zip":"02114"},"name":"Meireles, Ozanan","npi":1972787091},"geometry":{"type":"Point","coordinates":[-71.069772,42.362505]}},{"type":"Feature","id":"5228ff0570d483a23804c6fe","properties":{"id":"5228ff0570d483a23804c6fe","incentives_received":{"year_2011":true,"year_2012":true,"year_2013":false},"phone_number":"(508) 334-4465","address":{"address":"50 Memorial Drive, Suite 210","city":"Leominster","state":"Massachusetts","zip":"01453"},"name":"HAJJIRI, MOHMMAD","npi":1972786465},"geometry":{"type":"Point","coordinates":[-71.762922,42.541994]}},{"type":"Feature","id":"5228ff0570d483a23804c6ef","properties":{"id":"5228ff0570d483a23804c6ef","incentives_received":{"year_2011":false,"year_2012":true,"year_2013":false},"phone_number":"(617) 615-9530","address":{"address":"333 West 4th St.","city":"Boston","state":"Massachusetts","zip":"02127"},"name":"Keojampa, Bounmany","npi":1972778843},"geometry":{"type":"Point","coordinates":[-71.050872,42.337483]}},{"type":"Feature","id":"5228ff0570d483a23804c6c9","properties":{"id":"5228ff0570d483a23804c6c9","incentives_received":{"year_2011":false,"year_2012":true,"year_2013":false},"phone_number":"(781) 338-7400","address":{"address":"178 Savin St Ste 100, Hallmark Health Medical Associates Inc.","city":"Malden","state":"Massachusetts","zip":"02148"},"name":"Etheridge, Latoya","npi":1972762821},"geometry":{"type":"Point","coordinates":[-71.087727,42.429429]}},{"type":"Feature","id":"5228ff0570d483a23804c659","properties":{"id":"5228ff0570d483a23804c659","incentives_received":{"year_2011":false,"year_2012":true,"year_2013":false},"phone_number":"(857) 307-0896","address":{"address":"111 Cypress St, Brigham and Women's Physicians Organization","city":"Brookline","state":"Massachusetts","zip":"02445"},"name":"Park, Charles","npi":1972704096},"geometry":{"type":"Point","coordinates":[-71.125963,42.331063]}},{"type":"Feature","id":"5228ff0570d483a23804c595","properties":{"id":"5228ff0570d483a23804c595","incentives_received":{"year_2011":false,"year_2012":true,"year_2013":false},"phone_number":"(617) 724-8310","address":{"address":"73 High St, MGH Charlestown","city":"Charlestown","state":"Massachusetts","zip":"02129"},"name":"Dvorin, Evan","npi":1972658078},"geometry":{"type":"Point","coordinates":[-71.064268,42.376952]}},{"type":"Feature","id":"5228ff0570d483a23804c582","properties":{"id":"5228ff0570d483a23804c582","incentives_received":{"year_2011":false,"year_2012":true,"year_2013":false},"phone_number":"(508) 334-4465","address":{"address":"151 Worcester Rd, Barre Health Center","city":"Barre","state":"Massachusetts","zip":"01005"},"name":"Jeremiah, Cynthia","npi":1972649549},"geometry":{"type":"Point","coordinates":[-72.092946,42.40813]}},{"type":"Feature","id":"5228ff0570d483a23804c584","properties":{"id":"5228ff0570d483a23804c584","incentives_received":{"year_2011":true,"year_2012":true,"year_2013":false},"phone_number":"(508) 385-4800","address":{"address":"501 Main Street","city":"Dennis","state":"Massachusetts","zip":"02638"},"name":"Sehic, Elmir","npi":1972650455},"geometry":{"type":"Point","coordinates":[-70.194634,41.732378]}},{"type":"Feature","id":"5228ff0570d483a23804c56a","properties":{"id":"5228ff0570d483a23804c56a","incentives_received":{"year_2011":false,"year_2012":true,"year_2013":false},"phone_number":"(617) 724-6113","address":{"address":"55 Fruit Street","city":"Boston","state":"Massachusetts","zip":"02114"},"name":"Mullen, Alan","npi":1972639649},"geometry":{"type":"Point","coordinates":[-71.069772,42.362505]}},{"type":"Feature","id":"5228ff0570d483a23804c554","properties":{"id":"5228ff0570d483a23804c554","incentives_received":{"year_2011":false,"year_2012":true,"year_2013":false},"phone_number":"(617) 643-9280","address":{"address":"55 Fruit St","city":"Boston","state":"Massachusetts","zip":"02114"},"name":"Baker, Joshua","npi":1972623692},"geometry":{"type":"Point","coordinates":[-71.069772,42.362505]}},{"type":"Feature","id":"5228ff0570d483a23804c54f","properties":{"id":"5228ff0570d483a23804c54f","incentives_received":{"year_2011":false,"year_2012":true,"year_2013":false},"phone_number":"(978) 532-6111","address":{"address":"2 Essex Center Dr","city":"Peabody","state":"Massachusetts","zip":"01960"},"name":"Reese, Timothy","npi":1972619898},"geometry":{"type":"Point","coordinates":[-70.950032,42.539826]}},{"type":"Feature","id":"5228ff0570d483a23804c546","properties":{"id":"5228ff0570d483a23804c546","incentives_received":{"year_2011":false,"year_2012":true,"year_2013":false},"phone_number":"(617) 754-9600","address":{"address":"330 Brookline Ave, E/Shapiro 1","city":"Boston","state":"Massachusetts","zip":"02215"},"name":"Dallow, Katherine","npi":1972618932},"geometry":{"type":"Point","coordinates":[-71.105846,42.34034]}},{"type":"Feature","id":"5228ff0570d483a23804c523","properties":{"id":"5228ff0570d483a23804c523","incentives_received":{"year_2011":true,"year_2012":true,"year_2013":false},"phone_number":"(781) 979-0140","address":{"address":"92 Montvale Ave, Suite 3250","city":"Stoneham","state":"Massachusetts","zip":"02180"},"name":"Rosenberg, Robert","npi":1972615094},"geometry":{"type":"Point","coordinates":[-71.110229,42.480732]}},{"type":"Feature","id":"5228ff0570d483a23804c4fd","properties":{"id":"5228ff0570d483a23804c4fd","incentives_received":{"year_2011":true,"year_2012":true,"year_2013":false},"phone_number":"(508) 394-2211","address":{"address":"38 Route 134, P.O. Box 1412","city":"South Dennis","state":"Massachusetts","zip":"02660"},"name":"Puzio, matthew","npi":1972610814},"geometry":{"type":"Point","coordinates":[-70.15377,41.70514]}},{"type":"Feature","id":"5228ff0570d483a23804c4e6","properties":{"id":"5228ff0570d483a23804c4e6","incentives_received":{"year_2011":true,"year_2012":true,"year_2013":false},"phone_number":"(508) 761-5650","address":{"address":"230 Washington St","city":"South Attleboro","state":"Massachusetts","zip":"02703"},"name":"Garofalo, Marguerite","npi":1972606945},"geometry":{"type":"Point","coordinates":[-71.357284,41.923046]}},{"type":"Feature","id":"5228ff0570d483a23804c4d3","properties":{"id":"5228ff0570d483a23804c4d3","incentives_received":{"year_2011":false,"year_2012":true,"year_2013":false},"phone_number":"(781) 599-2600","address":{"address":"1 Hutchinson dr","city":"Danvers","state":"Massachusetts","zip":"01923"},"name":"Petersen, Nancy","npi":1972604791},"geometry":{"type":"Point","coordinates":[-70.931818,42.553047]}},{"type":"Feature","id":"5228ff0570d483a23804c4bd","properties":{"id":"5228ff0570d483a23804c4bd","incentives_received":{"year_2011":false,"year_2012":true,"year_2013":false},"phone_number":"(781) 744-8643","address":{"address":"41 Mall Rd, Lahey Clinic, Inc.","city":"Burlington","state":"Massachusetts","zip":"01805"},"name":"David, Carlos","npi":1972602431},"geometry":{"type":"Point","coordinates":[-71.304689,42.637437]}},{"type":"Feature","id":"5228ff0570d483a23804c4bb","properties":{"id":"5228ff0570d483a23804c4bb","incentives_received":{"year_2011":false,"year_2012":true,"year_2013":false},"phone_number":"(781) 744-8000","address":{"address":"41 Mall Rd","city":"Burlington","state":"Massachusetts","zip":"01805"},"name":"McCarthy, John","npi":1972602399},"geometry":{"type":"Point","coordinates":[-71.338398,42.579152]}},{"type":"Feature","id":"5228ff0570d483a23804c4b9","properties":{"id":"5228ff0570d483a23804c4b9","incentives_received":{"year_2011":false,"year_2012":true,"year_2013":false},"phone_number":"(781) 444-4722","address":{"address":"15 Oak St","city":"Needham","state":"Massachusetts","zip":"02492"},"name":"Stone, Rebecca","npi":1972602183},"geometry":{"type":"Point","coordinates":[-71.238073,42.27703]}},{"type":"Feature","id":"5228ff0570d483a23804c4ba","properties":{"id":"5228ff0570d483a23804c4ba","incentives_received":{"year_2011":true,"year_2012":true,"year_2013":false},"phone_number":"(617) 421-6050","address":{"address":"133 Brookline Ave, Cardiology Dept","city":"Boston","state":"Massachusetts","zip":"02215"},"name":"Kumar, Kapil","npi":1972602282},"geometry":{"type":"Point","coordinates":[-71.100414,42.345237]}},{"type":"Feature","id":"5228ff0570d483a23804c4af","properties":{"id":"5228ff0570d483a23804c4af","incentives_received":{"year_2011":false,"year_2012":true,"year_2013":false},"phone_number":"(781) 744-5100","address":{"address":"41 Mall Road","city":"Burlington","state":"Massachusetts","zip":"01805"},"name":"Ahari, Heideh","npi":1972600419},"geometry":{"type":"Point","coordinates":[-71.338398,42.579152]}},{"type":"Feature","id":"5228ff0570d483a23804c460","properties":{"id":"5228ff0570d483a23804c460","incentives_received":{"year_2011":true,"year_2012":true,"year_2013":false},"phone_number":"(781) 329-1400","address":{"address":"1 Lyons St, OB/GYN","city":"Dedham","state":"Massachusetts","zip":"02026"},"name":"Fleming, Sandra","npi":1972595171},"geometry":{"type":"Point","coordinates":[-71.185785,42.268658]}},{"type":"Feature","id":"5228ff0570d483a23804c457","properties":{"id":"5228ff0570d483a23804c457","incentives_received":{"year_2011":false,"year_2012":true,"year_2013":false},"phone_number":"(508) 875-4811","address":{"address":"99 Lincoln St","city":"Framingham","state":"Massachusetts","zip":"01702"},"name":"LOVE, DONALD","npi":1972594562},"geometry":{"type":"Point","coordinates":[-71.419361,42.284149]}},{"type":"Feature","id":"5228ff0570d483a23804c445","properties":{"id":"5228ff0570d483a23804c445","incentives_received":{"year_2011":false,"year_2012":true,"year_2013":false},"phone_number":"(617) 726-2745","address":{"address":"55 Fruit Street","city":"Boston","state":"Massachusetts","zip":"02114"},"name":"Taylor, Charles","npi":1972593069},"geometry":{"type":"Point","coordinates":[-71.069772,42.362505]}},{"type":"Feature","id":"5228ff0570d483a23804c400","properties":{"id":"5228ff0570d483a23804c400","incentives_received":{"year_2011":true,"year_2012":true,"year_2013":false},"phone_number":"(508) 334-4465","address":{"address":"55 Lake Ave N, Department of Neurology","city":"Worcester","state":"Massachusetts","zip":"01655"},"name":"Vydrin, Mikhail","npi":1972588077},"geometry":{"type":"Point","coordinates":[-71.758855,42.271796]}},{"type":"Feature","id":"5228ff0570d483a23804c3f5","properties":{"id":"5228ff0570d483a23804c3f5","incentives_received":{"year_2011":false,"year_2012":true,"year_2013":false},"phone_number":"(617) 724-0880","address":{"address":"55 Fruit Street","city":"Boston","state":"Massachusetts","zip":"02114"},"name":"Viswanathan, Anand","npi":1972587434},"geometry":{"type":"Point","coordinates":[-71.069772,42.362505]}},{"type":"Feature","id":"5228ff0570d483a23804c3eb","properties":{"id":"5228ff0570d483a23804c3eb","incentives_received":{"year_2011":false,"year_2012":true,"year_2013":false},"phone_number":"(617) 726-3482","address":{"address":"55 Fruit Street","city":"Boston","state":"Massachusetts","zip":"02114"},"name":"Rosenbaum, Jerrold","npi":1972586949},"geometry":{"type":"Point","coordinates":[-71.069772,42.362505]}},{"type":"Feature","id":"5228ff0570d483a23804c3d2","properties":{"id":"5228ff0570d483a23804c3d2","incentives_received":{"year_2011":false,"year_2012":true,"year_2013":false},"phone_number":"(617) 724-6113","address":{"address":"55 Fruit Street","city":"Boston","state":"Massachusetts","zip":"02114"},"name":"Andersson, Karin","npi":1972585511},"geometry":{"type":"Point","coordinates":[-71.069772,42.362505]}},{"type":"Feature","id":"5228ff0570d483a23804c3bf","properties":{"id":"5228ff0570d483a23804c3bf","incentives_received":{"year_2011":false,"year_2012":true,"year_2013":false},"phone_number":"(617) 267-7171","address":{"address":"55 Fruit Street","city":"Boston","state":"Massachusetts","zip":"02214"},"name":"Reilly, Andrea","npi":1972583946},"geometry":{"type":"Point","coordinates":[-71.069772,42.362505]}},{"type":"Feature","id":"5228ff0570d483a23804c360","properties":{"id":"5228ff0570d483a23804c360","incentives_received":{"year_2011":false,"year_2012":true,"year_2013":false},"phone_number":"(508) 334-4465","address":{"address":"281 Lincoln St, Dept of Orthopedics","city":"Worcester","state":"Massachusetts","zip":"01605"},"name":"Jones, Marci","npi":1972578425},"geometry":{"type":"Point","coordinates":[-71.790837,42.286158]}},{"type":"Feature","id":"5228ff0570d483a23804c35d","properties":{"id":"5228ff0570d483a23804c35d","incentives_received":{"year_2011":false,"year_2012":true,"year_2013":false},"phone_number":"(617) 253-0556","address":{"address":"77 Mass Ave, Medical E23-395","city":"Cambridge","state":"Massachusetts","zip":"02139"},"name":"Ruth, William","npi":1972578318},"geometry":{"type":"Point","coordinates":[-70.952511,42.266385]}},{"type":"Feature","id":"5228ff0570d483a23804c359","properties":{"id":"5228ff0570d483a23804c359","incentives_received":{"year_2011":false,"year_2012":true,"year_2013":false},"phone_number":"(617) 632-6685","address":{"address":"450 Brookline Avenue, Mayer 1B18","city":"Boston","state":"Massachusetts","zip":"02215"},"name":"Wadleigh, Martha","npi":1972578185},"geometry":{"type":"Point","coordinates":[-71.1083,42.337886]}},{"type":"Feature","id":"5228ff0570d483a23804c337","properties":{"id":"5228ff0570d483a23804c337","incentives_received":{"year_2011":false,"year_2012":true,"year_2013":false},"phone_number":"(617) 632-3712","address":{"address":"450 Brookline Ave, Suite D1B30","city":"Boston","state":"Massachusetts","zip":"02215"},"name":"Steensma, David","npi":1972575942},"geometry":{"type":"Point","coordinates":[-71.1083,42.337886]}},{"type":"Feature","id":"5228ff0570d483a23804c2c6","properties":{"id":"5228ff0570d483a23804c2c6","incentives_received":{"year_2011":false,"year_2012":true,"year_2013":false},"phone_number":"(857) 307-0896","address":{"address":"111 Cypress St, Brigham and Women's Physicians Organization","city":"Brookline","state":"Massachusetts","zip":"02445"},"name":"Chandraker, Anil","npi":1972569176},"geometry":{"type":"Point","coordinates":[-71.125963,42.331063]}},{"type":"Feature","id":"5228ff0570d483a23804c2a9","properties":{"id":"5228ff0570d483a23804c2a9","incentives_received":{"year_2011":true,"year_2012":true,"year_2013":false},"phone_number":"(978) 251-3159","address":{"address":"10 Adams St., Chelmsford Family Practice, PC","city":"No. Chelmsford","state":"Massachusetts","zip":"01863"},"name":"Szekely, Eugenia","npi":1972567501},"geometry":{"type":"Point","coordinates":[-71.38408,42.639126]}},{"type":"Feature","id":"5228ff0570d483a23804c265","properties":{"id":"5228ff0570d483a23804c265","incentives_received":{"year_2011":false,"year_2012":true,"year_2013":false},"phone_number":"(617) 479-6636","address":{"address":"300 Congress Street","city":"Quincy","state":"Massachusetts","zip":"02169"},"name":"Rao, Edward","npi":1972562387},"geometry":{"type":"Point","coordinates":[-71.015453,42.233732]}},{"type":"Feature","id":"5228ff0570d483a23804c25c","properties":{"id":"5228ff0570d483a23804c25c","incentives_received":{"year_2011":true,"year_2012":true,"year_2013":false},"phone_number":"(617) 654-7266","address":{"address":"147 Milk St, Internal Medicine","city":"Boston","state":"Massachusetts","zip":"02109"},"name":"Yoffe, Patricia","npi":1972561504},"geometry":{"type":"Point","coordinates":[-71.054395,42.357572]}},{"type":"Feature","id":"5228ff0570d483a23804c248","properties":{"id":"5228ff0570d483a23804c248","incentives_received":{"year_2011":true,"year_2012":true,"year_2013":false},"phone_number":"(617) 859-5101","address":{"address":"165 Dartmouth St, Internal Medicine","city":"Boston","state":"Massachusetts","zip":"02116"},"name":"BORDEAUX, BRYAN","npi":1972560696},"geometry":{"type":"Point","coordinates":[-71.076308,42.348248]}},{"type":"Feature","id":"5228ff0570d483a23804c21d","properties":{"id":"5228ff0570d483a23804c21d","incentives_received":{"year_2011":true,"year_2012":true,"year_2013":false},"phone_number":"(978) 263-9336","address":{"address":"271 Great Rd","city":"Acton","state":"Massachusetts","zip":"01720"},"name":"De Vita, Jamal","npi":1972557288},"geometry":{"type":"Point","coordinates":[-71.416556,42.495321]}},{"type":"Feature","id":"5228ff0570d483a23804c1ee","properties":{"id":"5228ff0570d483a23804c1ee","incentives_received":{"year_2011":true,"year_2012":true,"year_2013":false},"phone_number":"(508) 236-8171","address":{"address":"687 N Main St","city":"Attleboro","state":"Massachusetts","zip":"02703"},"name":"Stricker, Barbara","npi":1972553121},"geometry":{"type":"Point","coordinates":[-71.289293,41.964193]}},{"type":"Feature","id":"5228ff0570d483a23804c1ce","properties":{"id":"5228ff0570d483a23804c1ce","incentives_received":{"year_2011":false,"year_2012":true,"year_2013":false},"phone_number":"(508) 757-0330","address":{"address":"48 Elm St","city":"Worcester","state":"Massachusetts","zip":"01609"},"name":"Sillman, Jonathon","npi":1972550101},"geometry":{"type":"Point","coordinates":[-71.806229,42.265187]}},{"type":"Feature","id":"5228ff0570d483a23804c1d3","properties":{"id":"5228ff0570d483a23804c1d3","incentives_received":{"year_2011":false,"year_2012":true,"year_2013":false},"phone_number":"(617) 632-8428","address":{"address":"185 Pilgrim Rd, Division of Podiatry","city":"Boston","state":"Massachusetts","zip":"02215"},"name":"Dinh, Thanh","npi":1972550440},"geometry":{"type":"Point","coordinates":[-71.109608,42.338176]}},{"type":"Feature","id":"5228ff0570d483a23804c1a2","properties":{"id":"5228ff0570d483a23804c1a2","incentives_received":{"year_2011":false,"year_2012":true,"year_2013":false},"phone_number":"(781) 306-5100","address":{"address":"26 City Hall Mall","city":"Medford","state":"Massachusetts","zip":"02155"},"name":"UNG, ANITA","npi":1972545721},"geometry":{"type":"Point","coordinates":[-71.106664,42.417513]}},{"type":"Feature","id":"5228ff0570d483a23804c188","properties":{"id":"5228ff0570d483a23804c188","incentives_received":{"year_2011":false,"year_2012":true,"year_2013":false},"phone_number":"(508) 255-8825","address":{"address":"204 Main St","city":"Orleans","state":"Massachusetts","zip":"02653"},"name":"Whelan, Thomas","npi":1972543692},"geometry":{"type":"Point","coordinates":[-69.9684,41.784771]}},{"type":"Feature","id":"5228ff0570d483a23804c175","properties":{"id":"5228ff0570d483a23804c175","incentives_received":{"year_2011":false,"year_2012":true,"year_2013":false},"phone_number":"(508) 831-7745","address":{"address":"23 Fruit St","city":"Worcester","state":"Massachusetts","zip":"01609"},"name":"Schlickman, Mark","npi":1972542157},"geometry":{"type":"Point","coordinates":[-71.81078,42.266148]}},{"type":"Feature","id":"5228ff0570d483a23804c168","properties":{"id":"5228ff0570d483a23804c168","incentives_received":{"year_2011":false,"year_2012":true,"year_2013":false},"phone_number":"(617) 479-0202","address":{"address":"67 Coddington St, Internal Med & Gastroen","city":"Quincy","state":"Massachusetts","zip":"02169"},"name":"Cohen, Eric","npi":1972541282},"geometry":{"type":"Point","coordinates":[-71.000256,42.253057]}},{"type":"Feature","id":"5228ff0570d483a23804c160","properties":{"id":"5228ff0570d483a23804c160","incentives_received":{"year_2011":false,"year_2012":true,"year_2013":false},"phone_number":"(508) 903-0003","address":{"address":"182 W Central St Ste 102, Retina Eye Care, P.C.","city":"Natick","state":"Massachusetts","zip":"01760"},"name":"Tang, William","npi":1972540177},"geometry":{"type":"Point","coordinates":[-71.38079,42.282417]}},{"type":"Feature","id":"5228ff0570d483a23804c167","properties":{"id":"5228ff0570d483a23804c167","incentives_received":{"year_2011":true,"year_2012":true,"year_2013":false},"phone_number":"(617) 421-1380","address":{"address":"133 Brookline Ave, Harvard Vanguard Medical Association","city":"Boston","state":"Massachusetts","zip":"02215"},"name":"McCowen, Karen","npi":1972541274},"geometry":{"type":"Point","coordinates":[-71.100414,42.345237]}},{"type":"Feature","id":"5228ff0570d483a23804c13c","properties":{"id":"5228ff0570d483a23804c13c","incentives_received":{"year_2011":false,"year_2012":true,"year_2013":false},"phone_number":"(508) 541-2436","address":{"address":"693 E Central St, Franklin Family Practice","city":"Franklin","state":"Massachusetts","zip":"02038"},"name":"Hardenbrook, Cheryl","npi":1972536043},"geometry":{"type":"Point","coordinates":[-71.367726,42.077354]}},{"type":"Feature","id":"5228ff0570d483a23804c0c8","properties":{"id":"5228ff0570d483a23804c0c8","incentives_received":{"year_2011":true,"year_2012":true,"year_2013":false},"phone_number":"(617) 667-9600","address":{"address":"Beth Israel Deaconess Med. Ctr, 330 Brookline Avenue","city":"Boston","state":"Massachusetts","zip":"02215"},"name":"Ship, Amy","npi":1972523397},"geometry":{"type":"Point","coordinates":[-71.097065,42.348767]}},{"type":"Feature","id":"5228ff0570d483a23804c0b7","properties":{"id":"5228ff0570d483a23804c0b7","incentives_received":{"year_2011":true,"year_2012":true,"year_2013":false},"phone_number":"(978) 977-4110","address":{"address":"2 Essex Center Dr","city":"Peabody","state":"Massachusetts","zip":"01960"},"name":"Jarudi, Nabil","npi":1972521896},"geometry":{"type":"Point","coordinates":[-70.950032,42.539826]}},{"type":"Feature","id":"5228ff0570d483a23804c0a2","properties":{"id":"5228ff0570d483a23804c0a2","incentives_received":{"year_2011":false,"year_2012":true,"year_2013":false},"phone_number":"(781) 769-8910","address":{"address":"825 Washington St, Suite# 310","city":"Norwood","state":"Massachusetts","zip":"02062"},"name":"Byahatti, Seema","npi":1972518264},"geometry":{"type":"Point","coordinates":[-71.202772,42.188246]}},{"type":"Feature","id":"5228ff0470d483a23804c07a","properties":{"id":"5228ff0470d483a23804c07a","incentives_received":{"year_2011":true,"year_2012":true,"year_2013":false},"phone_number":"(508) 350-2350","address":{"address":"362 North Bedford Street","city":"East Bridgewater","state":"Massachusetts","zip":"02333"},"name":"Thomas, Susan","npi":1972513950},"geometry":{"type":"Point","coordinates":[-70.956181,42.043008]}},{"type":"Feature","id":"5228ff0470d483a23804c024","properties":{"id":"5228ff0470d483a23804c024","incentives_received":{"year_2011":true,"year_2012":false,"year_2013":false},"phone_number":"(978) 521-3275","address":{"address":"1 Parkway","city":"Haverhill","state":"Massachusetts","zip":"01830"},"name":"COSTAGLIOLA, JOSEPH","npi":1972507242},"geometry":{"type":"Point","coordinates":[-71.283912,42.571152]}},{"type":"Feature","id":"5228ff0470d483a23804c003","properties":{"id":"5228ff0470d483a23804c003","incentives_received":{"year_2011":false,"year_2012":true,"year_2013":false},"phone_number":"(617) 724-0646","address":{"address":"55 Fruit Street","city":"Boston","state":"Massachusetts","zip":"02114"},"name":"KAUTZKY, MIRA","npi":1972505402},"geometry":{"type":"Point","coordinates":[-71.069772,42.362505]}},{"type":"Feature","id":"5228ff0470d483a23804bf76","properties":{"id":"5228ff0470d483a23804bf76","incentives_received":{"year_2011":false,"year_2012":true,"year_2013":false},"phone_number":"(617) 928-1500","address":{"address":"2000 Washington St, GREEN #567","city":"Newton","state":"Massachusetts","zip":"02462"},"name":"Yountz, Marcus","npi":1962692061},"geometry":{"type":"Point","coordinates":[-71.246626,42.332183]}},{"type":"Feature","id":"5228ff0470d483a23804bf66","properties":{"id":"5228ff0470d483a23804bf66","incentives_received":{"year_2011":true,"year_2012":true,"year_2013":false},"phone_number":"(617) 513-1292","address":{"address":"95 Chapel Street","city":"Norwood","state":"Massachusetts","zip":"02062"},"name":"Kaul, Suruchi","npi":1962683847},"geometry":{"type":"Point","coordinates":[-71.20998,42.18298]}},{"type":"Feature","id":"5228ff0470d483a23804bf44","properties":{"id":"5228ff0470d483a23804bf44","incentives_received":{"year_2011":false,"year_2012":true,"year_2013":false},"phone_number":"(617) 513-5643","address":{"address":"55 Fruit Street","city":"Boston","state":"Massachusetts","zip":"02114"},"name":"Coopey, Suzanne","npi":1962672956},"geometry":{"type":"Point","coordinates":[-71.069772,42.362505]}},{"type":"Feature","id":"5228ff0470d483a23804bf25","properties":{"id":"5228ff0470d483a23804bf25","incentives_received":{"year_2011":false,"year_2012":true,"year_2013":false},"phone_number":"(646) 808-7186","address":{"address":"55 Fruit Street","city":"Boston","state":"Massachusetts","zip":"02114"},"name":"Marneros, Alexander","npi":1962660761},"geometry":{"type":"Point","coordinates":[-71.069772,42.362505]}},{"type":"Feature","id":"5228ff0470d483a23804beb9","properties":{"id":"5228ff0470d483a23804beb9","incentives_received":{"year_2011":false,"year_2012":true,"year_2013":false},"phone_number":"(781) 952-1500","address":{"address":"77 Accord Park Drive, Bldg. D-4","city":"Norwell","state":"Massachusetts","zip":"02061"},"name":"ANCOWITZ, BRET","npi":1962607051},"geometry":{"type":"Point","coordinates":[-70.886547,42.165789]}},{"type":"Feature","id":"5228ff0470d483a23804bec9","properties":{"id":"5228ff0470d483a23804bec9","incentives_received":{"year_2011":false,"year_2012":true,"year_2013":false},"phone_number":"(617) 726-7938","address":{"address":"55 Fruit St","city":"Boston","state":"Massachusetts","zip":"02114"},"name":"Castelino, Flavia","npi":1962611301},"geometry":{"type":"Point","coordinates":[-71.069772,42.362505]}},{"type":"Feature","id":"5228ff0470d483a23804bebd","properties":{"id":"5228ff0470d483a23804bebd","incentives_received":{"year_2011":false,"year_2012":true,"year_2013":false},"phone_number":"(617) 726-2914","address":{"address":"55 Fruit Street","city":"Boston","state":"Massachusetts","zip":"02114"},"name":"Elmariah, Sarina","npi":1962608653},"geometry":{"type":"Point","coordinates":[-71.069772,42.362505]}},{"type":"Feature","id":"5228ff0470d483a23804bdf2","properties":{"id":"5228ff0470d483a23804bdf2","incentives_received":{"year_2011":false,"year_2012":true,"year_2013":false},"phone_number":"(781) 744-8481","address":{"address":"Lahey Clinic, 41 Mall Rd.","city":"Burlington","state":"Massachusetts","zip":"01805"},"name":"Williamson, Christina","npi":1962565283},"geometry":{"type":"Point","coordinates":[-71.106025,42.658836]}},{"type":"Feature","id":"5228ff0470d483a23804bda2","properties":{"id":"5228ff0470d483a23804bda2","incentives_received":{"year_2011":true,"year_2012":true,"year_2013":false},"phone_number":"(508) 236-8171","address":{"address":"170 Draper Ave","city":"North Attleboro","state":"Massachusetts","zip":"02760"},"name":"Benitez, Jose","npi":1962530691},"geometry":{"type":"Point","coordinates":[-71.350957,41.951318]}},{"type":"Feature","id":"5228ff0470d483a23804bd83","properties":{"id":"5228ff0470d483a23804bd83","incentives_received":{"year_2011":true,"year_2012":true,"year_2013":false},"phone_number":"(617) 309-2552","address":{"address":"1 Joslin Pl, Beetham Eye Institute","city":"Boston","state":"Massachusetts","zip":"02215"},"name":"Silver, Philip","npi":1962518365},"geometry":{"type":"Point","coordinates":[-71.108087,42.338198]}},{"type":"Feature","id":"5228ff0470d483a23804bd7e","properties":{"id":"5228ff0470d483a23804bd7e","incentives_received":{"year_2011":true,"year_2012":true,"year_2013":false},"phone_number":"(617) 672-2250","address":{"address":"482 Bedford St, Internal Medicine","city":"Lexington","state":"Massachusetts","zip":"02420"},"name":"Gilbert, Lisa","npi":1962517920},"geometry":{"type":"Point","coordinates":[-71.251175,42.476051]}},{"type":"Feature","id":"5228ff0470d483a23804bd77","properties":{"id":"5228ff0470d483a23804bd77","incentives_received":{"year_2011":false,"year_2012":true,"year_2013":false},"phone_number":"(508) 588-1200","address":{"address":"111 Torrey St","city":"Brockton","state":"Massachusetts","zip":"02301"},"name":"grogan, dougals","npi":1962516757},"geometry":{"type":"Point","coordinates":[-71.046366,42.073811]}},{"type":"Feature","id":"5228ff0470d483a23804bd31","properties":{"id":"5228ff0470d483a23804bd31","incentives_received":{"year_2011":false,"year_2012":true,"year_2013":false},"phone_number":"(781) 744-8170","address":{"address":"41 Mall Rd, Department of Diagnostic Radiology","city":"Burlington","state":"Massachusetts","zip":"01805"},"name":"Beckmann, Carl","npi":1962505503},"geometry":{"type":"Point","coordinates":[-71.338398,42.579152]}},{"type":"Feature","id":"5228ff0470d483a23804bd1c","properties":{"id":"5228ff0470d483a23804bd1c","incentives_received":{"year_2011":false,"year_2012":true,"year_2013":false},"phone_number":"(508) 478-6363","address":{"address":"215 West St","city":"Milford","state":"Massachusetts","zip":"01757"},"name":"Amini, Ali","npi":1962502997},"geometry":{"type":"Point","coordinates":[-71.540298,42.141087]}},{"type":"Feature","id":"5228ff0470d483a23804bd18","properties":{"id":"5228ff0470d483a23804bd18","incentives_received":{"year_2011":true,"year_2012":true,"year_2013":false},"phone_number":"(508) 947-1411","address":{"address":"63 Anderson Ave","city":"Middleboro","state":"Massachusetts","zip":"02346"},"name":"Rashid, Rober","npi":1962502625},"geometry":{"type":"Point","coordinates":[-70.945034,41.896031]}},{"type":"Feature","id":"5228ff0470d483a23804bd08","properties":{"id":"5228ff0470d483a23804bd08","incentives_received":{"year_2011":false,"year_2012":true,"year_2013":false},"phone_number":"(508) 778-1829","address":{"address":"25 Main St","city":"Hyannis","state":"Massachusetts","zip":"02601"},"name":"Wolfe, Mark","npi":1962500322},"geometry":{"type":"Point","coordinates":[-70.272854,41.656455]}},{"type":"Feature","id":"5228ff0470d483a23804bcbf","properties":{"id":"5228ff0470d483a23804bcbf","incentives_received":{"year_2011":false,"year_2012":true,"year_2013":false},"phone_number":"(508) 668-4555","address":{"address":"844 Main Street","city":"Walpole","state":"Massachusetts","zip":"02081"},"name":"Kelliher, Robert","npi":1962495010},"geometry":{"type":"Point","coordinates":[-71.25025,42.14968]}},{"type":"Feature","id":"5228ff0470d483a23804bc9f","properties":{"id":"5228ff0470d483a23804bc9f","incentives_received":{"year_2011":false,"year_2012":true,"year_2013":false},"phone_number":"(781) 383-6261","address":{"address":"223 Chief Justice Cushing Hwy, Suite 301","city":"Cohasset","state":"Massachusetts","zip":"02025"},"name":"Mitchell, Cheryl","npi":1962493189},"geometry":{"type":"Point","coordinates":[-70.80138,42.23683]}},{"type":"Feature","id":"5228ff0470d483a23804bca9","properties":{"id":"5228ff0470d483a23804bca9","incentives_received":{"year_2011":false,"year_2012":true,"year_2013":false},"phone_number":"(857) 307-0896","address":{"address":"111 Cypress Street","city":"Brookline","state":"Massachusetts","zip":"02445"},"name":"Hodges, Michael","npi":1962493536},"geometry":{"type":"Point","coordinates":[-71.125963,42.331063]}},{"type":"Feature","id":"5228ff0470d483a23804bc95","properties":{"id":"5228ff0470d483a23804bc95","incentives_received":{"year_2011":false,"year_2012":true,"year_2013":false},"phone_number":"(617) 726-4150","address":{"address":"55 Fruit Street","city":"Boston","state":"Massachusetts","zip":"02114"},"name":"Hemphill, Linda","npi":1962492272},"geometry":{"type":"Point","coordinates":[-71.069772,42.362505]}},{"type":"Feature","id":"5228ff0470d483a23804bc94","properties":{"id":"5228ff0470d483a23804bc94","incentives_received":{"year_2011":false,"year_2012":true,"year_2013":false},"phone_number":"(617) 726-8782","address":{"address":"55 Fruit Street","city":"Boston","state":"Massachusetts","zip":"02114"},"name":"Palmer, Edwin","npi":1962492231},"geometry":{"type":"Point","coordinates":[-71.069772,42.362505]}},{"type":"Feature","id":"5228ff0470d483a23804bc66","properties":{"id":"5228ff0470d483a23804bc66","incentives_received":{"year_2011":false,"year_2012":true,"year_2013":false},"phone_number":"(508) 334-4465","address":{"address":"55 Lake Ave N, ACC Building Dept of Cardiology","city":"Worcester","state":"Massachusetts","zip":"01655"},"name":"Lyons, David","npi":1962489294},"geometry":{"type":"Point","coordinates":[-71.758855,42.271796]}},{"type":"Feature","id":"5228ff0470d483a23804bc46","properties":{"id":"5228ff0470d483a23804bc46","incentives_received":{"year_2011":false,"year_2012":true,"year_2013":false},"phone_number":"(617) 632-6973","address":{"address":"450 Brookline Avenue, Yawkey 1250","city":"Boston","state":"Massachusetts","zip":"02215"},"name":"Tolaney, Sara","npi":1962487330},"geometry":{"type":"Point","coordinates":[-71.097873,42.344559]}},{"type":"Feature","id":"5228ff0470d483a23804bc41","properties":{"id":"5228ff0470d483a23804bc41","incentives_received":{"year_2011":true,"year_2012":true,"year_2013":false},"phone_number":"(401) 729-2890","address":{"address":"77 WARREN STREET, THIRD FLOOR","city":"BRIGHTON","state":"Massachusetts","zip":"02135"},"name":"Lowry, Matthew","npi":1962486894},"geometry":{"type":"Point","coordinates":[-71.141654,42.349273]}},{"type":"Feature","id":"5228ff0470d483a23804bc33","properties":{"id":"5228ff0470d483a23804bc33","incentives_received":{"year_2011":true,"year_2012":true,"year_2013":false},"phone_number":"(508) 334-4465","address":{"address":"67 Belmont St, Endocrinology","city":"Worcester","state":"Massachusetts","zip":"01605"},"name":"Waud, Catherine","npi":1962486167},"geometry":{"type":"Point","coordinates":[-71.79463,42.271834]}},{"type":"Feature","id":"5228ff0470d483a23804bc48","properties":{"id":"5228ff0470d483a23804bc48","incentives_received":{"year_2011":false,"year_2012":true,"year_2013":false},"phone_number":"(617) 726-4662","address":{"address":"55 Fruit Street","city":"Boston","state":"Massachusetts","zip":"02114"},"name":"Singh, Jagmeet","npi":1962487447},"geometry":{"type":"Point","coordinates":[-71.069772,42.362505]}},{"type":"Feature","id":"5228ff0470d483a23804bbbb","properties":{"id":"5228ff0470d483a23804bbbb","incentives_received":{"year_2011":false,"year_2012":true,"year_2013":false},"phone_number":"(508) 949-6880","address":{"address":"340 Thompson Rd","city":"Webster","state":"Massachusetts","zip":"01570"},"name":"Cohen, Jeffrey","npi":1962478008},"geometry":{"type":"Point","coordinates":[-71.850079,42.027874]}},{"type":"Feature","id":"5228ff0470d483a23804bb55","properties":{"id":"5228ff0470d483a23804bb55","incentives_received":{"year_2011":false,"year_2012":true,"year_2013":false},"phone_number":"(508) 473-1015","address":{"address":"236 Milford St","city":"Upton","state":"Massachusetts","zip":"01568"},"name":"BROWNSTEIN, SCOTT","npi":1962471524},"geometry":{"type":"Point","coordinates":[-71.582157,42.158811]}},{"type":"Feature","id":"5228ff0470d483a23804bb51","properties":{"id":"5228ff0470d483a23804bb51","incentives_received":{"year_2011":true,"year_2012":true,"year_2013":false},"phone_number":"(508) 368-3190","address":{"address":"123 Summer Street","city":"Worcester","state":"Massachusetts","zip":"01608"},"name":"Josephs, Leon","npi":1962471003},"geometry":{"type":"Point","coordinates":[-71.795583,42.266668]}},{"type":"Feature","id":"5228ff0470d483a23804bb33","properties":{"id":"5228ff0470d483a23804bb33","incentives_received":{"year_2011":false,"year_2012":true,"year_2013":false},"phone_number":"(508) 693-0410","address":{"address":"1 Hospital Road, P.O. Box 1477","city":"Oak Bluffs","state":"Massachusetts","zip":"02557"},"name":"McMahon, Ellen","npi":1962468959},"geometry":{"type":"Point","coordinates":[-70.56197,41.45428]}},{"type":"Feature","id":"5228ff0470d483a23804bb31","properties":{"id":"5228ff0470d483a23804bb31","incentives_received":{"year_2011":true,"year_2012":true,"year_2013":false},"phone_number":"(617) 661-5100","address":{"address":"1611 Cambridge St, Internal Medicine","city":"Cambridge","state":"Massachusetts","zip":"02138"},"name":"Mathews, Rashika","npi":1962468868},"geometry":{"type":"Point","coordinates":[-71.108846,42.374773]}},{"type":"Feature","id":"5228ff0470d483a23804bb2f","properties":{"id":"5228ff0470d483a23804bb2f","incentives_received":{"year_2011":false,"year_2012":true,"year_2013":false},"phone_number":"(617) 724-2700","address":{"address":"55 Fruit Street","city":"Boston","state":"Massachusetts","zip":"02114"},"name":"Birnbaum, Shana","npi":1962468710},"geometry":{"type":"Point","coordinates":[-71.069772,42.362505]}},{"type":"Feature","id":"5228ff0470d483a23804bb0c","properties":{"id":"5228ff0470d483a23804bb0c","incentives_received":{"year_2011":true,"year_2012":true,"year_2013":false},"phone_number":"(413) 594-3111","address":{"address":"444 Montgomery St","city":"Chicopee","state":"Massachusetts","zip":"01020"},"name":"Burstein, Alan","npi":1962465468},"geometry":{"type":"Point","coordinates":[-72.586657,42.172475]}},{"type":"Feature","id":"5228ff0470d483a23804bae0","properties":{"id":"5228ff0470d483a23804bae0","incentives_received":{"year_2011":false,"year_2012":true,"year_2013":false},"phone_number":"(508) 429-2377","address":{"address":"479 Washington St","city":"Holliston","state":"Massachusetts","zip":"01746"},"name":"Gronda, Douglas","npi":1962463109},"geometry":{"type":"Point","coordinates":[-71.427113,42.209865]}},{"type":"Feature","id":"5228ff0470d483a23804babf","properties":{"id":"5228ff0470d483a23804babf","incentives_received":{"year_2011":false,"year_2012":true,"year_2013":false},"phone_number":"(413) 447-2764","address":{"address":"777 North St, Renal Dialysis","city":"Pittsfield","state":"Massachusetts","zip":"01201"},"name":"Nelson, Stephen","npi":1962460634},"geometry":{"type":"Point","coordinates":[-73.309829,42.430918]}},{"type":"Feature","id":"5228ff0470d483a23804ba72","properties":{"id":"5228ff0470d483a23804ba72","incentives_received":{"year_2011":true,"year_2012":true,"year_2013":false},"phone_number":"(617) 497-1560","address":{"address":"300 Mount Auburn St, Suite 310","city":"Cambridge","state":"Massachusetts","zip":"02138"},"name":"Farmer, David","npi":1962454298},"geometry":{"type":"Point","coordinates":[-71.134272,42.375004]}},{"type":"Feature","id":"5228ff0470d483a23804ba30","properties":{"id":"5228ff0470d483a23804ba30","incentives_received":{"year_2011":false,"year_2012":true,"year_2013":false},"phone_number":"(508) 660-1115","address":{"address":"1428 Main St","city":"Walpole","state":"Massachusetts","zip":"02081"},"name":"Frasca, John","npi":1962449959},"geometry":{"type":"Point","coordinates":[-71.262495,42.132467]}},{"type":"Feature","id":"5228ff0470d483a23804b9c3","properties":{"id":"5228ff0470d483a23804b9c3","incentives_received":{"year_2011":false,"year_2012":true,"year_2013":false},"phone_number":"(617) 726-1721","address":{"address":"55 Fruit Street","city":"Boston","state":"Massachusetts","zip":"02114"},"name":"Shea, Barry","npi":1962440271},"geometry":{"type":"Point","coordinates":[-71.069772,42.362505]}},{"type":"Feature","id":"5228ff0470d483a23804b9ad","properties":{"id":"5228ff0470d483a23804b9ad","incentives_received":{"year_2011":false,"year_2012":true,"year_2013":false},"phone_number":"(413) 442-1019","address":{"address":"20 Elm St","city":"Pittsfield","state":"Massachusetts","zip":"01201"},"name":"DeVries, Marjorie","npi":1962438135},"geometry":{"type":"Point","coordinates":[-73.244654,42.445953]}},{"type":"Feature","id":"5228ff0470d483a23804b9a3","properties":{"id":"5228ff0470d483a23804b9a3","incentives_received":{"year_2011":true,"year_2012":true,"year_2013":false},"phone_number":"(508) 363-7707","address":{"address":"123 Summer St, Suite 370 North","city":"Worcester","state":"Massachusetts","zip":"01608"},"name":"Abraham, Annie","npi":1962437061},"geometry":{"type":"Point","coordinates":[-71.795583,42.266668]}},{"type":"Feature","id":"5228ff0470d483a23804b99a","properties":{"id":"5228ff0470d483a23804b99a","incentives_received":{"year_2011":true,"year_2012":true,"year_2013":false},"phone_number":"(617) 732-2554","address":{"address":"1 Joslin Pl","city":"Boston","state":"Massachusetts","zip":"02215"},"name":"Calderon, Richard","npi":1962435826},"geometry":{"type":"Point","coordinates":[-71.108087,42.338198]}},{"type":"Feature","id":"5228ff0470d483a23804b9a1","properties":{"id":"5228ff0470d483a23804b9a1","incentives_received":{"year_2011":false,"year_2012":true,"year_2013":false},"phone_number":"(617) 636-5854","address":{"address":"Tufts Medical Center, 800 Washington St, Box 314","city":"Boston","state":"Massachusetts","zip":"02111"},"name":"Thaler, David","npi":1962436873},"geometry":{"type":"Point","coordinates":[-71.059365,42.351047]}},{"type":"Feature","id":"5228ff0470d483a23804b99c","properties":{"id":"5228ff0470d483a23804b99c","incentives_received":{"year_2011":false,"year_2012":true,"year_2013":false},"phone_number":"(617) 277-6006","address":{"address":"1101 Beacon Street, Philip Goldsmith MD","city":"Brookline","state":"Massachusetts","zip":"02446"},"name":"Goldsmith, Philip","npi":1962436089},"geometry":{"type":"Point","coordinates":[-71.110879,42.34488]}},{"type":"Feature","id":"5228ff0470d483a23804b989","properties":{"id":"5228ff0470d483a23804b989","incentives_received":{"year_2011":false,"year_2012":true,"year_2013":false},"phone_number":"(978) 475-4202","address":{"address":"140 Haverhill St","city":"Andover","state":"Massachusetts","zip":"01810"},"name":"Gemis, Paul","npi":1962434480},"geometry":{"type":"Point","coordinates":[-71.135199,42.674358]}},{"type":"Feature","id":"5228ff0470d483a23804b8ca","properties":{"id":"5228ff0470d483a23804b8ca","incentives_received":{"year_2011":true,"year_2012":true,"year_2013":false},"phone_number":"(508) 350-2350","address":{"address":"362 North Bedford Street","city":"East Bridgewater","state":"Massachusetts","zip":"02333"},"name":"Levine, Elizabeth","npi":1962412957},"geometry":{"type":"Point","coordinates":[-70.956181,42.043008]}},{"type":"Feature","id":"5228ff0470d483a23804b8ae","properties":{"id":"5228ff0470d483a23804b8ae","incentives_received":{"year_2011":false,"year_2012":true,"year_2013":false},"phone_number":"(508) 717-0270","address":{"address":"500 Faunce Corner Rd, Suite 110","city":"N Dartmouth","state":"Massachusetts","zip":"02747"},"name":"GLEN, HARRY","npi":1962410324},"geometry":{"type":"Point","coordinates":[-70.991473,41.667169]}},{"type":"Feature","id":"5228ff0470d483a23804b88d","properties":{"id":"5228ff0470d483a23804b88d","incentives_received":{"year_2011":true,"year_2012":true,"year_2013":false},"phone_number":"(508) 842-2010","address":{"address":"555 Main St","city":"Shrewsbury","state":"Massachusetts","zip":"01545"},"name":"Magee, Bernard","npi":1962408153},"geometry":{"type":"Point","coordinates":[-71.715225,42.296398]}},{"type":"Feature","id":"5228ff0470d483a23804b87d","properties":{"id":"5228ff0470d483a23804b87d","incentives_received":{"year_2011":true,"year_2012":false,"year_2013":false},"phone_number":null,"address":{"address":"100 Brooksby Village Dr","city":"Peabody","state":"Massachusetts","zip":null},"name":"POWERS, RANDOLPH","npi":1962407536},"geometry":{"type":"Point","coordinates":[-70.967756,42.552073]}},{"type":"Feature","id":"5228ff0470d483a23804b834","properties":{"id":"5228ff0470d483a23804b834","incentives_received":{"year_2011":true,"year_2012":true,"year_2013":false},"phone_number":"(617) 923-6071","address":{"address":"521 Mount Auburn St, Ste 200","city":"Watertown","state":"Massachusetts","zip":"02472"},"name":"Aversano, Renee","npi":1962402255},"geometry":{"type":"Point","coordinates":[-71.16198,42.370604]}},{"type":"Feature","id":"5228ff0470d483a23804b82e","properties":{"id":"5228ff0470d483a23804b82e","incentives_received":{"year_2011":false,"year_2012":true,"year_2013":false},"phone_number":"(508) 717-0266","address":{"address":"500 Faunce Corner Rd, Suite 110","city":"N Dartmouth","state":"Massachusetts","zip":"02747"},"name":"Dadah, John","npi":1962401703},"geometry":{"type":"Point","coordinates":[-70.991473,41.667169]}},{"type":"Feature","id":"5228ff0470d483a23804b811","properties":{"id":"5228ff0470d483a23804b811","incentives_received":{"year_2011":false,"year_2012":true,"year_2013":false},"phone_number":"(508) 672-3700","address":{"address":"484 Highland Ave","city":"Fall River","state":"Massachusetts","zip":"02720"},"name":"Lowney, Mark","npi":1962400200},"geometry":{"type":"Point","coordinates":[-71.14542,41.711815]}},{"type":"Feature","id":"5228ff0470d483a23804b81a","properties":{"id":"5228ff0470d483a23804b81a","incentives_received":{"year_2011":false,"year_2012":true,"year_2013":false},"phone_number":"(508) 717-0270","address":{"address":"500 Faunce Corner Rd, Suite 110","city":"N Dartmouth","state":"Massachusetts","zip":"02747"},"name":"CORIN, SCOTT","npi":1962400911},"geometry":{"type":"Point","coordinates":[-70.991473,41.667169]}},{"type":"Feature","id":"5228ff0470d483a23804b805","properties":{"id":"5228ff0470d483a23804b805","incentives_received":{"year_2011":false,"year_2012":true,"year_2013":false},"phone_number":"(617) 724-7725","address":{"address":"55 Fruit Street","city":"Boston","state":"Massachusetts","zip":"02114"},"name":"Kwolek, Deborah","npi":1952619801},"geometry":{"type":"Point","coordinates":[-71.069772,42.362505]}},{"type":"Feature","id":"5228ff0470d483a23804b813","properties":{"id":"5228ff0470d483a23804b813","incentives_received":{"year_2011":false,"year_2012":true,"year_2013":false},"phone_number":"(978) 429-2010","address":{"address":"45B Discovery Way","city":"Acton","state":"Massachusetts","zip":"01720"},"name":"Krims, Peter","npi":1962400366},"geometry":{"type":"Point","coordinates":[-71.44106,42.472027]}},{"type":"Feature","id":"5228ff0470d483a23804b7de","properties":{"id":"5228ff0470d483a23804b7de","incentives_received":{"year_2011":false,"year_2012":true,"year_2013":false},"phone_number":"(508) 478-0555","address":{"address":"42 Cape Road","city":"Milford","state":"Massachusetts","zip":"01757"},"name":"Wallace, Mark","npi":1952591828},"geometry":{"type":"Point","coordinates":[-71.521014,42.128605]}},{"type":"Feature","id":"5228ff0470d483a23804b7da","properties":{"id":"5228ff0470d483a23804b7da","incentives_received":{"year_2011":true,"year_2012":false,"year_2013":false},"phone_number":"(978) 466-2443","address":{"address":"50 Memorial Drive, Suite 211","city":"Leominster","state":"Massachusetts","zip":"01453"},"name":"Maddukuri, Srirekha","npi":1952591059},"geometry":{"type":"Point","coordinates":[-71.762922,42.541994]}},{"type":"Feature","id":"5228ff0470d483a23804b7d7","properties":{"id":"5228ff0470d483a23804b7d7","incentives_received":{"year_2011":false,"year_2012":true,"year_2013":false},"phone_number":"(617) 667-1665","address":{"address":"330 Brookline Ave, Kirsten 406","city":"Boston","state":"Massachusetts","zip":"02215"},"name":"Uhlmann, Erik","npi":1952589590},"geometry":{"type":"Point","coordinates":[-71.105846,42.34034]}},{"type":"Feature","id":"5228ff0470d483a23804b7be","properties":{"id":"5228ff0470d483a23804b7be","incentives_received":{"year_2011":false,"year_2012":true,"year_2013":false},"phone_number":"(978) 468-7346","address":{"address":"205 Willow St, Lahey Hamilton Wenham","city":"South Hamilton","state":"Massachusetts","zip":"01982"},"name":"Manickam, Savitha","npi":1952574840},"geometry":{"type":"Point","coordinates":[-70.875018,42.612368]}},{"type":"Feature","id":"5228ff0470d483a23804b78f","properties":{"id":"5228ff0470d483a23804b78f","incentives_received":{"year_2011":false,"year_2012":true,"year_2013":false},"phone_number":"(508) 334-4465","address":{"address":"119 Belmont St, Department of Orthopedics","city":"Worcester","state":"Massachusetts","zip":"01605"},"name":"Zhou, Jianxun","npi":1952560500},"geometry":{"type":"Point","coordinates":[-71.792206,42.272092]}},{"type":"Feature","id":"5228ff0470d483a23804b741","properties":{"id":"5228ff0470d483a23804b741","incentives_received":{"year_2011":true,"year_2012":true,"year_2013":false},"phone_number":"(413) 794-7020","address":{"address":"3300 Main St, 3rd Floor, Suite B","city":"Springfield","state":"Massachusetts","zip":"01199"},"name":"Jabiev, Azad","npi":1952516353},"geometry":{"type":"Point","coordinates":[-72.609612,42.123069]}},{"type":"Feature","id":"5228ff0470d483a23804b6fe","properties":{"id":"5228ff0470d483a23804b6fe","incentives_received":{"year_2011":false,"year_2012":true,"year_2013":false},"phone_number":"(781) 744-7732","address":{"address":"41 Mall Rd, Lahey Clinic - Dept. of Neurosurgery","city":"Burlington","state":"Massachusetts","zip":"01805"},"name":"Kim, Stefan","npi":1952500191},"geometry":{"type":"Point","coordinates":[-71.338398,42.579152]}},{"type":"Feature","id":"5228ff0470d483a23804b6f3","properties":{"id":"5228ff0470d483a23804b6f3","incentives_received":{"year_2011":false,"year_2012":true,"year_2013":false},"phone_number":"(413) 794-8484","address":{"address":"2 Medical Center Dr, Suite 206","city":"Springfield","state":"Massachusetts","zip":"01107"},"name":"Junnilla, Debra","npi":1952498503},"geometry":{"type":"Point","coordinates":[-72.600668,42.12734]}},{"type":"Feature","id":"5228ff0470d483a23804b6be","properties":{"id":"5228ff0470d483a23804b6be","incentives_received":{"year_2011":false,"year_2012":true,"year_2013":false},"phone_number":"(781) 337-4400","address":{"address":"317 Libbey Industrial Pkwy, Suite B-600","city":"Weymouth","state":"Massachusetts","zip":"02189"},"name":"Burgdorf, David","npi":1952492142},"geometry":{"type":"Point","coordinates":[-70.938142,42.19023]}},{"type":"Feature","id":"5228ff0470d483a23804b689","properties":{"id":"5228ff0470d483a23804b689","incentives_received":{"year_2011":true,"year_2012":true,"year_2013":false},"phone_number":"(508) 778-4777","address":{"address":"433 W Main St","city":"Hyannis","state":"Massachusetts","zip":"02601"},"name":"Crosson, Peter","npi":1952481095},"geometry":{"type":"Point","coordinates":[-70.312432,41.64947]}},{"type":"Feature","id":"5228ff0470d483a23804b662","properties":{"id":"5228ff0470d483a23804b662","incentives_received":{"year_2011":false,"year_2012":true,"year_2013":false},"phone_number":"(508) 676-3411","address":{"address":"1030 President Ave, Suite 210","city":"Fall River","state":"Massachusetts","zip":"02720"},"name":"Mansharamani, Naresh","npi":1952470080},"geometry":{"type":"Point","coordinates":[-71.138823,41.71377]}},{"type":"Feature","id":"5228ff0470d483a23804b649","properties":{"id":"5228ff0470d483a23804b649","incentives_received":{"year_2011":false,"year_2012":true,"year_2013":false},"phone_number":"(617) 363-8276","address":{"address":"1200 Centre St","city":"Boston","state":"Massachusetts","zip":"02131"},"name":"kandel, ruth","npi":1952462517},"geometry":{"type":"Point","coordinates":[-71.131852,42.297217]}},{"type":"Feature","id":"5228ff0470d483a23804b618","properties":{"id":"5228ff0470d483a23804b618","incentives_received":{"year_2011":true,"year_2012":true,"year_2013":false},"phone_number":"(413) 794-8120","address":{"address":"759 Chestnut Street","city":"Springfield","state":"Massachusetts","zip":"01199"},"name":"Martagon-Villamil, Jose","npi":1952447930},"geometry":{"type":"Point","coordinates":[-72.604261,42.119083]}},{"type":"Feature","id":"5228ff0470d483a23804b623","properties":{"id":"5228ff0470d483a23804b623","incentives_received":{"year_2011":false,"year_2012":true,"year_2013":false},"phone_number":"(617) 726-8722","address":{"address":"55 Fruit Street","city":"Boston","state":"Massachusetts","zip":"02114"},"name":"Walford, Geoffrey","npi":1952451353},"geometry":{"type":"Point","coordinates":[-71.069772,42.362505]}},{"type":"Feature","id":"5228ff0470d483a23804b5ff","properties":{"id":"5228ff0470d483a23804b5ff","incentives_received":{"year_2011":false,"year_2012":true,"year_2013":false},"phone_number":"(617) 726-6540","address":{"address":"55 Fruit Street","city":"Boston","state":"Massachusetts","zip":"02114"},"name":"Thibert, Ronald","npi":1952437600},"geometry":{"type":"Point","coordinates":[-71.069772,42.362505]}},{"type":"Feature","id":"5228ff0470d483a23804b5d8","properties":{"id":"5228ff0470d483a23804b5d8","incentives_received":{"year_2011":false,"year_2012":true,"year_2013":false},"phone_number":"(617) 724-8311","address":{"address":"55 Fruit Street","city":"Boston","state":"Massachusetts","zip":"02114"},"name":"Morrill, James","npi":1952419764},"geometry":{"type":"Point","coordinates":[-71.069772,42.362505]}},{"type":"Feature","id":"5228ff0470d483a23804b5c9","properties":{"id":"5228ff0470d483a23804b5c9","incentives_received":{"year_2011":true,"year_2012":true,"year_2013":false},"phone_number":"(617) 667-4735","address":{"address":"330 Brookline Ave","city":"Boston","state":"Massachusetts","zip":"02215"},"name":"Kruk, Inna","npi":1952416844},"geometry":{"type":"Point","coordinates":[-71.105846,42.34034]}},{"type":"Feature","id":"5228ff0470d483a23804b56b","properties":{"id":"5228ff0470d483a23804b56b","incentives_received":{"year_2011":false,"year_2012":true,"year_2013":false},"phone_number":"(978) 468-7346","address":{"address":"205 Willow St, Building C","city":"South Hamilton","state":"Massachusetts","zip":"01982"},"name":"Oman, Timothy","npi":1952402745},"geometry":{"type":"Point","coordinates":[-70.875018,42.612368]}},{"type":"Feature","id":"5228ff0470d483a23804b55b","properties":{"id":"5228ff0470d483a23804b55b","incentives_received":{"year_2011":true,"year_2012":true,"year_2013":false},"phone_number":"(508) 334-4465","address":{"address":"50 Leominster Rd, Family Medicine","city":"Sterling","state":"Massachusetts","zip":"01564"},"name":"Moreland, Valerie","npi":1952400335},"geometry":{"type":"Point","coordinates":[-71.752983,42.442302]}},{"type":"Feature","id":"5228ff0470d483a23804b551","properties":{"id":"5228ff0470d483a23804b551","incentives_received":{"year_2011":true,"year_2012":true,"year_2013":false},"phone_number":"(508) 879-7710","address":{"address":"115 Lincoln St","city":"Framingham","state":"Massachusetts","zip":"01702"},"name":"Palma, Melissa","npi":1952399537},"geometry":{"type":"Point","coordinates":[-71.419859,42.284443]}},{"type":"Feature","id":"5228ff0470d483a23804b534","properties":{"id":"5228ff0470d483a23804b534","incentives_received":{"year_2011":false,"year_2012":true,"year_2013":false},"phone_number":"(617) 491-6766","address":{"address":"300 Mount Auburn St, Suite 505","city":"Cambridge","state":"Massachusetts","zip":"02138"},"name":"Schena, Anthony","npi":1952398174},"geometry":{"type":"Point","coordinates":[-71.134272,42.375004]}},{"type":"Feature","id":"5228ff0470d483a23804b51c","properties":{"id":"5228ff0470d483a23804b51c","incentives_received":{"year_2011":false,"year_2012":true,"year_2013":false},"phone_number":"(781) 899-3334","address":{"address":"231 Moody St","city":"Waltham","state":"Massachusetts","zip":"02453"},"name":"Yu-Wong, Alberto","npi":1952396624},"geometry":{"type":"Point","coordinates":[-71.236651,42.37218]}},{"type":"Feature","id":"5228ff0470d483a23804b4d0","properties":{"id":"5228ff0470d483a23804b4d0","incentives_received":{"year_2011":false,"year_2012":true,"year_2013":false},"phone_number":"(617) 726-8514","address":{"address":"55 Fruit Street","city":"Boston","state":"Massachusetts","zip":"02114"},"name":"Ruskin, Jeremy","npi":1952392524},"geometry":{"type":"Point","coordinates":[-71.069772,42.362505]}},{"type":"Feature","id":"5228ff0470d483a23804b4c8","properties":{"id":"5228ff0470d483a23804b4c8","incentives_received":{"year_2011":true,"year_2012":true,"year_2013":false},"phone_number":"(508) 334-4465","address":{"address":"26 Julio Dr","city":"Shrewsbury","state":"Massachusetts","zip":"01545"},"name":"Narducci, Maria","npi":1952392151},"geometry":{"type":"Point","coordinates":[-71.703873,42.292308]}},{"type":"Feature","id":"5228ff0470d483a23804b4b9","properties":{"id":"5228ff0470d483a23804b4b9","incentives_received":{"year_2011":false,"year_2012":true,"year_2013":false},"phone_number":"(617) 724-0365","address":{"address":"55 Fruit Street","city":"Boston","state":"Massachusetts","zip":"02114"},"name":"Shellito, Paul","npi":1952391500},"geometry":{"type":"Point","coordinates":[-71.069772,42.362505]}},{"type":"Feature","id":"5228ff0470d483a23804b4b6","properties":{"id":"5228ff0470d483a23804b4b6","incentives_received":{"year_2011":false,"year_2012":true,"year_2013":false},"phone_number":"(617) 724-8770","address":{"address":"55 Fruit Street","city":"Boston","state":"Massachusetts","zip":"02114"},"name":"Batchelor, Tracy","npi":1952391260},"geometry":{"type":"Point","coordinates":[-71.069772,42.362505]}},{"type":"Feature","id":"5228ff0470d483a23804b4c0","properties":{"id":"5228ff0470d483a23804b4c0","incentives_received":{"year_2011":false,"year_2012":true,"year_2013":false},"phone_number":"(978) 784-9972","address":{"address":"77 Warren Street, Third Floor","city":"Brighton","state":"Massachusetts","zip":"02135"},"name":"Husain, Amjad","npi":1952391849},"geometry":{"type":"Point","coordinates":[-71.141654,42.349273]}},{"type":"Feature","id":"5228ff0470d483a23804b4b4","properties":{"id":"5228ff0470d483a23804b4b4","incentives_received":{"year_2011":false,"year_2012":true,"year_2013":false},"phone_number":"(617) 726-4900","address":{"address":"55 Fruit Street","city":"Boston","state":"Massachusetts","zip":"02114"},"name":"Coggins, Cecil","npi":1952391138},"geometry":{"type":"Point","coordinates":[-71.069772,42.362505]}},{"type":"Feature","id":"5228ff0470d483a23804b467","properties":{"id":"5228ff0470d483a23804b467","incentives_received":{"year_2011":false,"year_2012":true,"year_2013":false},"phone_number":"(978) 452-5050","address":{"address":"20 Research Pl, Suite 100","city":"North Chelmsford","state":"Massachusetts","zip":"01863"},"name":"JISER, MICHAEL","npi":1952386005},"geometry":{"type":"Point","coordinates":[-71.366281,42.627088]}},{"type":"Feature","id":"5228ff0470d483a23804b456","properties":{"id":"5228ff0470d483a23804b456","incentives_received":{"year_2011":false,"year_2012":true,"year_2013":false},"phone_number":"(617) 724-0578","address":{"address":"55 Fruit Street","city":"Boston","state":"Massachusetts","zip":"02114"},"name":"Bunker, Cheryl","npi":1952384752},"geometry":{"type":"Point","coordinates":[-71.069772,42.362505]}},{"type":"Feature","id":"5228ff0470d483a23804b434","properties":{"id":"5228ff0470d483a23804b434","incentives_received":{"year_2011":true,"year_2012":true,"year_2013":false},"phone_number":"(508) 852-0600","address":{"address":"630 Plantation St","city":"Worcester","state":"Massachusetts","zip":"01605"},"name":"Henczel, Henry","npi":1952382467},"geometry":{"type":"Point","coordinates":[-71.760988,42.29327]}},{"type":"Feature","id":"5228ff0470d483a23804b436","properties":{"id":"5228ff0470d483a23804b436","incentives_received":{"year_2011":true,"year_2012":true,"year_2013":false},"phone_number":"(508) 334-4465","address":{"address":"291 Lincoln St, Suite 203","city":"Worcester","state":"Massachusetts","zip":"01605"},"name":"MacGinnis, Christine","npi":1952382772},"geometry":{"type":"Point","coordinates":[-71.79753,42.273795]}},