[{"type":"Feature","id":"5228ff0670d483a23804d661","properties":{"id":"5228ff0670d483a23804d661","incentives_received":{"year_2011":true,"year_2011_amt":"18,000.00 ","year_2012":true,"year_2012_amt":"12,000.00 ","year_2013":false,"year_2013_amt":null},"phone_number":"(479) 770-0700","address":{"address":"325 S 6th Pl","city":"Lowell","state":"Arkansas","zip":"72745"},"name":"vonGremp, Alan","npi":1992933063},"geometry":{"type":"Point","coordinates":[-94.149762,36.25164]}},{"type":"Feature","id":"5228ff0570d483a23804d44f","properties":{"id":"5228ff0570d483a23804d44f","incentives_received":{"year_2011":true,"year_2011_amt":"18,000.00 ","year_2012":true,"year_2012_amt":"12,000.00 ","year_2013":false,"year_2013_amt":null},"phone_number":"(501) 767-1144","address":{"address":"2605 Albert Pike Rd","city":"Hot Springs","state":"Arkansas","zip":"71913"},"name":"Stecker, Elton","npi":1992804496},"geometry":{"type":"Point","coordinates":[-93.069439,34.490072]}},{"type":"Feature","id":"5228ff0570d483a23804d3c9","properties":{"id":"5228ff0570d483a23804d3c9","incentives_received":{"year_2011":true,"year_2011_amt":"18,000.00 ","year_2012":true,"year_2012_amt":"12,000.00 ","year_2013":false,"year_2013_amt":null},"phone_number":"(479) 314-4000","address":{"address":"2800 Fayetteville Rd","city":"Van Buren","state":"Arkansas","zip":"72956"},"name":"Baker, Robert","npi":1992793293},"geometry":{"type":"Point","coordinates":[-94.355949,35.477301]}},{"type":"Feature","id":"5228ff0570d483a23804d317","properties":{"id":"5228ff0570d483a23804d317","incentives_received":{"year_2011":false,"year_2011_amt":null,"year_2012":true,"year_2012_amt":"18,000.00 ","year_2013":false,"year_2013_amt":null},"phone_number":"(870) 239-4076","address":{"address":"1015 W Kingshighway","city":"Paragould","state":"Arkansas","zip":"72450"},"name":"Noel, Stacey","npi":1992781264},"geometry":{"type":"Point","coordinates":[-90.499199,36.052628]}},{"type":"Feature","id":"5228ff0570d483a23804d245","properties":{"id":"5228ff0570d483a23804d245","incentives_received":{"year_2011":false,"year_2011_amt":null,"year_2012":false,"year_2012_amt":null,"year_2013":true,"year_2013_amt":"15,000.00 "},"phone_number":"(870) 972-8181","address":{"address":"415 E Matthews Ave","city":"Jonesboro","state":"Arkansas","zip":"72401"},"name":"Tuetken, Lance","npi":1992767792},"geometry":{"type":"Point","coordinates":[-90.702251,35.83568]}},{"type":"Feature","id":"5228ff0570d483a23804d21e","properties":{"id":"5228ff0570d483a23804d21e","incentives_received":{"year_2011":false,"year_2011_amt":null,"year_2012":true,"year_2012_amt":"18,000.00 ","year_2013":false,"year_2013_amt":null},"phone_number":"(501) 835-0703","address":{"address":"1308 E Kiehl Ave","city":"Sherwood","state":"Arkansas","zip":"72120"},"name":"GERSON, DAVID","npi":1992765010},"geometry":{"type":"Point","coordinates":[-92.218081,34.832908]}},{"type":"Feature","id":"5228ff0570d483a23804d219","properties":{"id":"5228ff0570d483a23804d219","incentives_received":{"year_2011":false,"year_2011_amt":null,"year_2012":true,"year_2012_amt":"18,000.00 ","year_2013":false,"year_2013_amt":null},"phone_number":"(501) 778-8264","address":{"address":"819 W Carpenter St","city":"Benton","state":"Arkansas","zip":"72015"},"name":"Williams, Chrysti","npi":1992764518},"geometry":{"type":"Point","coordinates":[-92.590924,34.572912]}},{"type":"Feature","id":"5228ff0570d483a23804d1f6","properties":{"id":"5228ff0570d483a23804d1f6","incentives_received":{"year_2011":false,"year_2011_amt":null,"year_2012":true,"year_2012_amt":"18,000.00 ","year_2013":false,"year_2013_amt":null},"phone_number":"(870) 932-8222","address":{"address":"4901 E Johnson Ave","city":"Jonesboro","state":"Arkansas","zip":"72401"},"name":"Yawn, Melissa","npi":1992762504},"geometry":{"type":"Point","coordinates":[-90.637065,35.864128]}},{"type":"Feature","id":"5228ff0570d483a23804d19f","properties":{"id":"5228ff0570d483a23804d19f","incentives_received":{"year_2011":false,"year_2011_amt":null,"year_2012":true,"year_2012_amt":"18,000.00 ","year_2013":false,"year_2013_amt":null},"phone_number":"(479) 524-3141","address":{"address":"451 S Holly St","city":"Siloam Springs","state":"Arkansas","zip":"72761"},"name":"Clemens, Roy","npi":1992755367},"geometry":{"type":"Point","coordinates":[-94.558901,36.183118]}},{"type":"Feature","id":"5228ff0570d483a23804d0bd","properties":{"id":"5228ff0570d483a23804d0bd","incentives_received":{"year_2011":false,"year_2011_amt":null,"year_2012":true,"year_2012_amt":"18,000.00 ","year_2013":false,"year_2013_amt":null},"phone_number":"(870) 932-2211","address":{"address":"623 E Matthews Ave","city":"Jonesboro","state":"Arkansas","zip":"72401"},"name":"Wenger, Alyssa","npi":1992733562},"geometry":{"type":"Point","coordinates":[-90.69928,35.835647]}},{"type":"Feature","id":"5228ff0570d483a23804d0ba","properties":{"id":"5228ff0570d483a23804d0ba","incentives_received":{"year_2011":false,"year_2011_amt":null,"year_2012":true,"year_2012_amt":"18,000.00 ","year_2013":false,"year_2013_amt":null},"phone_number":"(479) 443-3536","address":{"address":"3340 N College Ave, Suite 5","city":"Fayetteville","state":"Arkansas","zip":"72703"},"name":"O'Connell, Joseph","npi":1992733422},"geometry":{"type":"Point","coordinates":[-94.145108,36.11344]}},{"type":"Feature","id":"5228ff0570d483a23804d01c","properties":{"id":"5228ff0570d483a23804d01c","incentives_received":{"year_2011":true,"year_2011_amt":"18,000.00 ","year_2012":true,"year_2012_amt":"12,000.00 ","year_2013":false,"year_2013_amt":null},"phone_number":"(870) 972-6040","address":{"address":"1000 Windover Ste. C","city":"Jonesboro","state":"Arkansas","zip":"72401"},"name":"Wilson, Cade","npi":1992716286},"geometry":{"type":"Point","coordinates":[-90.694798,35.81038]}},{"type":"Feature","id":"5228ff0570d483a23804cfa0","properties":{"id":"5228ff0570d483a23804cfa0","incentives_received":{"year_2011":false,"year_2011_amt":null,"year_2012":true,"year_2012_amt":"18,000.00 ","year_2013":false,"year_2013_amt":null},"phone_number":"(870) 207-7555","address":{"address":"303 E Matthews Ave Ste 202","city":"Jonesboro","state":"Arkansas","zip":"72401"},"name":"Rosca-Sichitiu, Raluca","npi":1992706188},"geometry":{"type":"Point","coordinates":[-90.703279,35.83568]}},{"type":"Feature","id":"5228ff0570d483a23804cf6a","properties":{"id":"5228ff0570d483a23804cf6a","incentives_received":{"year_2011":false,"year_2011_amt":null,"year_2012":true,"year_2012_amt":"18,000.00 ","year_2013":false,"year_2013_amt":null},"phone_number":"(501) 513-0799","address":{"address":"455 Hogan Ln","city":"Conway","state":"Arkansas","zip":"72034"},"name":"HEATH, KEVIN","npi":1992702336},"geometry":{"type":"Point","coordinates":[-92.498294,35.083586]}},{"type":"Feature","id":"5228ff0570d483a23804ceb3","properties":{"id":"5228ff0570d483a23804ceb3","incentives_received":{"year_2011":false,"year_2011_amt":null,"year_2012":true,"year_2012_amt":"18,000.00 ","year_2013":false,"year_2013_amt":null},"phone_number":"(870) 735-3664","address":{"address":"300 S Rhodes St","city":"West Memphis","state":"Arkansas","zip":"72301"},"name":"WHITT, JEREMY","npi":1982861985},"geometry":{"type":"Point","coordinates":[-90.187646,35.1441]}},{"type":"Feature","id":"5228ff0570d483a23804ceab","properties":{"id":"5228ff0570d483a23804ceab","incentives_received":{"year_2011":false,"year_2011_amt":null,"year_2012":true,"year_2012_amt":"18,000.00 ","year_2013":false,"year_2013_amt":null},"phone_number":"(870) 793-4400","address":{"address":"2615 Harrison St","city":"Batesville","state":"Arkansas","zip":"72501"},"name":"Davis, John","npi":1982860144},"geometry":{"type":"Point","coordinates":[-91.623645,35.769233]}},{"type":"Feature","id":"5228ff0570d483a23804ce6f","properties":{"id":"5228ff0570d483a23804ce6f","incentives_received":{"year_2011":false,"year_2011_amt":null,"year_2012":true,"year_2012_amt":"18,000.00 ","year_2013":false,"year_2013_amt":null},"phone_number":"(501) 663-3647","address":{"address":"600 S McKinley St","city":"Little Rock","state":"Arkansas","zip":"72205"},"name":"Ardoin, Gregory","npi":1982823217},"geometry":{"type":"Point","coordinates":[-92.345641,34.747386]}},{"type":"Feature","id":"5228ff0570d483a23804cd6b","properties":{"id":"5228ff0570d483a23804cd6b","incentives_received":{"year_2011":false,"year_2011_amt":null,"year_2012":true,"year_2012_amt":"18,000.00 ","year_2013":false,"year_2013_amt":null},"phone_number":"(501) 922-5778","address":{"address":"102 Plaza Carmona Place","city":"Hot Springs Village","state":"Arkansas","zip":"71909"},"name":"Semmler, Susan","npi":1982757985},"geometry":{"type":"Point","coordinates":[-92.998045,34.681481]}},{"type":"Feature","id":"5228ff0570d483a23804cbcc","properties":{"id":"5228ff0570d483a23804cbcc","incentives_received":{"year_2011":false,"year_2011_amt":null,"year_2012":true,"year_2012_amt":"18,000.00 ","year_2013":false,"year_2013_amt":null},"phone_number":"(501) 224-5658","address":{"address":"9800 Baptist Health Drive, Suite 400","city":"Little Rock","state":"Arkansas","zip":"72205"},"name":"Roberson, Michael","npi":1982689139},"geometry":{"type":"Point","coordinates":[-92.351206,34.750326]}},{"type":"Feature","id":"5228ff0570d483a23804ca1e","properties":{"id":"5228ff0570d483a23804ca1e","incentives_received":{"year_2011":true,"year_2011_amt":"6,815.53 ","year_2012":true,"year_2012_amt":"4,954.08 ","year_2013":false,"year_2013_amt":null},"phone_number":"(479) 273-1550","address":{"address":"2900 Moberly Ln","city":"Bentonville","state":"Arkansas","zip":"72712"},"name":"Goss, Stephen","npi":1982662185},"geometry":{"type":"Point","coordinates":[-94.183911,36.341953]}},{"type":"Feature","id":"5228ff0570d483a23804ca0b","properties":{"id":"5228ff0570d483a23804ca0b","incentives_received":{"year_2011":true,"year_2011_amt":"18,000.00 ","year_2012":true,"year_2012_amt":"12,000.00 ","year_2013":false,"year_2013_amt":null},"phone_number":"(479) 968-2345","address":{"address":"101 Skyline Dr","city":"Russellville","state":"Arkansas","zip":"72801"},"name":"BEAVERS, HOMER","npi":1982660742},"geometry":{"type":"Point","coordinates":[-93.164863,35.288308]}},{"type":"Feature","id":"5228ff0570d483a23804c8b4","properties":{"id":"5228ff0570d483a23804c8b4","incentives_received":{"year_2011":false,"year_2011_amt":null,"year_2012":true,"year_2012_amt":"18,000.00 ","year_2013":false,"year_2013_amt":null},"phone_number":"(870) 535-1819","address":{"address":"1222 W 42nd Ave","city":"Pine Bluff","state":"Arkansas","zip":"71603"},"name":"Justiss, Richard","npi":1982631313},"geometry":{"type":"Point","coordinates":[-92.014475,34.186937]}},{"type":"Feature","id":"5228ff0570d483a23804c82a","properties":{"id":"5228ff0570d483a23804c82a","incentives_received":{"year_2011":false,"year_2011_amt":null,"year_2012":true,"year_2012_amt":"18,000.00 ","year_2013":false,"year_2013_amt":null},"phone_number":"(870) 536-4100","address":{"address":"3805 W 28th Ave","city":"Pine Bluff","state":"Arkansas","zip":"71603"},"name":"Whittaker, Teri","npi":1982615977},"geometry":{"type":"Point","coordinates":[-92.042846,34.201823]}},{"type":"Feature","id":"5228ff0570d483a23804c817","properties":{"id":"5228ff0570d483a23804c817","incentives_received":{"year_2011":false,"year_2011_amt":null,"year_2012":true,"year_2012_amt":"18,000.00 ","year_2013":false,"year_2013_amt":null},"phone_number":"(479) 484-5600","address":{"address":"3420 S 74th St","city":"Fort Smith","state":"Arkansas","zip":"72903"},"name":"Stewart, Rowland","npi":1982613469},"geometry":{"type":"Point","coordinates":[-94.351167,35.350778]}},{"type":"Feature","id":"5228ff0570d483a23804c4dd","properties":{"id":"5228ff0570d483a23804c4dd","incentives_received":{"year_2011":false,"year_2011_amt":null,"year_2012":true,"year_2012_amt":"18,000.00 ","year_2013":false,"year_2013_amt":null},"phone_number":"(501) 982-2108","address":{"address":"1110 W Main St","city":"Jacksonville","state":"Arkansas","zip":"72076"},"name":"Burnett, Stacey","npi":1972605699},"geometry":{"type":"Point","coordinates":[-92.120207,34.867328]}},{"type":"Feature","id":"5228ff0570d483a23804c404","properties":{"id":"5228ff0570d483a23804c404","incentives_received":{"year_2011":false,"year_2011_amt":null,"year_2012":true,"year_2012_amt":"18,000.00 ","year_2013":false,"year_2013_amt":null},"phone_number":"(501) 224-5658","address":{"address":"9800 Baptist Health Drive, Ste 400","city":"Little Rock","state":"Arkansas","zip":"72205"},"name":"Clifton, Ernest","npi":1972588184},"geometry":{"type":"Point","coordinates":[-92.366884,34.760264]}},{"type":"Feature","id":"5228ff0570d483a23804c33a","properties":{"id":"5228ff0570d483a23804c33a","incentives_received":{"year_2011":false,"year_2011_amt":null,"year_2012":true,"year_2012_amt":"18,000.00 ","year_2013":false,"year_2013_amt":null},"phone_number":"(479) 636-9607","address":{"address":"101 NORTH 37TH","city":"ROGERS","state":"Arkansas","zip":"72756"},"name":"KALER, RONALD","npi":1972576072},"geometry":{"type":"Point","coordinates":[-94.169923,36.337248]}},{"type":"Feature","id":"5228ff0570d483a23804c330","properties":{"id":"5228ff0570d483a23804c330","incentives_received":{"year_2011":false,"year_2011_amt":null,"year_2012":true,"year_2012_amt":"18,000.00 ","year_2013":false,"year_2013_amt":null},"phone_number":"(870) 862-4216","address":{"address":"310 Thompson Ave","city":"El Dorado","state":"Arkansas","zip":"71730"},"name":"Kinslow, Ivory","npi":1972575702},"geometry":{"type":"Point","coordinates":[-92.670494,33.213668]}},{"type":"Feature","id":"5228ff0570d483a23804c326","properties":{"id":"5228ff0570d483a23804c326","incentives_received":{"year_2011":false,"year_2011_amt":null,"year_2012":true,"year_2012_amt":"18,000.00 ","year_2013":false,"year_2013_amt":null},"phone_number":"(870) 236-2400","address":{"address":"4700 W Kingshighway","city":"Paragould","state":"Arkansas","zip":"72450"},"name":"Schechter, Ron","npi":1972575264},"geometry":{"type":"Point","coordinates":[-90.548069,36.06012]}},{"type":"Feature","id":"5228ff0570d483a23804c2f1","properties":{"id":"5228ff0570d483a23804c2f1","incentives_received":{"year_2011":false,"year_2011_amt":null,"year_2012":true,"year_2012_amt":"18,000.00 ","year_2013":false,"year_2013_amt":null},"phone_number":"(870) 935-4150","address":{"address":"311 Matthews Avenue","city":"Jonesboro","state":"Arkansas","zip":"72401"},"name":"Isaacson, Michael","npi":1972572097},"geometry":{"type":"Point","coordinates":[-90.703215,35.835681]}},{"type":"Feature","id":"5228ff0570d483a23804c2e4","properties":{"id":"5228ff0570d483a23804c2e4","incentives_received":{"year_2011":false,"year_2011_amt":null,"year_2012":true,"year_2012_amt":"18,000.00 ","year_2013":false,"year_2013_amt":null},"phone_number":"(501) 268-1818","address":{"address":"707 Marion St","city":"Searcy","state":"Arkansas","zip":"72143"},"name":"Kiihnl, Michael","npi":1972571289},"geometry":{"type":"Point","coordinates":[-91.704486,35.251733]}},{"type":"Feature","id":"5228ff0570d483a23804c2e2","properties":{"id":"5228ff0570d483a23804c2e2","incentives_received":{"year_2011":false,"year_2011_amt":null,"year_2012":true,"year_2012_amt":"18,000.00 ","year_2013":false,"year_2013_amt":null},"phone_number":"(479) 709-6700","address":{"address":"3501 WE Knight Dr","city":"Fort Smith","state":"Arkansas","zip":"72903"},"name":"Jones, Greg","npi":1972571248},"geometry":{"type":"Point","coordinates":[-94.358542,35.358156]}},{"type":"Feature","id":"5228ff0570d483a23804c2ae","properties":{"id":"5228ff0570d483a23804c2ae","incentives_received":{"year_2011":false,"year_2011_amt":null,"year_2012":true,"year_2012_amt":"18,000.00 ","year_2013":false,"year_2013_amt":null},"phone_number":"(501) 278-2808","address":{"address":"2900 Hawkins Dr","city":"Searcy","state":"Arkansas","zip":"72143"},"name":"Pace, Daniel","npi":1972567758},"geometry":{"type":"Point","coordinates":[-91.704413,35.251595]}},{"type":"Feature","id":"5228ff0570d483a23804c144","properties":{"id":"5228ff0570d483a23804c144","incentives_received":{"year_2011":false,"year_2011_amt":null,"year_2012":true,"year_2012_amt":"18,000.00 ","year_2013":false,"year_2013_amt":null},"phone_number":"(501) 661-9393","address":{"address":"5800 W 10th Street, Suite 610 Freeway Medical Center","city":"Little Rock","state":"Arkansas","zip":"72204"},"name":"Abraham, Ladly","npi":1972537090},"geometry":{"type":"Point","coordinates":[-92.336918,34.743123]}},{"type":"Feature","id":"5228ff0470d483a23804c041","properties":{"id":"5228ff0470d483a23804c041","incentives_received":{"year_2011":false,"year_2011_amt":null,"year_2012":true,"year_2012_amt":"18,000.00 ","year_2013":false,"year_2013_amt":null},"phone_number":"(501) 843-5757","address":{"address":"1911 N 2nd St","city":"Cabot","state":"Arkansas","zip":"72023"},"name":"SHURLEY, FLOYD","npi":1972509040},"geometry":{"type":"Point","coordinates":[-92.002317,34.986763]}},{"type":"Feature","id":"5228ff0470d483a23804bf7f","properties":{"id":"5228ff0470d483a23804bf7f","incentives_received":{"year_2011":false,"year_2011_amt":null,"year_2012":true,"year_2012_amt":"18,000.00 ","year_2013":false,"year_2013_amt":null},"phone_number":"(501) 279-9393","address":{"address":"711 Santa Fe Dr","city":"Searcy","state":"Arkansas","zip":"72143"},"name":"Robinson, Eric","npi":1962695668},"geometry":{"type":"Point","coordinates":[-91.819549,35.233596]}},{"type":"Feature","id":"5228ff0470d483a23804bef6","properties":{"id":"5228ff0470d483a23804bef6","incentives_received":{"year_2011":false,"year_2011_amt":null,"year_2012":true,"year_2012_amt":"18,000.00 ","year_2013":false,"year_2013_amt":null},"phone_number":"(479) 442-6266","address":{"address":"55 W Sunbridge Dr","city":"Fayetteville","state":"Arkansas","zip":"72703"},"name":"Johnson, Kelly","npi":1962627976},"geometry":{"type":"Point","coordinates":[-94.159712,36.098103]}},{"type":"Feature","id":"5228ff0470d483a23804bb2e","properties":{"id":"5228ff0470d483a23804bb2e","incentives_received":{"year_2011":true,"year_2011_amt":"18,000.00 ","year_2012":true,"year_2012_amt":"12,000.00 ","year_2013":false,"year_2013_amt":null},"phone_number":"(479) 331-3880","address":{"address":"8970 S. Market Street","city":"Dover","state":"Arkansas","zip":"72837"},"name":"THURLBY, WILLIAM","npi":1962468629},"geometry":{"type":"Point","coordinates":[-93.113749,35.393667]}},{"type":"Feature","id":"5228ff0470d483a23804bb1b","properties":{"id":"5228ff0470d483a23804bb1b","incentives_received":{"year_2011":false,"year_2011_amt":null,"year_2012":true,"year_2012_amt":"18,000.00 ","year_2013":false,"year_2013_amt":null},"phone_number":"(501) 278-2808","address":{"address":"2900 Hawkins Dr","city":"Searcy","state":"Arkansas","zip":"72143"},"name":"Patrick, Donald","npi":1962466748},"geometry":{"type":"Point","coordinates":[-91.704413,35.251595]}},{"type":"Feature","id":"5228ff0470d483a23804babc","properties":{"id":"5228ff0470d483a23804babc","incentives_received":{"year_2011":true,"year_2011_amt":"18,000.00 ","year_2012":true,"year_2012_amt":"12,000.00 ","year_2013":false,"year_2013_amt":null},"phone_number":"(479) 273-7700","address":{"address":"1001 Horsebarn Road","city":"Rogers","state":"Arkansas","zip":"72758"},"name":"Friesen, Douglas","npi":1962460519},"geometry":{"type":"Point","coordinates":[-94.188665,36.32688]}},{"type":"Feature","id":"5228ff0470d483a23804ba2e","properties":{"id":"5228ff0470d483a23804ba2e","incentives_received":{"year_2011":false,"year_2011_amt":null,"year_2012":true,"year_2012_amt":"18,000.00 ","year_2013":false,"year_2013_amt":null},"phone_number":"(501) 255-6000","address":{"address":"10100 Kanis Rd","city":"Little Rock","state":"Arkansas","zip":"72205"},"name":"CLOGSTON, CHARLES","npi":1962449728},"geometry":{"type":"Point","coordinates":[-92.386621,34.742889]}},{"type":"Feature","id":"5228ff0470d483a23804ba09","properties":{"id":"5228ff0470d483a23804ba09","incentives_received":{"year_2011":false,"year_2011_amt":null,"year_2012":true,"year_2012_amt":"18,000.00 ","year_2013":false,"year_2013_amt":null},"phone_number":"(501) 835-9444","address":{"address":"3401 Springhill Dr, Suite 390","city":"North Little Rock","state":"Arkansas","zip":"72117"},"name":"Keller, Alfred","npi":1962446138},"geometry":{"type":"Point","coordinates":[-92.218699,34.78404]}},{"type":"Feature","id":"5228ff0470d483a23804b892","properties":{"id":"5228ff0470d483a23804b892","incentives_received":{"year_2011":false,"year_2011_amt":null,"year_2012":true,"year_2012_amt":"18,000.00 ","year_2013":false,"year_2013_amt":null},"phone_number":"(870) 425-6971","address":{"address":"630 Burnett Dr","city":"Mountain Home","state":"Arkansas","zip":"72653"},"name":"Robinson, Lonnie","npi":1962408435},"geometry":{"type":"Point","coordinates":[-92.396569,36.340139]}},{"type":"Feature","id":"5228ff0470d483a23804b888","properties":{"id":"5228ff0470d483a23804b888","incentives_received":{"year_2011":true,"year_2011_amt":"18,000.00 ","year_2012":true,"year_2012_amt":"12,000.00 ","year_2013":false,"year_2013_amt":null},"phone_number":"(870) 935-6729","address":{"address":"201 E Oak Ave","city":"Jonesboro","state":"Arkansas","zip":"72401"},"name":"Al-Hallak, Ammar","npi":1962407940},"geometry":{"type":"Point","coordinates":[-90.704146,35.833836]}},{"type":"Feature","id":"5228ff0470d483a23804b801","properties":{"id":"5228ff0470d483a23804b801","incentives_received":{"year_2011":false,"year_2011_amt":null,"year_2012":true,"year_2012_amt":"8,620.22 ","year_2013":false,"year_2013_amt":null},"phone_number":"(501) 450-9191","address":{"address":"201 Skyline Dr, Suite 37","city":"Conway","state":"Arkansas","zip":"72032"},"name":"Hall, Celina","npi":1952614869},"geometry":{"type":"Point","coordinates":[-92.435113,35.111969]}},{"type":"Feature","id":"5228ff0470d483a23804b78c","properties":{"id":"5228ff0470d483a23804b78c","incentives_received":{"year_2011":false,"year_2011_amt":null,"year_2012":true,"year_2012_amt":"18,000.00 ","year_2013":false,"year_2013_amt":null},"phone_number":"(479) 442-2822","address":{"address":"2523 E Huntsville Rd","city":"Fayetteville","state":"Arkansas","zip":"72701"},"name":"Layer, Leah","npi":1952559080},"geometry":{"type":"Point","coordinates":[-94.127582,36.053269]}},{"type":"Feature","id":"5228ff0470d483a23804b6e6","properties":{"id":"5228ff0470d483a23804b6e6","incentives_received":{"year_2011":true,"year_2011_amt":"18,000.00 ","year_2012":true,"year_2012_amt":"12,000.00 ","year_2013":false,"year_2013_amt":null},"phone_number":"(501) 337-9031","address":{"address":"2223 Grant St","city":"Malvern","state":"Arkansas","zip":"72104"},"name":"Burton, Bruce","npi":1952497240},"geometry":{"type":"Point","coordinates":[-92.786365,34.360145]}},{"type":"Feature","id":"5228ff0470d483a23804b52a","properties":{"id":"5228ff0470d483a23804b52a","incentives_received":{"year_2011":false,"year_2011_amt":null,"year_2012":true,"year_2012_amt":"18,000.00 ","year_2013":false,"year_2013_amt":null},"phone_number":"(870) 932-1198","address":{"address":"300 Carson St","city":"Jonesboro","state":"Arkansas","zip":"72401"},"name":"Forte, Joseph","npi":1952397440},"geometry":{"type":"Point","coordinates":[-90.701247,35.840759]}},{"type":"Feature","id":"5228ff0470d483a23804b499","properties":{"id":"5228ff0470d483a23804b499","incentives_received":{"year_2011":false,"year_2011_amt":null,"year_2012":true,"year_2012_amt":"18,000.00 ","year_2013":false,"year_2013_amt":null},"phone_number":"(501) 663-3647","address":{"address":"600 S McKinley St","city":"Little Rock","state":"Arkansas","zip":"72205"},"name":"Bruffett, Wayne","npi":1952389280},"geometry":{"type":"Point","coordinates":[-92.345641,34.747386]}},{"type":"Feature","id":"5228ff0470d483a23804b397","properties":{"id":"5228ff0470d483a23804b397","incentives_received":{"year_2011":false,"year_2011_amt":null,"year_2012":true,"year_2012_amt":"18,000.00 ","year_2013":false,"year_2013_amt":null},"phone_number":"(870) 935-1242","address":{"address":"1005 E Matthews Ave","city":"Jonesboro","state":"Arkansas","zip":"72401"},"name":"Wiggins, Horace","npi":1952372567},"geometry":{"type":"Point","coordinates":[-90.695155,35.835648]}},{"type":"Feature","id":"5228ff0470d483a23804b38f","properties":{"id":"5228ff0470d483a23804b38f","incentives_received":{"year_2011":false,"year_2011_amt":null,"year_2012":true,"year_2012_amt":"18,000.00 ","year_2013":false,"year_2013_amt":null},"phone_number":"(479) 587-1700","address":{"address":"3232 N Northhills Blvd","city":"Fayetteville","state":"Arkansas","zip":"72703"},"name":"Beck, J","npi":1952372120},"geometry":{"type":"Point","coordinates":[-94.156191,36.109403]}},{"type":"Feature","id":"5228ff0470d483a23804b33e","properties":{"id":"5228ff0470d483a23804b33e","incentives_received":{"year_2011":false,"year_2011_amt":null,"year_2012":true,"year_2012_amt":"18,000.00 ","year_2013":false,"year_2013_amt":null},"phone_number":"(870) 935-5432","address":{"address":"1111 Windover Rd","city":"Jonesboro","state":"Arkansas","zip":"72401"},"name":"Murrey, James","npi":1952367286},"geometry":{"type":"Point","coordinates":[-90.694274,35.810597]}},{"type":"Feature","id":"5228ff0470d483a23804b333","properties":{"id":"5228ff0470d483a23804b333","incentives_received":{"year_2011":false,"year_2011_amt":null,"year_2012":true,"year_2012_amt":"18,000.00 ","year_2013":false,"year_2013_amt":null},"phone_number":"(870) 425-4402","address":{"address":"628 Hospital Dr, GROUND FLOOR, SUITE A","city":"Mountain Home","state":"Arkansas","zip":"72653"},"name":"MACKERCHER, PETER","npi":1952366510},"geometry":{"type":"Point","coordinates":[-92.272289,36.297168]}},{"type":"Feature","id":"5228ff0470d483a23804b2db","properties":{"id":"5228ff0470d483a23804b2db","incentives_received":{"year_2011":false,"year_2011_amt":null,"year_2012":true,"year_2012_amt":"12,735.87 ","year_2013":false,"year_2013_amt":null},"phone_number":"(870) 368-4344","address":{"address":"1526 E. Main Street","city":"Melbourne","state":"Arkansas","zip":"72556"},"name":"Jordan, Susan","npi":1952361776},"geometry":{"type":"Point","coordinates":[-91.857737,36.058798]}},{"type":"Feature","id":"5228ff0470d483a23804b142","properties":{"id":"5228ff0470d483a23804b142","incentives_received":{"year_2011":false,"year_2011_amt":null,"year_2012":true,"year_2012_amt":"18,000.00 ","year_2013":false,"year_2013_amt":null},"phone_number":"(870) 934-5600","address":{"address":"3100 Apache Dr., Suite B3","city":"Jonesboro","state":"Arkansas","zip":"72401"},"name":"Sills, Adam","npi":1952326951},"geometry":{"type":"Point","coordinates":[-90.66688,35.809377]}},{"type":"Feature","id":"5228ff0470d483a23804b08c","properties":{"id":"5228ff0470d483a23804b08c","incentives_received":{"year_2011":false,"year_2011_amt":null,"year_2012":true,"year_2012_amt":"18,000.00 ","year_2013":false,"year_2013_amt":null},"phone_number":"(501) 985-5900","address":{"address":"1300 Braden St","city":"Jacksonville","state":"Arkansas","zip":"72076"},"name":"SHORT, HAROLD","npi":1952307860},"geometry":{"type":"Point","coordinates":[-92.12257,34.872313]}},{"type":"Feature","id":"5228ff0470d483a23804b042","properties":{"id":"5228ff0470d483a23804b042","incentives_received":{"year_2011":true,"year_2011_amt":"18,000.00 ","year_2012":true,"year_2012_amt":"12,000.00 ","year_2013":false,"year_2013_amt":null},"phone_number":"(501) 321-2229","address":{"address":"118 Womens Center Lane, Suite B","city":"Hot Springs","state":"Arkansas","zip":"71913"},"name":"Jackson, Haynes","npi":1952302457},"geometry":{"type":"Point","coordinates":[-93.149997,34.511757]}},{"type":"Feature","id":"5228ff0470d483a23804b031","properties":{"id":"5228ff0470d483a23804b031","incentives_received":{"year_2011":true,"year_2011_amt":"18,000.00 ","year_2012":true,"year_2012_amt":"12,000.00 ","year_2013":false,"year_2013_amt":null},"phone_number":"(501) 915-0837","address":{"address":"1900 MALVERN AVE, Suite 301","city":"Hot Springs National Park","state":"Arkansas","zip":"71901"},"name":"Pullig, Thomas","npi":1952301343},"geometry":{"type":"Point","coordinates":[-93.033908,34.486803]}},{"type":"Feature","id":"5228ff0470d483a23804ad77","properties":{"id":"5228ff0470d483a23804ad77","incentives_received":{"year_2011":false,"year_2011_amt":null,"year_2012":true,"year_2012_amt":"18,000.00 ","year_2013":false,"year_2013_amt":null},"phone_number":"(479) 709-8686","address":{"address":"3500 We Knight Dr","city":"Fort Smith","state":"Arkansas","zip":"72903"},"name":"COLLINS, VERA","npi":1942299482},"geometry":{"type":"Point","coordinates":[-94.358542,35.358156]}},{"type":"Feature","id":"5228ff0470d483a23804acca","properties":{"id":"5228ff0470d483a23804acca","incentives_received":{"year_2011":false,"year_2011_amt":null,"year_2012":true,"year_2012_amt":"18,000.00 ","year_2013":false,"year_2013_amt":null},"phone_number":"(501) 604-6900","address":{"address":"10301 Kanis Rd","city":"Little Rock","state":"Arkansas","zip":"72205"},"name":"Chesser, Michael","npi":1942289293},"geometry":{"type":"Point","coordinates":[-92.388637,34.742831]}},{"type":"Feature","id":"5228ff0370d483a23804ac15","properties":{"id":"5228ff0370d483a23804ac15","incentives_received":{"year_2011":true,"year_2011_amt":"18,000.00 ","year_2012":true,"year_2012_amt":"12,000.00 ","year_2013":false,"year_2013_amt":null},"phone_number":"(501) 327-5850","address":{"address":"495 Hogan Lane, Suite 2","city":"Conway","state":"Arkansas","zip":"72034"},"name":"Marotte, Jeffrey","npi":1942276316},"geometry":{"type":"Point","coordinates":[-92.498266,35.084276]}},{"type":"Feature","id":"5228ff0370d483a23804ab91","properties":{"id":"5228ff0370d483a23804ab91","incentives_received":{"year_2011":true,"year_2011_amt":"18,000.00 ","year_2012":true,"year_2012_amt":"12,000.00 ","year_2013":false,"year_2013_amt":null},"phone_number":"(479) 636-0110","address":{"address":"5204 W Redbud Street","city":"Rogers","state":"Arkansas","zip":"72758"},"name":"Black, Randall","npi":1942268909},"geometry":{"type":"Point","coordinates":[-94.188792,36.325536]}},{"type":"Feature","id":"5228ff0370d483a23804ab98","properties":{"id":"5228ff0370d483a23804ab98","incentives_received":{"year_2011":true,"year_2011_amt":"18,000.00 ","year_2012":true,"year_2012_amt":"12,000.00 ","year_2013":false,"year_2013_amt":null},"phone_number":"(501) 332-8612","address":{"address":"1424 Tanner St","city":"Rockport","state":"Arkansas","zip":"72104"},"name":"Kazakevicius, Rimantas","npi":1942269188},"geometry":{"type":"Point","coordinates":[-92.829349,34.385349]}},{"type":"Feature","id":"5228ff0370d483a23804ab7d","properties":{"id":"5228ff0370d483a23804ab7d","incentives_received":{"year_2011":false,"year_2011_amt":null,"year_2012":true,"year_2012_amt":"18,000.00 ","year_2013":false,"year_2013_amt":null},"phone_number":"(870) 932-8222","address":{"address":"4901 E Johnson Ave","city":"Jonesboro","state":"Arkansas","zip":"72401"},"name":"Barber, Jeffery","npi":1942267513},"geometry":{"type":"Point","coordinates":[-90.637065,35.864128]}},{"type":"Feature","id":"5228ff0370d483a23804ab2a","properties":{"id":"5228ff0370d483a23804ab2a","incentives_received":{"year_2011":false,"year_2011_amt":null,"year_2012":false,"year_2012_amt":null,"year_2013":true,"year_2013_amt":"15,000.00 "},"phone_number":"(870) 935-4150","address":{"address":"311 Matthews Ave","city":"Jonesboro","state":"Arkansas","zip":"72401"},"name":"Patel, D","npi":1942262571},"geometry":{"type":"Point","coordinates":[-90.703215,35.835681]}},{"type":"Feature","id":"5228ff0370d483a23804aa7d","properties":{"id":"5228ff0370d483a23804aa7d","incentives_received":{"year_2011":false,"year_2011_amt":null,"year_2012":true,"year_2012_amt":"18,000.00 ","year_2013":false,"year_2013_amt":null},"phone_number":"(501) 221-0888","address":{"address":"10000 N Rodney Parham Rd","city":"Little Rock","state":"Arkansas","zip":"72227"},"name":"Ramaswamy, Srinivasan","npi":1942247317},"geometry":{"type":"Point","coordinates":[-92.384699,34.764333]}},{"type":"Feature","id":"5228ff0370d483a23804aa18","properties":{"id":"5228ff0370d483a23804aa18","incentives_received":{"year_2011":false,"year_2011_amt":null,"year_2012":true,"year_2012_amt":"18,000.00 ","year_2013":false,"year_2013_amt":null},"phone_number":"(501) 227-6797","address":{"address":"9600 Baptist Health Dr, Suite 230","city":"Little Rock","state":"Arkansas","zip":"72205"},"name":"Moseley, Thomas","npi":1942238340},"geometry":{"type":"Point","coordinates":[-92.351206,34.750326]}},{"type":"Feature","id":"5228ff0370d483a23804a8e4","properties":{"id":"5228ff0370d483a23804a8e4","incentives_received":{"year_2011":true,"year_2011_amt":"18,000.00 ","year_2012":false,"year_2012_amt":null,"year_2013":false,"year_2013_amt":null},"phone_number":"(479) 754-2500","address":{"address":"1130 S Rogers St","city":"Clarksville","state":"Arkansas","zip":"72830"},"name":"Kerbs, Robert","npi":1942207964},"geometry":{"type":"Point","coordinates":[-93.46059,35.4594]}},{"type":"Feature","id":"5228ff0370d483a23804a83a","properties":{"id":"5228ff0370d483a23804a83a","incentives_received":{"year_2011":false,"year_2011_amt":null,"year_2012":true,"year_2012_amt":"11,115.45 ","year_2013":false,"year_2013_amt":null},"phone_number":"(479) 968-2345","address":{"address":"101 Skyline Dr","city":"Russellville","state":"Arkansas","zip":"72801"},"name":"Teeter, Stanley","npi":1932401080},"geometry":{"type":"Point","coordinates":[-93.164863,35.288308]}},{"type":"Feature","id":"5228ff0370d483a23804a817","properties":{"id":"5228ff0370d483a23804a817","incentives_received":{"year_2011":true,"year_2011_amt":"18,000.00 ","year_2012":true,"year_2012_amt":"12,000.00 ","year_2013":false,"year_2013_amt":null},"phone_number":"(501) 623-9300","address":{"address":"1900 Malvern Ave, Suite 301","city":"Hot Springs National Park","state":"Arkansas","zip":"71901"},"name":"Latham, Christian","npi":1932386646},"geometry":{"type":"Point","coordinates":[-93.033908,34.486803]}},{"type":"Feature","id":"5228ff0370d483a23804a75f","properties":{"id":"5228ff0370d483a23804a75f","incentives_received":{"year_2011":false,"year_2011_amt":null,"year_2012":true,"year_2012_amt":"18,000.00 ","year_2013":false,"year_2013_amt":null},"phone_number":"(501) 278-2800","address":{"address":"2900 Hawkins Dr","city":"Searcy","state":"Arkansas","zip":"72143"},"name":"Franz, Justin","npi":1932300530},"geometry":{"type":"Point","coordinates":[-91.704413,35.251595]}},{"type":"Feature","id":"5228ff0370d483a23804a678","properties":{"id":"5228ff0370d483a23804a678","incentives_received":{"year_2011":false,"year_2011_amt":null,"year_2012":true,"year_2012_amt":"18,000.00 ","year_2013":false,"year_2013_amt":null},"phone_number":"(501) 663-3647","address":{"address":"600 S McKinley St","city":"Little Rock","state":"Arkansas","zip":"72205"},"name":"Seale, Jared","npi":1932242153},"geometry":{"type":"Point","coordinates":[-92.345641,34.747386]}},{"type":"Feature","id":"5228ff0370d483a23804a580","properties":{"id":"5228ff0370d483a23804a580","incentives_received":{"year_2011":false,"year_2011_amt":null,"year_2012":true,"year_2012_amt":"18,000.00 ","year_2013":false,"year_2013_amt":null},"phone_number":"(501) 666-0249","address":{"address":"417 N University Ave","city":"Little Rock","state":"Arkansas","zip":"72205"},"name":"Kumpuris, D","npi":1932197118},"geometry":{"type":"Point","coordinates":[-92.340949,34.754822]}},{"type":"Feature","id":"5228ff0370d483a23804a55a","properties":{"id":"5228ff0370d483a23804a55a","incentives_received":{"year_2011":false,"year_2011_amt":null,"year_2012":true,"year_2012_amt":"18,000.00 ","year_2013":false,"year_2013_amt":null},"phone_number":"(870) 862-2400","address":{"address":"600 S Timberlane Dr","city":"El Dorado","state":"Arkansas","zip":"71730"},"name":"Hatley, Russell","npi":1932194974},"geometry":{"type":"Point","coordinates":[-92.68727,33.20582]}},{"type":"Feature","id":"5228ff0370d483a23804a520","properties":{"id":"5228ff0370d483a23804a520","incentives_received":{"year_2011":false,"year_2011_amt":null,"year_2012":true,"year_2012_amt":"18,000.00 ","year_2013":false,"year_2013_amt":null},"phone_number":"(501) 604-6900","address":{"address":"10301 Kanis Rd","city":"Little Rock","state":"Arkansas","zip":"72205"},"name":"Hudson, Stephen","npi":1932191814},"geometry":{"type":"Point","coordinates":[-92.388637,34.742831]}},{"type":"Feature","id":"5228ff0370d483a23804a51f","properties":{"id":"5228ff0370d483a23804a51f","incentives_received":{"year_2011":false,"year_2011_amt":null,"year_2012":true,"year_2012_amt":"18,000.00 ","year_2013":false,"year_2013_amt":null},"phone_number":"(501) 604-6900","address":{"address":"10301 Kanis Rd","city":"Little Rock","state":"Arkansas","zip":"72205"},"name":"Barnett, David","npi":1932191616},"geometry":{"type":"Point","coordinates":[-92.388637,34.742831]}},{"type":"Feature","id":"5228ff0370d483a23804a470","properties":{"id":"5228ff0370d483a23804a470","incentives_received":{"year_2011":true,"year_2011_amt":"18,000.00 ","year_2012":true,"year_2012_amt":"12,000.00 ","year_2013":false,"year_2013_amt":null},"phone_number":"(501) 623-9300","address":{"address":"1900 Malvern Ave, Suite 301","city":"Hot Springs National Park","state":"Arkansas","zip":"71901"},"name":"Martin, Adriane","npi":1932179991},"geometry":{"type":"Point","coordinates":[-93.033908,34.486803]}},{"type":"Feature","id":"5228ff0370d483a23804a46f","properties":{"id":"5228ff0370d483a23804a46f","incentives_received":{"year_2011":true,"year_2011_amt":"6,996.69 ","year_2012":true,"year_2012_amt":"12,000.00 ","year_2013":false,"year_2013_amt":null},"phone_number":"(870) 483-0096","address":{"address":"807 West Main, Suite B, PO box 605","city":"Trumann","state":"Arkansas","zip":"72472"},"name":"Howell, Angela","npi":1932179942},"geometry":{"type":"Point","coordinates":[-90.561977,35.588215]}},{"type":"Feature","id":"5228ff0370d483a23804a456","properties":{"id":"5228ff0370d483a23804a456","incentives_received":{"year_2011":false,"year_2011_amt":null,"year_2012":true,"year_2012_amt":"18,000.00 ","year_2013":false,"year_2013_amt":null},"phone_number":"(501) 327-1150","address":{"address":"495 HOGAN RD, STE 1","city":"CONWAY","state":"Arkansas","zip":"72034"},"name":"TILLEY, JAMES","npi":1932178332},"geometry":{"type":"Point","coordinates":[-92.494275,35.098779]}},{"type":"Feature","id":"5228ff0370d483a23804a385","properties":{"id":"5228ff0370d483a23804a385","incentives_received":{"year_2011":true,"year_2011_amt":"18,000.00 ","year_2012":true,"year_2012_amt":"12,000.00 ","year_2013":false,"year_2013_amt":null},"phone_number":"(479) 968-2345","address":{"address":"101 Skyline Dr","city":"Russellville","state":"Arkansas","zip":"72801"},"name":"YATES, JEFF","npi":1932165024},"geometry":{"type":"Point","coordinates":[-93.164863,35.288308]}},{"type":"Feature","id":"5228ff0370d483a23804a17c","properties":{"id":"5228ff0370d483a23804a17c","incentives_received":{"year_2011":false,"year_2011_amt":null,"year_2012":true,"year_2012_amt":"18,000.00 ","year_2013":false,"year_2013_amt":null},"phone_number":"(479) 751-3202","address":{"address":"724 Deaver St","city":"Springdale","state":"Arkansas","zip":"72764"},"name":"MORRISON, STEPHEN","npi":1932119252},"geometry":{"type":"Point","coordinates":[-94.137801,36.178417]}},{"type":"Feature","id":"5228ff0370d483a23804a0b1","properties":{"id":"5228ff0370d483a23804a0b1","incentives_received":{"year_2011":true,"year_2011_amt":"6,985.90 ","year_2012":true,"year_2012_amt":"7,586.20 ","year_2013":false,"year_2013_amt":null},"phone_number":"(870) 773-7246","address":{"address":"1414 Arkansas Blvd","city":"Texarkana","state":"Arkansas","zip":"71854"},"name":"Raker, James","npi":1932103892},"geometry":{"type":"Point","coordinates":[-94.028097,33.460683]}},{"type":"Feature","id":"5228ff0370d483a23804a055","properties":{"id":"5228ff0370d483a23804a055","incentives_received":{"year_2011":false,"year_2011_amt":null,"year_2012":false,"year_2012_amt":null,"year_2013":true,"year_2013_amt":"15,000.00 "},"phone_number":"(501) 604-6900","address":{"address":"10301 Kanis Rd","city":"Little Rock","state":"Arkansas","zip":"72205"},"name":"Wallace, Henry","npi":1922327485},"geometry":{"type":"Point","coordinates":[-92.388637,34.742831]}},{"type":"Feature","id":"5228ff0370d483a238049ffd","properties":{"id":"5228ff0370d483a238049ffd","incentives_received":{"year_2011":false,"year_2011_amt":null,"year_2012":true,"year_2012_amt":"18,000.00 ","year_2013":false,"year_2013_amt":null},"phone_number":"(501) 354-0052","address":{"address":"10 Hospital Dr, Morrilton Medical Clinic, P.A.","city":"Morrilton","state":"Arkansas","zip":"72110"},"name":"Trauth, Kyle","npi":1922268911},"geometry":{"type":"Point","coordinates":[-92.720249,35.167338]}},{"type":"Feature","id":"5228ff0370d483a238049df4","properties":{"id":"5228ff0370d483a238049df4","incentives_received":{"year_2011":true,"year_2011_amt":"18,000.00 ","year_2012":true,"year_2012_amt":"12,000.00 ","year_2013":false,"year_2013_amt":null},"phone_number":"(501) 767-1144","address":{"address":"2605 Albert Pike Rd","city":"Hot Springs","state":"Arkansas","zip":"71913"},"name":"Oxner, Troy","npi":1922102235},"geometry":{"type":"Point","coordinates":[-93.069439,34.490072]}},{"type":"Feature","id":"5228ff0370d483a238049d3c","properties":{"id":"5228ff0370d483a238049d3c","incentives_received":{"year_2011":true,"year_2011_amt":"18,000.00 ","year_2012":true,"year_2012_amt":"12,000.00 ","year_2013":false,"year_2013_amt":null},"phone_number":"(501) 329-1510","address":{"address":"550Club Lane, Suite 1","city":"Conway","state":"Arkansas","zip":"72034"},"name":"Dodge, Benjamin","npi":1922090471},"geometry":{"type":"Point","coordinates":[-92.494275,35.098779]}},{"type":"Feature","id":"5228ff0370d483a238049c80","properties":{"id":"5228ff0370d483a238049c80","incentives_received":{"year_2011":true,"year_2011_amt":"10,780.61 ","year_2012":true,"year_2012_amt":"11,726.52 ","year_2013":false,"year_2013_amt":null},"phone_number":"(501) 224-5500","address":{"address":"1 Lile Ct Ste 200","city":"Little Rock","state":"Arkansas","zip":"72205"},"name":"CHANDLER, KAY","npi":1922075746},"geometry":{"type":"Point","coordinates":[-92.377879,34.745655]}},{"type":"Feature","id":"5228ff0370d483a238049bea","properties":{"id":"5228ff0370d483a238049bea","incentives_received":{"year_2011":true,"year_2011_amt":"18,000.00 ","year_2012":true,"year_2012_amt":"12,000.00 ","year_2013":false,"year_2013_amt":null},"phone_number":"(870) 633-1174","address":{"address":"330 Dillard St","city":"Forrest City","state":"Arkansas","zip":"72335"},"name":"Morris, Dale","npi":1922067115},"geometry":{"type":"Point","coordinates":[-90.787114,35.011592]}},{"type":"Feature","id":"5228ff0370d483a238049989","properties":{"id":"5228ff0370d483a238049989","incentives_received":{"year_2011":true,"year_2011_amt":null,"year_2012":false,"year_2012_amt":null,"year_2013":false,"year_2013_amt":null},"phone_number":null,"address":{"address":"230 Highway 5 N, # 10","city":"Mountain Home","state":"Arkansas","zip":null},"name":"Hatch, Kala","npi":1922015239},"geometry":{"type":"Point","coordinates":[-91.837584,35.419674]}},{"type":"Feature","id":"5228ff0370d483a238049923","properties":{"id":"5228ff0370d483a238049923","incentives_received":{"year_2011":false,"year_2011_amt":null,"year_2012":true,"year_2012_amt":"18,000.00 ","year_2013":false,"year_2013_amt":null},"phone_number":"(501) 224-5220","address":{"address":"9600 Baptist Health Dr, Suite 100","city":"Little Rock","state":"Arkansas","zip":"72205"},"name":"Roach, M Carey","npi":1922005974},"geometry":{"type":"Point","coordinates":[-92.351206,34.750326]}},{"type":"Feature","id":"5228ff0370d483a2380498f1","properties":{"id":"5228ff0370d483a2380498f1","incentives_received":{"year_2011":false,"year_2011_amt":null,"year_2012":true,"year_2012_amt":"14,381.22 ","year_2013":false,"year_2013_amt":null},"phone_number":"(501) 548-6100","address":{"address":"2300 Robinson Ave","city":"Conway","state":"Arkansas","zip":"72034"},"name":"Wood, Michael","npi":1922003102},"geometry":{"type":"Point","coordinates":[-92.457053,35.088397]}},{"type":"Feature","id":"5228ff0270d483a238049804","properties":{"id":"5228ff0270d483a238049804","incentives_received":{"year_2011":true,"year_2011_amt":"18,000.00 ","year_2012":true,"year_2012_amt":"12,000.00 ","year_2013":false,"year_2013_amt":null},"phone_number":"(870) 762-2297","address":{"address":"527 N 6th St","city":"Blytheville","state":"Arkansas","zip":"72315"},"name":"GURLEY, R","npi":1912988577},"geometry":{"type":"Point","coordinates":[-89.910076,35.931707]}},{"type":"Feature","id":"5228ff0270d483a238049746","properties":{"id":"5228ff0270d483a238049746","incentives_received":{"year_2011":false,"year_2011_amt":null,"year_2012":true,"year_2012_amt":"18,000.00 ","year_2013":false,"year_2013_amt":null},"phone_number":"(501) 268-5845","address":{"address":"3130 E Race Ave, Suite 100","city":"Searcy","state":"Arkansas","zip":"72143"},"name":"Ransom, C","npi":1912976671},"geometry":{"type":"Point","coordinates":[-91.750568,35.24058]}},{"type":"Feature","id":"5228ff0270d483a238049665","properties":{"id":"5228ff0270d483a238049665","incentives_received":{"year_2011":false,"year_2011_amt":null,"year_2012":true,"year_2012_amt":"17,485.44 ","year_2013":false,"year_2013_amt":null},"phone_number":"(870) 972-8788","address":{"address":"3104 Apache Dr","city":"Jonesboro","state":"Arkansas","zip":"72401"},"name":"Layton, Lorna","npi":1912963133},"geometry":{"type":"Point","coordinates":[-90.666955,35.809378]}},{"type":"Feature","id":"5228ff0270d483a23804963a","properties":{"id":"5228ff0270d483a23804963a","incentives_received":{"year_2011":false,"year_2011_amt":null,"year_2012":true,"year_2012_amt":"18,000.00 ","year_2013":false,"year_2013_amt":null},"phone_number":"(870) 933-9250","address":{"address":"2205 W Parker Rd","city":"Jonesboro","state":"Arkansas","zip":"72404"},"name":"McDaniel, Craig","npi":1912960519},"geometry":{"type":"Point","coordinates":[-90.669304,35.80454]}},{"type":"Feature","id":"5228ff0270d483a238049635","properties":{"id":"5228ff0270d483a238049635","incentives_received":{"year_2011":false,"year_2011_amt":null,"year_2012":false,"year_2012_amt":null,"year_2013":true,"year_2013_amt":"15,000.00 "},"phone_number":"(870) 972-8181","address":{"address":"415 E Matthews Ave","city":"Jonesboro","state":"Arkansas","zip":"72401"},"name":"Ragland, Darrell","npi":1912960238},"geometry":{"type":"Point","coordinates":[-90.702251,35.83568]}},{"type":"Feature","id":"5228ff0270d483a2380495a6","properties":{"id":"5228ff0270d483a2380495a6","incentives_received":{"year_2011":false,"year_2011_amt":null,"year_2012":true,"year_2012_amt":"18,000.00 ","year_2013":false,"year_2013_amt":null},"phone_number":"(501) 661-9393","address":{"address":"5800 W 10th St, Suite 610 Freeway Medical Center","city":"Little Rock","state":"Arkansas","zip":"72204"},"name":"Johnson, Clifton","npi":1912948928},"geometry":{"type":"Point","coordinates":[-92.336918,34.743123]}},{"type":"Feature","id":"5228ff0270d483a2380494fb","properties":{"id":"5228ff0270d483a2380494fb","incentives_received":{"year_2011":false,"year_2011_amt":null,"year_2012":true,"year_2012_amt":"18,000.00 ","year_2013":false,"year_2013_amt":null},"phone_number":"(479) 442-6266","address":{"address":"55 W Sunbridge Dr","city":"Fayetteville","state":"Arkansas","zip":"72703"},"name":"Harms, Steven","npi":1912934787},"geometry":{"type":"Point","coordinates":[-94.159712,36.098103]}},{"type":"Feature","id":"5228ff0270d483a2380494e1","properties":{"id":"5228ff0270d483a2380494e1","incentives_received":{"year_2011":false,"year_2011_amt":null,"year_2012":true,"year_2012_amt":"18,000.00 ","year_2013":false,"year_2013_amt":null},"phone_number":"(501) 327-6900","address":{"address":"3650 W College Ave","city":"Conway","state":"Arkansas","zip":"72034"},"name":"Carter, Don","npi":1912932930},"geometry":{"type":"Point","coordinates":[-92.488095,35.08549]}},{"type":"Feature","id":"5228ff0270d483a2380494d9","properties":{"id":"5228ff0270d483a2380494d9","incentives_received":{"year_2011":true,"year_2011_amt":"4,578.93 ","year_2012":false,"year_2012_amt":null,"year_2013":false,"year_2013_amt":null},"phone_number":"(870) 246-2902","address":{"address":"815 Clinton St","city":"Arkadelphia","state":"Arkansas","zip":"71923"},"name":"Clary, Patrick","npi":1912932252},"geometry":{"type":"Point","coordinates":[-93.055668,34.120263]}},{"type":"Feature","id":"5228ff0270d483a2380492b7","properties":{"id":"5228ff0270d483a2380492b7","incentives_received":{"year_2011":false,"year_2011_amt":null,"year_2012":true,"year_2012_amt":"14,761.67 ","year_2013":false,"year_2013_amt":null},"phone_number":"(501) 450-3920","address":{"address":"2200 Ada Ave., Suite 301","city":"Conway","state":"Arkansas","zip":"72034"},"name":"Ward, Joshua","npi":1912118944},"geometry":{"type":"Point","coordinates":[-92.455503,35.085909]}},{"type":"Feature","id":"5228ff0270d483a238048e03","properties":{"id":"5228ff0270d483a238048e03","incentives_received":{"year_2011":false,"year_2011_amt":null,"year_2012":true,"year_2012_amt":"18,000.00 ","year_2013":false,"year_2013_amt":null},"phone_number":"(479) 636-9607","address":{"address":"101 NORTH 37TH","city":"ROGERS","state":"Arkansas","zip":"72756"},"name":"COOPER, SCOTT","npi":1902878440},"geometry":{"type":"Point","coordinates":[-94.169923,36.337248]}},{"type":"Feature","id":"5228ff0270d483a238048df2","properties":{"id":"5228ff0270d483a238048df2","incentives_received":{"year_2011":true,"year_2011_amt":"18,000.00 ","year_2012":true,"year_2012_amt":"12,000.00 ","year_2013":false,"year_2013_amt":null},"phone_number":"(501) 945-4422","address":{"address":"3401 Springhill Dr, Suite 400","city":"North Little Rock","state":"Arkansas","zip":"72117"},"name":"Shaw, Robert","npi":1902877533},"geometry":{"type":"Point","coordinates":[-92.218699,34.78404]}},{"type":"Feature","id":"5228ff0270d483a238048d39","properties":{"id":"5228ff0270d483a238048d39","incentives_received":{"year_2011":true,"year_2011_amt":"14,368.88 ","year_2012":true,"year_2012_amt":"12,000.00 ","year_2013":false,"year_2013_amt":null},"phone_number":"(479) 890-2432","address":{"address":"105 SKYLINE DR","city":"Russellville","state":"Arkansas","zip":"72801"},"name":"Cloud, Joe","npi":1902866932},"geometry":{"type":"Point","coordinates":[-93.164839,35.288231]}},{"type":"Feature","id":"5228ff0270d483a238048cf5","properties":{"id":"5228ff0270d483a238048cf5","incentives_received":{"year_2011":true,"year_2011_amt":"18,000.00 ","year_2012":true,"year_2012_amt":"12,000.00 ","year_2013":false,"year_2013_amt":null},"phone_number":"(870) 423-3338","address":{"address":"211 Carter St","city":"Berryville","state":"Arkansas","zip":"72616"},"name":"CASADY, ROGER","npi":1902862634},"geometry":{"type":"Point","coordinates":[-93.551348,36.357675]}},{"type":"Feature","id":"5228ff0270d483a238048cd9","properties":{"id":"5228ff0270d483a238048cd9","incentives_received":{"year_2011":false,"year_2011_amt":null,"year_2012":true,"year_2012_amt":"18,000.00 ","year_2013":false,"year_2013_amt":null},"phone_number":"(870) 932-4875","address":{"address":"800 S Church St","city":"Jonesboro","state":"Arkansas","zip":"72401"},"name":"Degges, Russell","npi":1902860620},"geometry":{"type":"Point","coordinates":[-90.704029,35.836325]}},{"type":"Feature","id":"5228ff0270d483a238048c77","properties":{"id":"5228ff0270d483a238048c77","incentives_received":{"year_2011":false,"year_2011_amt":null,"year_2012":true,"year_2012_amt":"18,000.00 ","year_2013":false,"year_2013_amt":null},"phone_number":"(501) 227-7596","address":{"address":"9501 Baptist Health Dr, Ste 600","city":"Little Rock","state":"Arkansas","zip":"72205"},"name":"Holloway, James","npi":1902852593},"geometry":{"type":"Point","coordinates":[-92.366884,34.760264]}},{"type":"Feature","id":"5228ff0270d483a238048b78","properties":{"id":"5228ff0270d483a238048b78","incentives_received":{"year_2011":false,"year_2011_amt":null,"year_2012":true,"year_2012_amt":"8,670.68 ","year_2013":false,"year_2013_amt":null},"phone_number":"(479) 582-3366","address":{"address":"63 W Sunbridge Dr","city":"Fayetteville","state":"Arkansas","zip":"72703"},"name":"Titus, Janet","npi":1902832660},"geometry":{"type":"Point","coordinates":[-94.15974,36.098103]}},{"type":"Feature","id":"5228ff0270d483a238048b2d","properties":{"id":"5228ff0270d483a238048b2d","incentives_received":{"year_2011":false,"year_2011_amt":null,"year_2012":true,"year_2012_amt":"18,000.00 ","year_2013":false,"year_2013_amt":null},"phone_number":"(870) 246-2431","address":{"address":"416 Main St","city":"Arkadelphia","state":"Arkansas","zip":"71923"},"name":"Perrin, Shelly","npi":1902824162},"geometry":{"type":"Point","coordinates":[-93.05147,34.119623]}},{"type":"Feature","id":"5228ff0270d483a238048ad4","properties":{"id":"5228ff0270d483a238048ad4","incentives_received":{"year_2011":false,"year_2011_amt":null,"year_2012":true,"year_2012_amt":"18,000.00 ","year_2013":false,"year_2013_amt":null},"phone_number":"(870) 862-4216","address":{"address":"310 Thompson Avenue","city":"El Dorado","state":"Arkansas","zip":"71730"},"name":"Christian, Kristin","npi":1902813314},"geometry":{"type":"Point","coordinates":[-92.670494,33.213668]}},{"type":"Feature","id":"5228ff0270d483a238048a5e","properties":{"id":"5228ff0270d483a238048a5e","incentives_received":{"year_2011":true,"year_2011_amt":"18,000.00 ","year_2012":true,"year_2012_amt":"12,000.00 ","year_2013":false,"year_2013_amt":null},"phone_number":"(501) 268-7154","address":{"address":"105 Central Ave","city":"Searcy","state":"Arkansas","zip":"72143"},"name":"Schmucker, Tracey","npi":1902805534},"geometry":{"type":"Point","coordinates":[-91.734096,35.236845]}},{"type":"Feature","id":"5228ff0270d483a238048a51","properties":{"id":"5228ff0270d483a238048a51","incentives_received":{"year_2011":false,"year_2011_amt":null,"year_2012":true,"year_2012_amt":"18,000.00 ","year_2013":false,"year_2013_amt":null},"phone_number":"(501) 268-2273","address":{"address":"2924 Hawkins Dr","city":"Searcy","state":"Arkansas","zip":"72143"},"name":"Kamerman, Timothy","npi":1902804743},"geometry":{"type":"Point","coordinates":[-91.703149,35.251662]}},{"type":"Feature","id":"5228ff0270d483a238048954","properties":{"id":"5228ff0270d483a238048954","incentives_received":{"year_2011":false,"year_2011_amt":null,"year_2012":true,"year_2012_amt":"7,487.73 ","year_2013":false,"year_2013_amt":null},"phone_number":"(479) 636-7192","address":{"address":"1615 W Persimmon St","city":"Rogers","state":"Arkansas","zip":"72756"},"name":"Edwards, Marjorie","npi":1902038375},"geometry":{"type":"Point","coordinates":[-94.140299,36.337623]}},{"type":"Feature","id":"5228ff0270d483a238048786","properties":{"id":"5228ff0270d483a238048786","incentives_received":{"year_2011":false,"year_2011_amt":null,"year_2012":true,"year_2012_amt":"18,000.00 ","year_2013":false,"year_2013_amt":null},"phone_number":"(870) 425-5464","address":{"address":"675 HWY 62 E, Ste 1","city":"Mountain Home","state":"Arkansas","zip":"72653"},"name":"King, Mark","npi":1891882072},"geometry":{"type":"Point","coordinates":[-92.28537,36.21016]}},{"type":"Feature","id":"5228ff0270d483a238048655","properties":{"id":"5228ff0270d483a238048655","incentives_received":{"year_2011":true,"year_2011_amt":"18,000.00 ","year_2012":true,"year_2012_amt":"12,000.00 ","year_2013":false,"year_2013_amt":null},"phone_number":"(501) 664-6980","address":{"address":"409 N University Ave","city":"Little Rock","state":"Arkansas","zip":"72205"},"name":"Greenway, C","npi":1891799722},"geometry":{"type":"Point","coordinates":[-92.340951,34.754737]}},{"type":"Feature","id":"5228ff0270d483a238048610","properties":{"id":"5228ff0270d483a238048610","incentives_received":{"year_2011":false,"year_2011_amt":null,"year_2012":true,"year_2012_amt":"18,000.00 ","year_2013":false,"year_2013_amt":null},"phone_number":"(870) 933-7471","address":{"address":"3005 Apache Dr","city":"Jonesboro","state":"Arkansas","zip":"72401"},"name":"Greaser, Raymond","npi":1891795688},"geometry":{"type":"Point","coordinates":[-90.66481,35.809215]}},{"type":"Feature","id":"5228ff0270d483a2380484b9","properties":{"id":"5228ff0270d483a2380484b9","incentives_received":{"year_2011":false,"year_2011_amt":null,"year_2012":true,"year_2012_amt":"18,000.00 ","year_2013":false,"year_2013_amt":null},"phone_number":"(501) 227-5050","address":{"address":"10201 Kanis Rd","city":"Little Rock","state":"Arkansas","zip":"72205"},"name":"MORRIS, BARBARA","npi":1891775821},"geometry":{"type":"Point","coordinates":[-92.387745,34.742855]}},{"type":"Feature","id":"5228ff0270d483a23804845e","properties":{"id":"5228ff0270d483a23804845e","incentives_received":{"year_2011":false,"year_2011_amt":null,"year_2012":true,"year_2012_amt":"18,000.00 ","year_2013":false,"year_2013_amt":null},"phone_number":"(501) 687-0800","address":{"address":"4200 N Rodney Parham Rd, Ste 101","city":"Little Rock","state":"Arkansas","zip":"72212"},"name":"Hankins, Edwin","npi":1891770012},"geometry":{"type":"Point","coordinates":[-92.401394,34.787377]}},{"type":"Feature","id":"5228ff0170d483a238048338","properties":{"id":"5228ff0170d483a238048338","incentives_received":{"year_2011":true,"year_2011_amt":"18,000.00 ","year_2012":true,"year_2012_amt":"12,000.00 ","year_2013":false,"year_2013_amt":null},"phone_number":"(479) 968-2345","address":{"address":"1601 N. Church Street","city":"Atkins","state":"Arkansas","zip":"72823"},"name":"HORAN, CHRIS","npi":1891751541},"geometry":{"type":"Point","coordinates":[-92.937416,35.257771]}},{"type":"Feature","id":"5228ff0170d483a2380482a5","properties":{"id":"5228ff0170d483a2380482a5","incentives_received":{"year_2011":false,"year_2011_amt":null,"year_2012":true,"year_2012_amt":"18,000.00 ","year_2013":false,"year_2013_amt":null},"phone_number":"(501) 907-6699","address":{"address":"12921 Cantrell Rd Ste 300","city":"Little Rock","state":"Arkansas","zip":"72223"},"name":"WATKINS, JULIA","npi":1891738373},"geometry":{"type":"Point","coordinates":[-92.412649,34.797716]}},{"type":"Feature","id":"5228ff0170d483a23804814b","properties":{"id":"5228ff0170d483a23804814b","incentives_received":{"year_2011":true,"year_2011_amt":"18,000.00 ","year_2012":true,"year_2012_amt":"12,000.00 ","year_2013":false,"year_2013_amt":null},"phone_number":"(870) 935-6729","address":{"address":"201 E Oak Ave","city":"Jonesboro","state":"Arkansas","zip":"72401"},"name":"Gilliam, Francis","npi":1891704474},"geometry":{"type":"Point","coordinates":[-90.704146,35.833836]}},{"type":"Feature","id":"5228ff0170d483a2380480cd","properties":{"id":"5228ff0170d483a2380480cd","incentives_received":{"year_2011":false,"year_2011_amt":null,"year_2012":true,"year_2012_amt":"18,000.00 ","year_2013":false,"year_2013_amt":null},"phone_number":"(870) 698-1650","address":{"address":"1361 White Dr","city":"Batesville","state":"Arkansas","zip":"72501"},"name":"Taylor, J.","npi":1881886893},"geometry":{"type":"Point","coordinates":[-91.63748,35.791892]}},{"type":"Feature","id":"5228ff0170d483a238047e76","properties":{"id":"5228ff0170d483a238047e76","incentives_received":{"year_2011":true,"year_2011_amt":"18,000.00 ","year_2012":true,"year_2012_amt":"12,000.00 ","year_2013":false,"year_2013_amt":null},"phone_number":"(870) 935-6729","address":{"address":"201 E Oak Ave","city":"Jonesboro","state":"Arkansas","zip":"72401"},"name":"McKee, John","npi":1881699767},"geometry":{"type":"Point","coordinates":[-90.704146,35.833836]}},{"type":"Feature","id":"5228ff0170d483a238047dc6","properties":{"id":"5228ff0170d483a238047dc6","incentives_received":{"year_2011":false,"year_2011_amt":null,"year_2012":true,"year_2012_amt":"18,000.00 ","year_2013":false,"year_2013_amt":null},"phone_number":"(501) 985-5900","address":{"address":"1300 Braden St","city":"Jacksonville","state":"Arkansas","zip":"72076"},"name":"TRACY, PHILLIP","npi":1881690519},"geometry":{"type":"Point","coordinates":[-92.12257,34.872313]}},{"type":"Feature","id":"5228ff0170d483a238047dc3","properties":{"id":"5228ff0170d483a238047dc3","incentives_received":{"year_2011":false,"year_2011_amt":null,"year_2012":true,"year_2012_amt":"18,000.00 ","year_2013":false,"year_2013_amt":null},"phone_number":"(501) 985-5900","address":{"address":"1300 Braden St","city":"Jacksonville","state":"Arkansas","zip":"72076"},"name":"STOREYGARD, ALAN","npi":1881690477},"geometry":{"type":"Point","coordinates":[-92.12257,34.872313]}},{"type":"Feature","id":"5228ff0170d483a238047d09","properties":{"id":"5228ff0170d483a238047d09","incentives_received":{"year_2011":false,"year_2011_amt":null,"year_2012":true,"year_2012_amt":"18,000.00 ","year_2013":false,"year_2013_amt":null},"phone_number":"(501) 224-5658","address":{"address":"9800 Baptist Health Drive, Ste 400","city":"Little Rock","state":"Arkansas","zip":"72205"},"name":"Baltz, Tracy","npi":1881679033},"geometry":{"type":"Point","coordinates":[-92.366884,34.760264]}},{"type":"Feature","id":"5228ff0170d483a238047c19","properties":{"id":"5228ff0170d483a238047c19","incentives_received":{"year_2011":false,"year_2011_amt":null,"year_2012":true,"year_2012_amt":"18,000.00 ","year_2013":false,"year_2013_amt":null},"phone_number":"(479) 890-9292","address":{"address":"1605 W Main St","city":"Russellville","state":"Arkansas","zip":"72801"},"name":"Allison, Russell","npi":1881663078},"geometry":{"type":"Point","coordinates":[-93.148052,35.282228]}},{"type":"Feature","id":"5228ff0170d483a238047bcc","properties":{"id":"5228ff0170d483a238047bcc","incentives_received":{"year_2011":false,"year_2011_amt":null,"year_2012":true,"year_2012_amt":"18,000.00 ","year_2013":false,"year_2013_amt":null},"phone_number":"(501) 278-2808","address":{"address":"2900 Hawkins Dr","city":"Searcy","state":"Arkansas","zip":"72143"},"name":"Holston, John","npi":1881658623},"geometry":{"type":"Point","coordinates":[-91.704413,35.251595]}},{"type":"Feature","id":"5228ff0170d483a238047b66","properties":{"id":"5228ff0170d483a238047b66","incentives_received":{"year_2011":false,"year_2011_amt":null,"year_2012":true,"year_2012_amt":"18,000.00 ","year_2013":false,"year_2013_amt":null},"phone_number":"(479) 271-9607","address":{"address":"1101 Horsebarn Rd","city":"Rogers","state":"Arkansas","zip":"72758"},"name":"Grammer, William","npi":1881650554},"geometry":{"type":"Point","coordinates":[-94.188691,36.325948]}},{"type":"Feature","id":"5228ff0170d483a238047b2f","properties":{"id":"5228ff0170d483a238047b2f","incentives_received":{"year_2011":false,"year_2011_amt":null,"year_2012":true,"year_2012_amt":"18,000.00 ","year_2013":false,"year_2013_amt":null},"phone_number":"(479) 442-2020","address":{"address":"594 E Millsap Rd","city":"Fayetteville","state":"Arkansas","zip":"72703"},"name":"Brown, Craig","npi":1881646198},"geometry":{"type":"Point","coordinates":[-94.149619,36.114479]}},{"type":"Feature","id":"5228ff0170d483a238047ae3","properties":{"id":"5228ff0170d483a238047ae3","incentives_received":{"year_2011":false,"year_2011_amt":null,"year_2012":true,"year_2012_amt":"18,000.00 ","year_2013":false,"year_2013_amt":null},"phone_number":"(870) 931-2020","address":{"address":"1815 E Highland Dr","city":"Jonesboro","state":"Arkansas","zip":"72401"},"name":"ross, jonathan","npi":1881638328},"geometry":{"type":"Point","coordinates":[-90.685162,35.821145]}},{"type":"Feature","id":"5228ff0170d483a23804789c","properties":{"id":"5228ff0170d483a23804789c","incentives_received":{"year_2011":true,"year_2011_amt":"18,000.00 ","year_2012":true,"year_2012_amt":"12,000.00 ","year_2013":false,"year_2013_amt":null},"phone_number":"(870) 364-9111","address":{"address":"909 Unity Rd","city":"Crossett","state":"Arkansas","zip":"71635"},"name":"Walsh, Bradley","npi":1871715904},"geometry":{"type":"Point","coordinates":[-91.952973,33.136169]}},{"type":"Feature","id":"5228ff0170d483a23804787f","properties":{"id":"5228ff0170d483a23804787f","incentives_received":{"year_2011":false,"year_2011_amt":null,"year_2012":true,"year_2012_amt":"18,000.00 ","year_2013":false,"year_2013_amt":null},"phone_number":"(501) 321-9803","address":{"address":"115 Wrights St","city":"Hot Springs","state":"Arkansas","zip":"71913"},"name":"Sharma, Mukesh","npi":1871704122},"geometry":{"type":"Point","coordinates":[-93.061123,34.472456]}},{"type":"Feature","id":"5228ff0170d483a2380477e1","properties":{"id":"5228ff0170d483a2380477e1","incentives_received":{"year_2011":false,"year_2011_amt":null,"year_2012":true,"year_2012_amt":"18,000.00 ","year_2013":false,"year_2013_amt":null},"phone_number":"(870) 735-3664","address":{"address":"300 S Rhodes St","city":"West Memphis","state":"Arkansas","zip":"72301"},"name":"Ford, David","npi":1871677658},"geometry":{"type":"Point","coordinates":[-90.187646,35.1441]}},{"type":"Feature","id":"5228ff0170d483a238047609","properties":{"id":"5228ff0170d483a238047609","incentives_received":{"year_2011":false,"year_2011_amt":null,"year_2012":true,"year_2012_amt":"18,000.00 ","year_2013":false,"year_2013_amt":null},"phone_number":"(501) 224-1156","address":{"address":"18 Corporate Hill Drive, Suite 110","city":"Little Rock","state":"Arkansas","zip":"72205"},"name":"Scheer, Blake","npi":1871585950},"geometry":{"type":"Point","coordinates":[-92.30791,34.75676]}},{"type":"Feature","id":"5228ff0170d483a23804752f","properties":{"id":"5228ff0170d483a23804752f","incentives_received":{"year_2011":false,"year_2011_amt":null,"year_2012":true,"year_2012_amt":"18,000.00 ","year_2013":false,"year_2013_amt":null},"phone_number":"(501) 663-8900","address":{"address":"600 S. McKinley","city":"Little Rock","state":"Arkansas","zip":"72205"},"name":"Weber, Michael","npi":1871571059},"geometry":{"type":"Point","coordinates":[-92.345641,34.747386]}},{"type":"Feature","id":"5228ff0170d483a238047509","properties":{"id":"5228ff0170d483a238047509","incentives_received":{"year_2011":false,"year_2011_amt":null,"year_2012":true,"year_2012_amt":"18,000.00 ","year_2013":false,"year_2013_amt":null},"phone_number":"(870) 932-6799","address":{"address":"621 E Matthews Ave","city":"Jonesboro","state":"Arkansas","zip":"72401"},"name":"Jiu, John","npi":1871568808},"geometry":{"type":"Point","coordinates":[-90.699303,35.835647]}},{"type":"Feature","id":"5228ff0170d483a238047478","properties":{"id":"5228ff0170d483a238047478","incentives_received":{"year_2011":true,"year_2011_amt":"6,887.69 ","year_2012":true,"year_2012_amt":"9,637.23 ","year_2013":false,"year_2013_amt":null},"phone_number":"(479) 968-2345","address":{"address":"105 SKYLINE DR","city":"Russellville","state":"Arkansas","zip":"72801"},"name":"ESCUE, MICHAEL","npi":1871559955},"geometry":{"type":"Point","coordinates":[-93.164839,35.288231]}},{"type":"Feature","id":"5228ff0170d483a23804744d","properties":{"id":"5228ff0170d483a23804744d","incentives_received":{"year_2011":true,"year_2011_amt":"18,000.00 ","year_2012":true,"year_2012_amt":"12,000.00 ","year_2013":false,"year_2013_amt":null},"phone_number":"(501) 623-2781","address":{"address":"1662 Higdon Ferry Rd, Suite 200","city":"Hot Springs","state":"Arkansas","zip":"71913"},"name":"Bodemann, Diane","npi":1871556829},"geometry":{"type":"Point","coordinates":[-93.152361,34.511648]}},{"type":"Feature","id":"5228ff0170d483a238047451","properties":{"id":"5228ff0170d483a238047451","incentives_received":{"year_2011":false,"year_2011_amt":null,"year_2012":true,"year_2012_amt":"18,000.00 ","year_2013":false,"year_2013_amt":null},"phone_number":"(870) 932-4875","address":{"address":"800 S Church St","city":"Jonesboro","state":"Arkansas","zip":"72401"},"name":"Jones, Kenneth","npi":1871557041},"geometry":{"type":"Point","coordinates":[-90.704029,35.836325]}},{"type":"Feature","id":"5228ff0170d483a238047363","properties":{"id":"5228ff0170d483a238047363","incentives_received":{"year_2011":false,"year_2011_amt":null,"year_2012":true,"year_2012_amt":"18,000.00 ","year_2013":false,"year_2013_amt":null},"phone_number":"(501) 279-9393","address":{"address":"711 Santa Fe Dr","city":"Searcy","state":"Arkansas","zip":"72143"},"name":"Blue, Leon","npi":1871539890},"geometry":{"type":"Point","coordinates":[-91.819549,35.233596]}},{"type":"Feature","id":"5228ff0170d483a238047277","properties":{"id":"5228ff0170d483a238047277","incentives_received":{"year_2011":false,"year_2011_amt":null,"year_2012":true,"year_2012_amt":"18,000.00 ","year_2013":false,"year_2013_amt":null},"phone_number":"(501) 255-6000","address":{"address":"10100 Kanis Rd","city":"Little Rock","state":"Arkansas","zip":"72205"},"name":"De Bruyn, Van","npi":1871518522},"geometry":{"type":"Point","coordinates":[-92.386621,34.742889]}},{"type":"Feature","id":"5228ff0170d483a2380471eb","properties":{"id":"5228ff0170d483a2380471eb","incentives_received":{"year_2011":false,"year_2011_amt":null,"year_2012":true,"year_2012_amt":"18,000.00 ","year_2013":false,"year_2013_amt":null},"phone_number":"(870) 246-2471","address":{"address":"3004 Pine St","city":"Arkadelphia","state":"Arkansas","zip":"71923"},"name":"Ford, Michael","npi":1871502658},"geometry":{"type":"Point","coordinates":[-93.087526,34.118934]}},{"type":"Feature","id":"5228ff0170d483a238047100","properties":{"id":"5228ff0170d483a238047100","incentives_received":{"year_2011":false,"year_2011_amt":null,"year_2012":true,"year_2012_amt":"18,000.00 ","year_2013":false,"year_2013_amt":null},"phone_number":"(870) 698-1650","address":{"address":"1361 White Drive","city":"Batesville","state":"Arkansas","zip":"72501"},"name":"Taylor, Thomas","npi":1861604886},"geometry":{"type":"Point","coordinates":[-91.63748,35.791892]}},{"type":"Feature","id":"5228ff0170d483a238047072","properties":{"id":"5228ff0170d483a238047072","incentives_received":{"year_2011":true,"year_2011_amt":"18,000.00 ","year_2012":true,"year_2012_amt":"12,000.00 ","year_2013":false,"year_2013_amt":null},"phone_number":"(870) 423-6661","address":{"address":"207 Carter St","city":"Berryville","state":"Arkansas","zip":"72616"},"name":"Card, Shannon","npi":1861582207},"geometry":{"type":"Point","coordinates":[-93.55135,36.357641]}},{"type":"Feature","id":"5228ff0070d483a238046f9c","properties":{"id":"5228ff0070d483a238046f9c","incentives_received":{"year_2011":false,"year_2011_amt":null,"year_2012":true,"year_2012_amt":"18,000.00 ","year_2013":false,"year_2013_amt":null},"phone_number":"(870) 836-8101","address":{"address":"353 Cash Rd SW","city":"Camden","state":"Arkansas","zip":"71701"},"name":"Goss, Erin","npi":1861526121},"geometry":{"type":"Point","coordinates":[-92.85128,33.580876]}},{"type":"Feature","id":"5228ff0070d483a238046f0d","properties":{"id":"5228ff0070d483a238046f0d","incentives_received":{"year_2011":true,"year_2011_amt":"18,000.00 ","year_2012":true,"year_2012_amt":"12,000.00 ","year_2013":false,"year_2013_amt":null},"phone_number":"(870) 935-6729","address":{"address":"201 E Oak Ave.","city":"Jonesboro","state":"Arkansas","zip":"72401"},"name":"Bailey, William","npi":1861497349},"geometry":{"type":"Point","coordinates":[-90.704146,35.833836]}},{"type":"Feature","id":"5228ff0070d483a238046e4b","properties":{"id":"5228ff0070d483a238046e4b","incentives_received":{"year_2011":false,"year_2011_amt":null,"year_2012":true,"year_2012_amt":"18,000.00 ","year_2013":false,"year_2013_amt":null},"phone_number":"(870) 932-1198","address":{"address":"300 Carson St","city":"Jonesboro","state":"Arkansas","zip":"72401"},"name":"Porter, Revel","npi":1861488348},"geometry":{"type":"Point","coordinates":[-90.701247,35.840759]}},{"type":"Feature","id":"5228ff0070d483a238046e43","properties":{"id":"5228ff0070d483a238046e43","incentives_received":{"year_2011":false,"year_2011_amt":null,"year_2012":true,"year_2012_amt":"18,000.00 ","year_2013":false,"year_2013_amt":null},"phone_number":"(870) 932-1198","address":{"address":"300 Carson St","city":"Jonesboro","state":"Arkansas","zip":"72401"},"name":"Tate, Ricky","npi":1861488017},"geometry":{"type":"Point","coordinates":[-90.701247,35.840759]}},{"type":"Feature","id":"5228ff0070d483a238046daf","properties":{"id":"5228ff0070d483a238046daf","incentives_received":{"year_2011":true,"year_2011_amt":"18,000.00 ","year_2012":false,"year_2012_amt":null,"year_2013":false,"year_2013_amt":null},"phone_number":"(479) 521-8980","address":{"address":"1300 E Zion Rd","city":"Fayetteville","state":"Arkansas","zip":"72703"},"name":"Kilambi, Nirmal","npi":1861476897},"geometry":{"type":"Point","coordinates":[-94.14013,36.129283]}},{"type":"Feature","id":"5228ff0070d483a238046c78","properties":{"id":"5228ff0070d483a238046c78","incentives_received":{"year_2011":false,"year_2011_amt":null,"year_2012":true,"year_2012_amt":"18,000.00 ","year_2013":false,"year_2013_amt":null},"phone_number":"(870) 972-8788","address":{"address":"3104 Apache Dr","city":"Jonesboro","state":"Arkansas","zip":"72401"},"name":"Delacey, Norbert","npi":1861457590},"geometry":{"type":"Point","coordinates":[-90.666955,35.809378]}},{"type":"Feature","id":"5228ff0070d483a238046b6e","properties":{"id":"5228ff0070d483a238046b6e","incentives_received":{"year_2011":false,"year_2011_amt":null,"year_2012":true,"year_2012_amt":"18,000.00 ","year_2013":false,"year_2013_amt":null},"phone_number":"(870) 931-3338","address":{"address":"637 E Matthews Ave","city":"Jonesboro","state":"Arkansas","zip":"72401"},"name":"Haughey, Michael","npi":1861436875},"geometry":{"type":"Point","coordinates":[-90.699117,35.835645]}},{"type":"Feature","id":"5228ff0070d483a238046a27","properties":{"id":"5228ff0070d483a238046a27","incentives_received":{"year_2011":false,"year_2011_amt":null,"year_2012":true,"year_2012_amt":"18,000.00 ","year_2013":false,"year_2013_amt":null},"phone_number":"(479) 751-3202","address":{"address":"724 Deaver St","city":"Springdale","state":"Arkansas","zip":"72764"},"name":"PETRINO, ROBERT","npi":1861402265},"geometry":{"type":"Point","coordinates":[-94.137801,36.178417]}},{"type":"Feature","id":"5228ff0070d483a2380465bb","properties":{"id":"5228ff0070d483a2380465bb","incentives_received":{"year_2011":true,"year_2011_amt":"18,000.00 ","year_2012":true,"year_2012_amt":"12,000.00 ","year_2013":false,"year_2013_amt":null},"phone_number":"(479) 521-3300","address":{"address":"3264 N. North Hills Blvd., 377th Medical Group","city":"Fayetteville","state":"Arkansas","zip":"72703"},"name":"Bell, Jeffrey","npi":1851375158},"geometry":{"type":"Point","coordinates":[-94.157473,36.110204]}},{"type":"Feature","id":"5228ff0070d483a23804652b","properties":{"id":"5228ff0070d483a23804652b","incentives_received":{"year_2011":false,"year_2011_amt":null,"year_2012":true,"year_2012_amt":"18,000.00 ","year_2013":false,"year_2013_amt":null},"phone_number":"(870) 932-6799","address":{"address":"621 E Matthews Ave","city":"Jonesboro","state":"Arkansas","zip":"72401"},"name":"Sales, Joseph","npi":1851366140},"geometry":{"type":"Point","coordinates":[-90.699303,35.835647]}},{"type":"Feature","id":"5228ff0070d483a238046490","properties":{"id":"5228ff0070d483a238046490","incentives_received":{"year_2011":false,"year_2011_amt":null,"year_2012":true,"year_2012_amt":"18,000.00 ","year_2013":false,"year_2013_amt":null},"phone_number":"(501) 666-0249","address":{"address":"417 N University Ave","city":"Little Rock","state":"Arkansas","zip":"72205"},"name":"Gordon, Otis","npi":1851355218},"geometry":{"type":"Point","coordinates":[-92.340949,34.754822]}},{"type":"Feature","id":"5228ff0070d483a238046485","properties":{"id":"5228ff0070d483a238046485","incentives_received":{"year_2011":false,"year_2011_amt":null,"year_2012":true,"year_2012_amt":"18,000.00 ","year_2013":false,"year_2013_amt":null},"phone_number":"(870) 972-8030","address":{"address":"3100 Apache Dr,, Suite B4","city":"Jonesboro","state":"Arkansas","zip":"72401"},"name":"Ameika, James","npi":1851354393},"geometry":{"type":"Point","coordinates":[-90.66688,35.809377]}},{"type":"Feature","id":"5228ff0070d483a238046313","properties":{"id":"5228ff0070d483a238046313","incentives_received":{"year_2011":true,"year_2011_amt":"18,000.00 ","year_2012":true,"year_2012_amt":"12,000.00 ","year_2013":false,"year_2013_amt":null},"phone_number":"(870) 935-6729","address":{"address":"201 E Oak Ave","city":"Jonesboro","state":"Arkansas","zip":"72401"},"name":"Al-Hindi, Ahmad","npi":1851324446},"geometry":{"type":"Point","coordinates":[-90.704146,35.833836]}},{"type":"Feature","id":"5228ff0070d483a238046091","properties":{"id":"5228ff0070d483a238046091","incentives_received":{"year_2011":true,"year_2011_amt":"18,000.00 ","year_2012":false,"year_2012_amt":null,"year_2013":false,"year_2013_amt":null},"phone_number":"(870) 935-6729","address":{"address":"201 E Oak Ave","city":"Jonesboro","state":"Arkansas","zip":"72401"},"name":"Zafarullah, Haris","npi":1841370475},"geometry":{"type":"Point","coordinates":[-90.704146,35.833836]}},{"type":"Feature","id":"5228ff0070d483a238045e28","properties":{"id":"5228ff0070d483a238045e28","incentives_received":{"year_2011":false,"year_2011_amt":null,"year_2012":true,"year_2012_amt":"18,000.00 ","year_2013":false,"year_2013_amt":null},"phone_number":"(501) 624-7700","address":{"address":"133 Harmony Park","city":"Hot Springs","state":"Arkansas","zip":"71913"},"name":"Muldoon, Robert","npi":1841277589},"geometry":{"type":"Point","coordinates":[-93.069352,34.490699]}},{"type":"Feature","id":"5228ff0070d483a238045beb","properties":{"id":"5228ff0070d483a238045beb","incentives_received":{"year_2011":false,"year_2011_amt":null,"year_2012":true,"year_2012_amt":"18,000.00 ","year_2013":false,"year_2013_amt":null},"phone_number":"(870) 931-3338","address":{"address":"637 E Matthews Ave","city":"Jonesboro","state":"Arkansas","zip":"72401"},"name":"Reiner, Mark","npi":1841236668},"geometry":{"type":"Point","coordinates":[-90.699117,35.835645]}},{"type":"Feature","id":"5228ff0070d483a238045b32","properties":{"id":"5228ff0070d483a238045b32","incentives_received":{"year_2011":false,"year_2011_amt":null,"year_2012":true,"year_2012_amt":"18,000.00 ","year_2013":false,"year_2013_amt":null},"phone_number":"(501) 329-1510","address":{"address":"550 Club Lane","city":"Conway","state":"Arkansas","zip":"72034"},"name":"Bennett, Grant","npi":1841218617},"geometry":{"type":"Point","coordinates":[-92.475466,35.085758]}},{"type":"Feature","id":"5228ff0070d483a238045b19","properties":{"id":"5228ff0070d483a238045b19","incentives_received":{"year_2011":false,"year_2011_amt":null,"year_2012":true,"year_2012_amt":"18,000.00 ","year_2013":false,"year_2013_amt":null},"phone_number":"(479) 571-4338","address":{"address":"3211 N Northhills Blvd, Suite 110","city":"Fayetteville","state":"Arkansas","zip":"72703"},"name":"Ramaswamy, Geetha","npi":1841216595},"geometry":{"type":"Point","coordinates":[-94.158132,36.112214]}},{"type":"Feature","id":"5228feff70d483a238045707","properties":{"id":"5228feff70d483a238045707","incentives_received":{"year_2011":false,"year_2011_amt":null,"year_2012":true,"year_2012_amt":"18,000.00 ","year_2013":false,"year_2013_amt":null},"phone_number":"(479) 463-2333","address":{"address":"813 Founders Park Drive, Washington Regional Family Clinic - Springdale","city":"Springdale","state":"Arkansas","zip":"72762"},"name":"Hays, Deborah","npi":1831187699},"geometry":{"type":"Point","coordinates":[-94.205757,36.18189]}},{"type":"Feature","id":"5228feff70d483a2380456f4","properties":{"id":"5228feff70d483a2380456f4","incentives_received":{"year_2011":false,"year_2011_amt":null,"year_2012":true,"year_2012_amt":"18,000.00 ","year_2013":false,"year_2013_amt":null},"phone_number":"(870) 862-1144","address":{"address":"2700 Vine St","city":"El Dorado","state":"Arkansas","zip":"71730"},"name":"Gati, Kenneth","npi":1831186709},"geometry":{"type":"Point","coordinates":[-92.64383,33.205787]}},{"type":"Feature","id":"5228feff70d483a238045659","properties":{"id":"5228feff70d483a238045659","incentives_received":{"year_2011":false,"year_2011_amt":null,"year_2012":true,"year_2012_amt":"18,000.00 ","year_2013":false,"year_2013_amt":null},"phone_number":"(501) 227-5050","address":{"address":"10201 Kanis Rd","city":"Little Rock","state":"Arkansas","zip":"72205"},"name":"GARDNER, EDWARD","npi":1831179233},"geometry":{"type":"Point","coordinates":[-92.387745,34.742855]}},{"type":"Feature","id":"5228feff70d483a238045644","properties":{"id":"5228feff70d483a238045644","incentives_received":{"year_2011":true,"year_2011_amt":"13,614.11 ","year_2012":true,"year_2012_amt":"12,000.00 ","year_2013":false,"year_2013_amt":null},"phone_number":"(479) 636-3021","address":{"address":"305 N 24th St","city":"Rogers","state":"Arkansas","zip":"72756"},"name":"Hines, Teri","npi":1831177963},"geometry":{"type":"Point","coordinates":[-94.151944,36.336439]}},{"type":"Feature","id":"5228feff70d483a238045500","properties":{"id":"5228feff70d483a238045500","incentives_received":{"year_2011":false,"year_2011_amt":null,"year_2012":true,"year_2012_amt":"18,000.00 ","year_2013":false,"year_2013_amt":null},"phone_number":"(870) 425-4402","address":{"address":"628 Hospital Dr, GROUND FLOOR, SUITE A","city":"Mountain Home","state":"Arkansas","zip":"72653"},"name":"BADEJO, ABODUNRIN","npi":1831157551},"geometry":{"type":"Point","coordinates":[-92.272289,36.297168]}},{"type":"Feature","id":"5228feff70d483a23804550d","properties":{"id":"5228feff70d483a23804550d","incentives_received":{"year_2011":false,"year_2011_amt":null,"year_2012":true,"year_2012_amt":"18,000.00 ","year_2013":false,"year_2013_amt":null},"phone_number":"(870) 856-2862","address":{"address":"51 Choctaw Trace","city":"Cherokee Village","state":"Arkansas","zip":"72529"},"name":"Taylor, Tommy","npi":1831158302},"geometry":{"type":"Point","coordinates":[-91.51632,36.303434]}},{"type":"Feature","id":"5228feff70d483a238045504","properties":{"id":"5228feff70d483a238045504","incentives_received":{"year_2011":true,"year_2011_amt":null,"year_2012":false,"year_2012_amt":null,"year_2013":false,"year_2013_amt":null},"phone_number":"(479) 770-0700","address":{"address":"325 S 6th Pl","city":"Lowell","state":"Arkansas","zip":"72745"},"name":"Ivey, Traci","npi":1831157858},"geometry":{"type":"Point","coordinates":[-94.149762,36.25164]}},{"type":"Feature","id":"5228feff70d483a2380454e8","properties":{"id":"5228feff70d483a2380454e8","incentives_received":{"year_2011":false,"year_2011_amt":null,"year_2012":true,"year_2012_amt":"18,000.00 ","year_2013":false,"year_2013_amt":null},"phone_number":"(501) 278-2846","address":{"address":"2900 Hawkins Dr","city":"Searcy","state":"Arkansas","zip":"72143"},"name":"LAFFOON, GREG","npi":1831155910},"geometry":{"type":"Point","coordinates":[-91.704413,35.251595]}},{"type":"Feature","id":"5228feff70d483a2380454c7","properties":{"id":"5228feff70d483a2380454c7","incentives_received":{"year_2011":false,"year_2011_amt":null,"year_2012":true,"year_2012_amt":"18,000.00 ","year_2013":false,"year_2013_amt":null},"phone_number":"(501) 278-2808","address":{"address":"2900 Hawkins Dr","city":"Searcy","state":"Arkansas","zip":"72143"},"name":"Johnson, David","npi":1831154343},"geometry":{"type":"Point","coordinates":[-91.704413,35.251595]}},{"type":"Feature","id":"5228feff70d483a2380454a7","properties":{"id":"5228feff70d483a2380454a7","incentives_received":{"year_2011":true,"year_2011_amt":"48.80 ","year_2012":false,"year_2012_amt":null,"year_2013":false,"year_2013_amt":null},"phone_number":"(479) 452-8311","address":{"address":"1501 S. Waldron Rd., Ste 202","city":"Ft. Smith","state":"Arkansas","zip":"72903"},"name":"de Miranda, Federico","npi":1831152495},"geometry":{"type":"Point","coordinates":[-94.319037,35.346221]}},{"type":"Feature","id":"5228feff70d483a238045451","properties":{"id":"5228feff70d483a238045451","incentives_received":{"year_2011":false,"year_2011_amt":null,"year_2012":true,"year_2012_amt":"18,000.00 ","year_2013":false,"year_2013_amt":null},"phone_number":"(501) 626-7589","address":{"address":"7481 Warden Rd","city":"Sherwood","state":"Arkansas","zip":"72120"},"name":"Ahmad, Mahmood","npi":1831145929},"geometry":{"type":"Point","coordinates":[-92.195897,34.822645]}},{"type":"Feature","id":"5228feff70d483a23804535c","properties":{"id":"5228feff70d483a23804535c","incentives_received":{"year_2011":false,"year_2011_amt":null,"year_2012":true,"year_2012_amt":"18,000.00 ","year_2013":false,"year_2013_amt":null},"phone_number":"(479) 582-8200","address":{"address":"3344 N Futrall Dr","city":"Fayetteville","state":"Arkansas","zip":"72703"},"name":"Thomas, Gary","npi":1831125731},"geometry":{"type":"Point","coordinates":[-94.162776,36.110806]}},{"type":"Feature","id":"5228feff70d483a2380452c8","properties":{"id":"5228feff70d483a2380452c8","incentives_received":{"year_2011":false,"year_2011_amt":null,"year_2012":true,"year_2012_amt":"18,000.00 ","year_2013":false,"year_2013_amt":null},"phone_number":"(479) 770-4100","address":{"address":"212 W Monroe Ave Ste B","city":"Lowell","state":"Arkansas","zip":"72745"},"name":"olsen, mark","npi":1831108430},"geometry":{"type":"Point","coordinates":[-94.142491,36.25421]}},{"type":"Feature","id":"5228feff70d483a23804529e","properties":{"id":"5228feff70d483a23804529e","incentives_received":{"year_2011":true,"year_2011_amt":"18,000.00 ","year_2012":true,"year_2012_amt":"12,000.00 ","year_2013":false,"year_2013_amt":null},"phone_number":"(501) 767-1144","address":{"address":"2605 Albert Pike Rd","city":"Hot Springs","state":"Arkansas","zip":"71913"},"name":"Reeves, Amy","npi":1831103050},"geometry":{"type":"Point","coordinates":[-93.069439,34.490072]}},{"type":"Feature","id":"5228feff70d483a2380451ec","properties":{"id":"5228feff70d483a2380451ec","incentives_received":{"year_2011":false,"year_2011_amt":null,"year_2012":true,"year_2012_amt":"18,000.00 ","year_2013":false,"year_2013_amt":null},"phone_number":"(870) 425-3131","address":{"address":"614 North Town","city":"Mountain Home","state":"Arkansas","zip":"72653"},"name":"Ezell, Ronald","npi":1821259508},"geometry":{"type":"Point","coordinates":[-92.369558,36.259142]}},{"type":"Feature","id":"5228feff70d483a238045110","properties":{"id":"5228feff70d483a238045110","incentives_received":{"year_2011":false,"year_2011_amt":null,"year_2012":true,"year_2012_amt":"18,000.00 ","year_2013":false,"year_2013_amt":null},"phone_number":"(870) 887-3596","address":{"address":"204 E 2nd Street S","city":"Prescott","state":"Arkansas","zip":"71857"},"name":"Teague, Audie","npi":1821185091},"geometry":{"type":"Point","coordinates":[-93.38065,33.800702]}},{"type":"Feature","id":"5228feff70d483a238044fc6","properties":{"id":"5228feff70d483a238044fc6","incentives_received":{"year_2011":true,"year_2011_amt":"16,459.00 ","year_2012":true,"year_2012_amt":"12,000.00 ","year_2013":false,"year_2013_amt":null},"phone_number":"(501) 321-2229","address":{"address":"118 Womens Center Lane, Suite B","city":"Hot Springs","state":"Arkansas","zip":"71913"},"name":"Henson, Clinton","npi":1821099326},"geometry":{"type":"Point","coordinates":[-93.149997,34.511757]}},{"type":"Feature","id":"5228feff70d483a238044d3f","properties":{"id":"5228feff70d483a238044d3f","incentives_received":{"year_2011":false,"year_2011_amt":null,"year_2012":true,"year_2012_amt":"18,000.00 ","year_2013":false,"year_2013_amt":null},"phone_number":"(870) 935-4150","address":{"address":"311 Matthews Avenue","city":"Jonesboro","state":"Arkansas","zip":"72401"},"name":"Scroggin, Carroll","npi":1821058991},"geometry":{"type":"Point","coordinates":[-90.703215,35.835681]}},{"type":"Feature","id":"5228feff70d483a238044d24","properties":{"id":"5228feff70d483a238044d24","incentives_received":{"year_2011":false,"year_2011_amt":null,"year_2012":true,"year_2012_amt":"18,000.00 ","year_2013":false,"year_2013_amt":null},"phone_number":"(501) 604-6900","address":{"address":"10301 Kanis Rd","city":"Little Rock","state":"Arkansas","zip":"72205"},"name":"Wassell, David","npi":1821057480},"geometry":{"type":"Point","coordinates":[-92.388637,34.742831]}},{"type":"Feature","id":"5228feff70d483a238044cc7","properties":{"id":"5228feff70d483a238044cc7","incentives_received":{"year_2011":false,"year_2011_amt":null,"year_2012":true,"year_2012_amt":"18,000.00 ","year_2013":false,"year_2013_amt":null},"phone_number":"(501) 676-0858","address":{"address":"130 J F Blvd","city":"Lonoke","state":"Arkansas","zip":"72086"},"name":"ANDERSON, LESLIE","npi":1821050022},"geometry":{"type":"Point","coordinates":[-92.32495,34.548448]}},{"type":"Feature","id":"5228feff70d483a238044ccc","properties":{"id":"5228feff70d483a238044ccc","incentives_received":{"year_2011":false,"year_2011_amt":null,"year_2012":true,"year_2012_amt":"18,000.00 ","year_2013":false,"year_2013_amt":null},"phone_number":"(501) 978-8618","address":{"address":"9101 Kanis Road, Suite 400","city":"Little Rock","state":"Arkansas","zip":"72205"},"name":"Mocek, Christopher","npi":1821050618},"geometry":{"type":"Point","coordinates":[-92.374848,34.740611]}},{"type":"Feature","id":"5228feff70d483a238044cc1","properties":{"id":"5228feff70d483a238044cc1","incentives_received":{"year_2011":false,"year_2011_amt":null,"year_2012":true,"year_2012_amt":"18,000.00 ","year_2013":false,"year_2013_amt":null},"phone_number":"(501) 623-7900","address":{"address":"4517 Park Ave","city":"Hot Springs","state":"Arkansas","zip":"71901"},"name":"Finch, Richard","npi":1821049453},"geometry":{"type":"Point","coordinates":[-92.984055,34.576752]}},{"type":"Feature","id":"5228feff70d483a238044bb6","properties":{"id":"5228feff70d483a238044bb6","incentives_received":{"year_2011":false,"year_2011_amt":null,"year_2012":true,"year_2012_amt":"18,000.00 ","year_2013":false,"year_2013_amt":null},"phone_number":"(479) 443-3536","address":{"address":"3340 N College Ave, Suite 5","city":"Fayetteville","state":"Arkansas","zip":"72703"},"name":"Hennigan, Cheryl","npi":1821026329},"geometry":{"type":"Point","coordinates":[-94.145108,36.11344]}},{"type":"Feature","id":"5228feff70d483a238044b5e","properties":{"id":"5228feff70d483a238044b5e","incentives_received":{"year_2011":false,"year_2011_amt":null,"year_2012":true,"year_2012_amt":"13,905.92 ","year_2013":false,"year_2013_amt":null},"phone_number":"(501) 223-2345","address":{"address":"205 N Van Buren St","city":"Little Rock","state":"Arkansas","zip":"72205"},"name":"Jones, Edward","npi":1821017559},"geometry":{"type":"Point","coordinates":[-92.330281,34.75289]}},{"type":"Feature","id":"5228feff70d483a238044b1d","properties":{"id":"5228feff70d483a238044b1d","incentives_received":{"year_2011":false,"year_2011_amt":null,"year_2012":true,"year_2012_amt":"18,000.00 ","year_2013":false,"year_2013_amt":null},"phone_number":"(501) 327-1325","address":{"address":"437 Denison St","city":"Conway","state":"Arkansas","zip":"72034"},"name":"Long, Stephen","npi":1821012089},"geometry":{"type":"Point","coordinates":[-92.46513,35.084185]}},{"type":"Feature","id":"5228feff70d483a238044b06","properties":{"id":"5228feff70d483a238044b06","incentives_received":{"year_2011":false,"year_2011_amt":null,"year_2012":true,"year_2012_amt":"18,000.00 ","year_2013":false,"year_2013_amt":null},"phone_number":"(501) 255-6000","address":{"address":"10100 Kanis Rd","city":"Little Rock","state":"Arkansas","zip":"72205"},"name":"MURPHY, TENA","npi":1821009341},"geometry":{"type":"Point","coordinates":[-92.386621,34.742889]}},{"type":"Feature","id":"5228feff70d483a2380449a7","properties":{"id":"5228feff70d483a2380449a7","incentives_received":{"year_2011":false,"year_2011_amt":null,"year_2012":true,"year_2012_amt":"18,000.00 ","year_2013":false,"year_2013_amt":null},"phone_number":"(870) 932-1198","address":{"address":"300 Carson St","city":"Jonesboro","state":"Arkansas","zip":"72401"},"name":"Diamond, Corey","npi":1811983398},"geometry":{"type":"Point","coordinates":[-90.701247,35.840759]}},{"type":"Feature","id":"5228feff70d483a238044948","properties":{"id":"5228feff70d483a238044948","incentives_received":{"year_2011":false,"year_2011_amt":null,"year_2012":true,"year_2012_amt":"18,000.00 ","year_2013":false,"year_2013_amt":null},"phone_number":"(501) 227-5050","address":{"address":"10201 Kanis Rd","city":"Little Rock","state":"Arkansas","zip":"72205"},"name":"COLCLASURE, JOE","npi":1811977838},"geometry":{"type":"Point","coordinates":[-92.387745,34.742855]}},{"type":"Feature","id":"5228feff70d483a238044904","properties":{"id":"5228feff70d483a238044904","incentives_received":{"year_2011":false,"year_2011_amt":null,"year_2012":true,"year_2012_amt":"18,000.00 ","year_2013":false,"year_2013_amt":null},"phone_number":"(870) 535-4850","address":{"address":"1801 W 40th Ave","city":"Pine Bluff","state":"Arkansas","zip":"71603"},"name":"Thrash, John","npi":1811973225},"geometry":{"type":"Point","coordinates":[-92.019982,34.189119]}},{"type":"Feature","id":"5228feff70d483a2380447d5","properties":{"id":"5228feff70d483a2380447d5","incentives_received":{"year_2011":false,"year_2011_amt":null,"year_2012":true,"year_2012_amt":"18,000.00 ","year_2013":false,"year_2013_amt":null},"phone_number":"(870) 932-8222","address":{"address":"4901 E Johnson Ave","city":"Jonesboro","state":"Arkansas","zip":"72401"},"name":"Shown, Tim","npi":1811953177},"geometry":{"type":"Point","coordinates":[-90.637065,35.864128]}},{"type":"Feature","id":"5228feff70d483a238044728","properties":{"id":"5228feff70d483a238044728","incentives_received":{"year_2011":false,"year_2011_amt":null,"year_2012":true,"year_2012_amt":"18,000.00 ","year_2013":false,"year_2013_amt":null},"phone_number":"(870) 536-4100","address":{"address":"3805 W 28th Ave","city":"Pine Bluff","state":"Arkansas","zip":"71603"},"name":"McFarland, Michael","npi":1811939770},"geometry":{"type":"Point","coordinates":[-92.042846,34.201823]}},{"type":"Feature","id":"5228feff70d483a2380446c0","properties":{"id":"5228feff70d483a2380446c0","incentives_received":{"year_2011":true,"year_2011_amt":"18,000.00 ","year_2012":true,"year_2012_amt":"12,000.00 ","year_2013":false,"year_2013_amt":null},"phone_number":"(479) 338-4400","address":{"address":"2708 Rife Medical Lane, Suite 220","city":"Rogers","state":"Arkansas","zip":"72758"},"name":"Simpson, Christopher","npi":1811931090},"geometry":{"type":"Point","coordinates":[-94.154868,36.332453]}},{"type":"Feature","id":"5228feff70d483a238044685","properties":{"id":"5228feff70d483a238044685","incentives_received":{"year_2011":true,"year_2011_amt":"18,000.00 ","year_2012":true,"year_2012_amt":"12,000.00 ","year_2013":false,"year_2013_amt":null},"phone_number":"(479) 273-9056","address":{"address":"1000 SE 13th Court","city":"Bentonville","state":"Arkansas","zip":"72712"},"name":"Saez, Roberto","npi":1811925910},"geometry":{"type":"Point","coordinates":[-94.197861,36.357996]}},{"type":"Feature","id":"5228feff70d483a238044662","properties":{"id":"5228feff70d483a238044662","incentives_received":{"year_2011":true,"year_2011_amt":"18,000.00 ","year_2012":true,"year_2012_amt":"12,000.00 ","year_2013":false,"year_2013_amt":null},"phone_number":"(870) 364-9111","address":{"address":"909 Unity Rd","city":"Crossett","state":"Arkansas","zip":"71635"},"name":"Malloy, Mark","npi":1811921455},"geometry":{"type":"Point","coordinates":[-91.952973,33.136169]}},{"type":"Feature","id":"5228feff70d483a23804464c","properties":{"id":"5228feff70d483a23804464c","incentives_received":{"year_2011":false,"year_2011_amt":null,"year_2012":true,"year_2012_amt":"18,000.00 ","year_2013":false,"year_2013_amt":null},"phone_number":"(479) 709-6700","address":{"address":"3501 We Knight Dr","city":"Fort Smith","state":"Arkansas","zip":"72903"},"name":"Queeney, Joseph","npi":1811919160},"geometry":{"type":"Point","coordinates":[-94.358542,35.358156]}},{"type":"Feature","id":"5228fefe70d483a23804437b","properties":{"id":"5228fefe70d483a23804437b","incentives_received":{"year_2011":false,"year_2011_amt":null,"year_2012":true,"year_2012_amt":"18,000.00 ","year_2013":false,"year_2013_amt":null},"phone_number":"(501) 835-9444","address":{"address":"3401 Springhill Drive, Suite 390","city":"North Little Rock","state":"Arkansas","zip":"72117"},"name":"Moore, Pittman","npi":1811018880},"geometry":{"type":"Point","coordinates":[-92.218699,34.78404]}},{"type":"Feature","id":"5228fefe70d483a23804434e","properties":{"id":"5228fefe70d483a23804434e","incentives_received":{"year_2011":false,"year_2011_amt":null,"year_2012":true,"year_2012_amt":"18,000.00 ","year_2013":false,"year_2013_amt":null},"phone_number":"(479) 927-2100","address":{"address":"3409 Elm Springs Rd","city":"Springdale","state":"Arkansas","zip":"72762"},"name":"Irwin, Amy","npi":1811006760},"geometry":{"type":"Point","coordinates":[-94.168186,36.192936]}},{"type":"Feature","id":"5228fefe70d483a238043fdb","properties":{"id":"5228fefe70d483a238043fdb","incentives_received":{"year_2011":false,"year_2011_amt":null,"year_2012":true,"year_2012_amt":"18,000.00 ","year_2013":false,"year_2013_amt":null},"phone_number":"(501) 663-3647","address":{"address":"600 S McKinley St","city":"Little Rock","state":"Arkansas","zip":"72205"},"name":"Saer, Edward","npi":1801874078},"geometry":{"type":"Point","coordinates":[-92.345641,34.747386]}},{"type":"Feature","id":"5228fefe70d483a238043df2","properties":{"id":"5228fefe70d483a238043df2","incentives_received":{"year_2011":false,"year_2011_amt":null,"year_2012":true,"year_2012_amt":"18,000.00 ","year_2013":false,"year_2013_amt":null},"phone_number":"(870) 972-8181","address":{"address":"333 Stadium Blvd","city":"Jonesboro","state":"Arkansas","zip":"72401"},"name":"French, Traci","npi":1801842414},"geometry":{"type":"Point","coordinates":[-90.668677,35.828364]}},{"type":"Feature","id":"5228fefe70d483a238043a9d","properties":{"id":"5228fefe70d483a238043a9d","incentives_received":{"year_2011":false,"year_2011_amt":null,"year_2012":true,"year_2012_amt":"18,000.00 ","year_2013":false,"year_2013_amt":null},"phone_number":"(870) 935-4150","address":{"address":"311 E. Matthews","city":"Jonesboro","state":"Arkansas","zip":"72401"},"name":"Criner, Owen","npi":1790909943},"geometry":{"type":"Point","coordinates":[-90.703215,35.835681]}},{"type":"Feature","id":"5228fefe70d483a238043836","properties":{"id":"5228fefe70d483a238043836","incentives_received":{"year_2011":false,"year_2011_amt":null,"year_2012":true,"year_2012_amt":"12,731.18 ","year_2013":false,"year_2013_amt":null},"phone_number":"(479) 587-0227","address":{"address":"93 W Colt Square Dr, Suite 3","city":"Fayetteville","state":"Arkansas","zip":"72703"},"name":"Gibson, Dorothy","npi":1790783967},"geometry":{"type":"Point","coordinates":[-94.16389,36.098841]}},{"type":"Feature","id":"5228fefe70d483a2380437c9","properties":{"id":"5228fefe70d483a2380437c9","incentives_received":{"year_2011":false,"year_2011_amt":null,"year_2012":true,"year_2012_amt":"18,000.00 ","year_2013":false,"year_2013_amt":null},"phone_number":"(501) 604-6900","address":{"address":"10301 Kanis Rd","city":"Little Rock","state":"Arkansas","zip":"72205"},"name":"Hahn, Herbert","npi":1790777647},"geometry":{"type":"Point","coordinates":[-92.388637,34.742831]}},{"type":"Feature","id":"5228fefe70d483a238043786","properties":{"id":"5228fefe70d483a238043786","incentives_received":{"year_2011":false,"year_2011_amt":null,"year_2012":true,"year_2012_amt":"18,000.00 ","year_2013":false,"year_2013_amt":null},"phone_number":"(479) 474-5061","address":{"address":"620 Broadway St","city":"Van Buren","state":"Arkansas","zip":"72956"},"name":"Floyd, Rebecca","npi":1790773521},"geometry":{"type":"Point","coordinates":[-94.352085,35.433631]}},{"type":"Feature","id":"5228fefe70d483a2380436e8","properties":{"id":"5228fefe70d483a2380436e8","incentives_received":{"year_2011":false,"year_2011_amt":null,"year_2012":true,"year_2012_amt":"18,000.00 ","year_2013":false,"year_2013_amt":null},"phone_number":"(479) 442-2020","address":{"address":"594 E Millsap","city":"Fayetteville","state":"Arkansas","zip":"72703"},"name":"Shaver, Jonathan","npi":1790764454},"geometry":{"type":"Point","coordinates":[-94.149619,36.114479]}},{"type":"Feature","id":"5228fefe70d483a2380435fd","properties":{"id":"5228fefe70d483a2380435fd","incentives_received":{"year_2011":false,"year_2011_amt":null,"year_2012":true,"year_2012_amt":"18,000.00 ","year_2013":false,"year_2013_amt":null},