[{"type":"Feature","id":"5228ff0670d483a23804d6d5","properties":{"id":"5228ff0670d483a23804d6d5","incentives_received":{"year_2011":true,"year_2011_amt":"18,000.00 ","year_2012":true,"year_2012_amt":"12,000.00 ","year_2013":false,"year_2013_amt":null},"phone_number":"(810) 733-1200","address":{"address":"4466 W BRISTOL RD","city":"FLINT","state":"Michigan","zip":"48507"},"name":"Sardelli, Matthew","npi":1992992705},"geometry":{"type":"Point","coordinates":[-83.769948,42.972916]}},{"type":"Feature","id":"5228ff0670d483a23804d6a8","properties":{"id":"5228ff0670d483a23804d6a8","incentives_received":{"year_2011":false,"year_2011_amt":null,"year_2012":true,"year_2012_amt":"18,000.00 ","year_2013":false,"year_2013_amt":null},"phone_number":"(989) 631-8200","address":{"address":"4911 Hedgewood Dr","city":"Midland","state":"Michigan","zip":"48640"},"name":"Monaghan, Heidi","npi":1992971212},"geometry":{"type":"Point","coordinates":[-84.28517,43.641384]}},{"type":"Feature","id":"5228ff0670d483a23804d599","properties":{"id":"5228ff0670d483a23804d599","incentives_received":{"year_2011":false,"year_2011_amt":null,"year_2012":true,"year_2012_amt":"18,000.00 ","year_2013":false,"year_2013_amt":null},"phone_number":"(734) 764-4190","address":{"address":"1000 Wall Street","city":"Ann Arbor","state":"Michigan","zip":"48105"},"name":"Stein, Joshua","npi":1992885073},"geometry":{"type":"Point","coordinates":[-83.733817,42.287286]}},{"type":"Feature","id":"5228ff0670d483a23804d551","properties":{"id":"5228ff0670d483a23804d551","incentives_received":{"year_2011":false,"year_2011_amt":null,"year_2012":true,"year_2012_amt":"18,000.00 ","year_2013":false,"year_2013_amt":null},"phone_number":"(517) 321-1525","address":{"address":"4333 W St Joe Hwy","city":"Lansing","state":"Michigan","zip":"48917"},"name":"Beals, Carol","npi":1992870166},"geometry":{"type":"Point","coordinates":[-84.609629,42.726668]}},{"type":"Feature","id":"5228ff0670d483a23804d4ea","properties":{"id":"5228ff0670d483a23804d4ea","incentives_received":{"year_2011":false,"year_2011_amt":null,"year_2012":true,"year_2012_amt":"18,000.00 ","year_2013":false,"year_2013_amt":null},"phone_number":"(734) 434-4110","address":{"address":"5315 Elliott Dr, #102","city":"Ypsilanti","state":"Michigan","zip":"48197"},"name":"Cucchi, Anthony","npi":1992839963},"geometry":{"type":"Point","coordinates":[-83.658079,42.26568]}},{"type":"Feature","id":"5228ff0570d483a23804d4e0","properties":{"id":"5228ff0570d483a23804d4e0","incentives_received":{"year_2011":false,"year_2011_amt":null,"year_2012":true,"year_2012_amt":"18,000.00 ","year_2013":false,"year_2013_amt":null},"phone_number":"(734) 764-4190","address":{"address":"1000 Wall St","city":"Ann Arbor","state":"Michigan","zip":"48105"},"name":"Woodward, Maria","npi":1992833248},"geometry":{"type":"Point","coordinates":[-83.733817,42.287286]}},{"type":"Feature","id":"5228ff0570d483a23804d4de","properties":{"id":"5228ff0570d483a23804d4de","incentives_received":{"year_2011":false,"year_2011_amt":null,"year_2012":true,"year_2012_amt":"18,000.00 ","year_2013":false,"year_2013_amt":null},"phone_number":"(313) 871-8228","address":{"address":"9321 Joseph Campau St","city":"Hamtramck","state":"Michigan","zip":"48212"},"name":"Adler, Donald","npi":1992831911},"geometry":{"type":"Point","coordinates":[-83.055937,42.393807]}},{"type":"Feature","id":"5228ff0570d483a23804d4c2","properties":{"id":"5228ff0570d483a23804d4c2","incentives_received":{"year_2011":true,"year_2011_amt":"6,734.36 ","year_2012":true,"year_2012_amt":"5,186.54 ","year_2013":false,"year_2013_amt":null},"phone_number":"(810) 629-5566","address":{"address":"873 W Silver Lake Rd","city":"Fenton","state":"Michigan","zip":"48430"},"name":"Callard, James","npi":1992819692},"geometry":{"type":"Point","coordinates":[-83.716986,42.799381]}},{"type":"Feature","id":"5228ff0570d483a23804d4c9","properties":{"id":"5228ff0570d483a23804d4c9","incentives_received":{"year_2011":true,"year_2011_amt":"18,000.00 ","year_2012":true,"year_2012_amt":"12,000.00 ","year_2013":false,"year_2013_amt":null},"phone_number":"(989) 790-1001","address":{"address":"999 S. Washington Avenue, Suite 2","city":"Saginaw","state":"Michigan","zip":"48601"},"name":"Hackett, Timothy","npi":1992822928},"geometry":{"type":"Point","coordinates":[-83.837,43.44509]}},{"type":"Feature","id":"5228ff0570d483a23804d45a","properties":{"id":"5228ff0570d483a23804d45a","incentives_received":{"year_2011":true,"year_2011_amt":"18,000.00 ","year_2012":true,"year_2012_amt":"12,000.00 ","year_2013":false,"year_2013_amt":null},"phone_number":"(989) 781-2520","address":{"address":"8680 Gratiot Rd Ste A","city":"Saginaw","state":"Michigan","zip":"48609"},"name":"Cataquiz, Doris","npi":1992805592},"geometry":{"type":"Point","coordinates":[-84.084856,43.416124]}},{"type":"Feature","id":"5228ff0570d483a23804d425","properties":{"id":"5228ff0570d483a23804d425","incentives_received":{"year_2011":false,"year_2011_amt":null,"year_2012":true,"year_2012_amt":"18,000.00 ","year_2013":false,"year_2013_amt":null},"phone_number":"(248) 547-3535","address":{"address":"13801 W 9 Mile Rd","city":"Oak Park","state":"Michigan","zip":"48237"},"name":"Garg, Gobind","npi":1992798961},"geometry":{"type":"Point","coordinates":[-83.184513,42.459745]}},{"type":"Feature","id":"5228ff0570d483a23804d416","properties":{"id":"5228ff0570d483a23804d416","incentives_received":{"year_2011":true,"year_2011_amt":"18,000.00 ","year_2012":true,"year_2012_amt":"12,000.00 ","year_2013":false,"year_2013_amt":null},"phone_number":"(586) 498-4800","address":{"address":"22646 E 9 Mile Rd, Suite A","city":"St Clair Shores","state":"Michigan","zip":"48080"},"name":"Stachelski, Daniel","npi":1992797898},"geometry":{"type":"Point","coordinates":[-82.908836,42.47112]}},{"type":"Feature","id":"5228ff0570d483a23804d41c","properties":{"id":"5228ff0570d483a23804d41c","incentives_received":{"year_2011":false,"year_2011_amt":null,"year_2012":true,"year_2012_amt":"18,000.00 ","year_2013":false,"year_2013_amt":null},"phone_number":"(269) 408-1100","address":{"address":"3903 Hollywood Rd","city":"Saint Joseph","state":"Michigan","zip":"49085"},"name":"Bukhari, Ather","npi":1992798391},"geometry":{"type":"Point","coordinates":[-86.455883,42.046648]}},{"type":"Feature","id":"5228ff0570d483a23804d3d5","properties":{"id":"5228ff0570d483a23804d3d5","incentives_received":{"year_2011":false,"year_2011_amt":null,"year_2012":true,"year_2012_amt":"18,000.00 ","year_2013":false,"year_2013_amt":null},"phone_number":"(616) 748-9025","address":{"address":"8957 Ottogan St","city":"Holland","state":"Michigan","zip":"49423"},"name":"Vandevorde, Scott","npi":1992794200},"geometry":{"type":"Point","coordinates":[-85.997137,42.768995]}},{"type":"Feature","id":"5228ff0570d483a23804d3c5","properties":{"id":"5228ff0570d483a23804d3c5","incentives_received":{"year_2011":false,"year_2011_amt":null,"year_2012":true,"year_2012_amt":"9,183.55 ","year_2013":false,"year_2013_amt":null},"phone_number":"(248) 543-6000","address":{"address":"26711 Woodward Avenue, Suite 103","city":"Huntington Woods","state":"Michigan","zip":"48070"},"name":"Falkell, Barbara","npi":1992792964},"geometry":{"type":"Point","coordinates":[-83.157072,42.487697]}},{"type":"Feature","id":"5228ff0570d483a23804d3d2","properties":{"id":"5228ff0570d483a23804d3d2","incentives_received":{"year_2011":false,"year_2011_amt":null,"year_2012":true,"year_2012_amt":"18,000.00 ","year_2013":false,"year_2013_amt":null},"phone_number":"(313) 928-2777","address":{"address":"3030 Fort St","city":"Lincoln Park","state":"Michigan","zip":"48146"},"name":"Gilcher, Charles","npi":1992793905},"geometry":{"type":"Point","coordinates":[-83.180368,42.240542]}},{"type":"Feature","id":"5228ff0570d483a23804d3bd","properties":{"id":"5228ff0570d483a23804d3bd","incentives_received":{"year_2011":false,"year_2011_amt":null,"year_2012":true,"year_2012_amt":"18,000.00 ","year_2013":false,"year_2013_amt":null},"phone_number":"(989) 752-8189","address":{"address":"1300 N Michigan Ave","city":"Saginaw","state":"Michigan","zip":"48602"},"name":"Pike, Malcolm","npi":1992792444},"geometry":{"type":"Point","coordinates":[-83.952902,43.426145]}},{"type":"Feature","id":"5228ff0570d483a23804d39d","properties":{"id":"5228ff0570d483a23804d39d","incentives_received":{"year_2011":false,"year_2011_amt":null,"year_2012":true,"year_2012_amt":"18,000.00 ","year_2013":false,"year_2013_amt":null},"phone_number":"(989) 631-1345","address":{"address":"407 Wackerly Rd, Great Lakes Eye Institute","city":"Midland","state":"Michigan","zip":"48640"},"name":"Mesaros, Michael","npi":1992790703},"geometry":{"type":"Point","coordinates":[-84.230084,43.65474]}},{"type":"Feature","id":"5228ff0570d483a23804d37a","properties":{"id":"5228ff0570d483a23804d37a","incentives_received":{"year_2011":false,"year_2011_amt":null,"year_2012":true,"year_2012_amt":"18,000.00 ","year_2013":false,"year_2013_amt":null},"phone_number":"(248) 543-2000","address":{"address":"2033 Crooks Rd","city":"Royal Oak","state":"Michigan","zip":"48073"},"name":"Ehrmann, Robin","npi":1992788541},"geometry":{"type":"Point","coordinates":[-83.153589,42.506173]}},{"type":"Feature","id":"5228ff0570d483a23804d359","properties":{"id":"5228ff0570d483a23804d359","incentives_received":{"year_2011":true,"year_2011_amt":"18,000.00 ","year_2012":true,"year_2012_amt":"12,000.00 ","year_2013":false,"year_2013_amt":null},"phone_number":"(616) 846-3400","address":{"address":"600 Park Avenue","city":"Grand Haven","state":"Michigan","zip":"49417"},"name":"Young, Robbi","npi":1992786214},"geometry":{"type":"Point","coordinates":[-86.226045,43.053463]}},{"type":"Feature","id":"5228ff0570d483a23804d34e","properties":{"id":"5228ff0570d483a23804d34e","incentives_received":{"year_2011":false,"year_2011_amt":null,"year_2012":true,"year_2012_amt":"18,000.00 ","year_2013":false,"year_2013_amt":null},"phone_number":"(810) 238-1118","address":{"address":"G1075 N Ballenger Hwy","city":"Flint","state":"Michigan","zip":"48504"},"name":"Mikhail, Raouf","npi":1992785638},"geometry":{"type":"Point","coordinates":[-83.734404,43.019614]}},{"type":"Feature","id":"5228ff0570d483a23804d34c","properties":{"id":"5228ff0570d483a23804d34c","incentives_received":{"year_2011":false,"year_2011_amt":null,"year_2012":true,"year_2012_amt":"18,000.00 ","year_2013":false,"year_2013_amt":null},"phone_number":"(989) 734-2171","address":{"address":"573 N Bradley Hwy","city":"Rogers City","state":"Michigan","zip":"49779"},"name":"Allum, Thomas","npi":1992785547},"geometry":{"type":"Point","coordinates":[-83.833097,45.422138]}},{"type":"Feature","id":"5228ff0570d483a23804d325","properties":{"id":"5228ff0570d483a23804d325","incentives_received":{"year_2011":true,"year_2011_amt":"18,000.00 ","year_2012":true,"year_2012_amt":"12,000.00 ","year_2013":false,"year_2013_amt":null},"phone_number":"(989) 791-9133","address":{"address":"4680 McLeod Dr E","city":"Saginaw","state":"Michigan","zip":"48604"},"name":"Larkin, Medley","npi":1992782569},"geometry":{"type":"Point","coordinates":[-83.970568,43.47761]}},{"type":"Feature","id":"5228ff0570d483a23804d2a6","properties":{"id":"5228ff0570d483a23804d2a6","incentives_received":{"year_2011":true,"year_2011_amt":"18,000.00 ","year_2012":false,"year_2012_amt":null,"year_2013":false,"year_2013_amt":null},"phone_number":"(734) 462-8401","address":{"address":"15146 Levan Rd, Suite 46","city":"Livonia","state":"Michigan","zip":"48154"},"name":"Ramakrishnan, Vellore","npi":1992773394},"geometry":{"type":"Point","coordinates":[-83.402798,42.395271]}},{"type":"Feature","id":"5228ff0570d483a23804d291","properties":{"id":"5228ff0570d483a23804d291","incentives_received":{"year_2011":true,"year_2011_amt":"18,000.00 ","year_2012":false,"year_2012_amt":null,"year_2013":false,"year_2013_amt":null},"phone_number":"(734) 432-7591","address":{"address":"37595 7 Mile Rd, Suite 220","city":"Livonia","state":"Michigan","zip":"48152"},"name":"Giannola, Joseph","npi":1992772271},"geometry":{"type":"Point","coordinates":[-83.465826,42.407289]}},{"type":"Feature","id":"5228ff0570d483a23804d28f","properties":{"id":"5228ff0570d483a23804d28f","incentives_received":{"year_2011":false,"year_2011_amt":null,"year_2012":true,"year_2012_amt":"12,542.53 ","year_2013":false,"year_2013_amt":null},"phone_number":"(517) 484-3000","address":{"address":"1560 Turf Lane","city":"East Lansing","state":"Michigan","zip":"48823"},"name":"Guerin, Maude","npi":1992772131},"geometry":{"type":"Point","coordinates":[-84.664881,42.49444]}},{"type":"Feature","id":"5228ff0570d483a23804d28e","properties":{"id":"5228ff0570d483a23804d28e","incentives_received":{"year_2011":false,"year_2011_amt":null,"year_2012":true,"year_2012_amt":"10,710.66 ","year_2013":false,"year_2013_amt":null},"phone_number":"(517) 543-6360","address":{"address":"710 W Lawrence Ave","city":"Charlotte","state":"Michigan","zip":"48813"},"name":"Hansen, Heidi","npi":1992771984},"geometry":{"type":"Point","coordinates":[-84.845965,42.563979]}},{"type":"Feature","id":"5228ff0570d483a23804d25c","properties":{"id":"5228ff0570d483a23804d25c","incentives_received":{"year_2011":true,"year_2011_amt":"18,000.00 ","year_2012":true,"year_2012_amt":"12,000.00 ","year_2013":false,"year_2013_amt":null},"phone_number":"(616) 252-3100","address":{"address":"4685 Belding Rd NE","city":"Rockford","state":"Michigan","zip":"49341"},"name":"Stevens, Jeffrey","npi":1992769285},"geometry":{"type":"Point","coordinates":[-85.552337,43.086031]}},{"type":"Feature","id":"5228ff0570d483a23804d243","properties":{"id":"5228ff0570d483a23804d243","incentives_received":{"year_2011":false,"year_2011_amt":null,"year_2012":true,"year_2012_amt":"18,000.00 ","year_2013":false,"year_2013_amt":null},"phone_number":"(248) 333-1170","address":{"address":"42557 Woodward Ave, Suite 200","city":"Bloomfield Hills","state":"Michigan","zip":"48304"},"name":"Halabi, Abdul","npi":1992767578},"geometry":{"type":"Point","coordinates":[-83.260705,42.600251]}},{"type":"Feature","id":"5228ff0570d483a23804d231","properties":{"id":"5228ff0570d483a23804d231","incentives_received":{"year_2011":false,"year_2011_amt":null,"year_2012":true,"year_2012_amt":"18,000.00 ","year_2013":false,"year_2013_amt":null},"phone_number":"(269) 375-0400","address":{"address":"6565 W Main St","city":"Kalamazoo","state":"Michigan","zip":"49009"},"name":"Weber, Laurence","npi":1992766430},"geometry":{"type":"Point","coordinates":[-85.678312,42.295713]}},{"type":"Feature","id":"5228ff0570d483a23804d210","properties":{"id":"5228ff0570d483a23804d210","incentives_received":{"year_2011":false,"year_2011_amt":null,"year_2012":true,"year_2012_amt":"18,000.00 ","year_2013":false,"year_2013_amt":null},"phone_number":"(586) 264-0670","address":{"address":"5555 Metropolitan Parkway, Suite 400","city":"Sterling Heights","state":"Michigan","zip":"48310"},"name":"Khater, Mona","npi":1992763940},"geometry":{"type":"Point","coordinates":[-83.052452,42.565233]}},{"type":"Feature","id":"5228ff0570d483a23804d194","properties":{"id":"5228ff0570d483a23804d194","incentives_received":{"year_2011":false,"year_2011_amt":null,"year_2012":true,"year_2012_amt":"18,000.00 ","year_2013":false,"year_2013_amt":null},"phone_number":"(989) 631-1254","address":{"address":"2520 McCandless Dr","city":"Midland","state":"Michigan","zip":"48640"},"name":"Roden, David","npi":1992754402},"geometry":{"type":"Point","coordinates":[-84.257059,43.636968]}},{"type":"Feature","id":"5228ff0570d483a23804d176","properties":{"id":"5228ff0570d483a23804d176","incentives_received":{"year_2011":false,"year_2011_amt":null,"year_2012":true,"year_2012_amt":"18,000.00 ","year_2013":false,"year_2013_amt":null},"phone_number":"(616) 685-8050","address":{"address":"1471 E Beltline Ave NE, ste 201","city":"Grand Rapids","state":"Michigan","zip":"49525"},"name":"Saleh, Mohammad","npi":1992751739},"geometry":{"type":"Point","coordinates":[-85.631187,43.023415]}},{"type":"Feature","id":"5228ff0570d483a23804d174","properties":{"id":"5228ff0570d483a23804d174","incentives_received":{"year_2011":false,"year_2011_amt":null,"year_2012":true,"year_2012_amt":"18,000.00 ","year_2013":false,"year_2013_amt":null},"phone_number":"(989) 775-3823","address":{"address":"2480 Rosewood Drive","city":"Mount Pleasant","state":"Michigan","zip":"48858"},"name":"Mohan, Annu","npi":1992751663},"geometry":{"type":"Point","coordinates":[-84.489537,42.751114]}},{"type":"Feature","id":"5228ff0570d483a23804d11a","properties":{"id":"5228ff0570d483a23804d11a","incentives_received":{"year_2011":false,"year_2011_amt":null,"year_2012":true,"year_2012_amt":"14,644.05 ","year_2013":false,"year_2013_amt":null},"phone_number":"(517) 546-0200","address":{"address":"1200 Byron Rd","city":"Howell","state":"Michigan","zip":"48843"},"name":"Magon, Jacqueleen","npi":1992742464},"geometry":{"type":"Point","coordinates":[-83.940497,42.619559]}},{"type":"Feature","id":"5228ff0570d483a23804d10c","properties":{"id":"5228ff0570d483a23804d10c","incentives_received":{"year_2011":false,"year_2011_amt":null,"year_2012":true,"year_2012_amt":"18,000.00 ","year_2013":false,"year_2013_amt":null},"phone_number":"(269) 969-6254","address":{"address":"1409 W Michigan Ave","city":"Battle Creek","state":"Michigan","zip":"49017"},"name":"Desai, Sudhir","npi":1992741227},"geometry":{"type":"Point","coordinates":[-85.22942,42.344124]}},{"type":"Feature","id":"5228ff0570d483a23804d042","properties":{"id":"5228ff0570d483a23804d042","incentives_received":{"year_2011":false,"year_2011_amt":null,"year_2012":true,"year_2012_amt":"18,000.00 ","year_2013":false,"year_2013_amt":null},"phone_number":"(231) 592-1360","address":{"address":"20095 Gilbert Rd.","city":"Big Rapids","state":"Michigan","zip":"49307"},"name":"Goodman, Neil","npi":1992720684},"geometry":{"type":"Point","coordinates":[-85.486805,43.67144]}},{"type":"Feature","id":"5228ff0570d483a23804cfde","properties":{"id":"5228ff0570d483a23804cfde","incentives_received":{"year_2011":true,"year_2011_amt":"18,000.00 ","year_2012":false,"year_2012_amt":null,"year_2013":false,"year_2013_amt":null},"phone_number":"(269) 945-2419","address":{"address":"1005 W Green St, Suite  301","city":"Hastings","state":"Michigan","zip":"49058"},"name":"Brasseur, Scott","npi":1992709562},"geometry":{"type":"Point","coordinates":[-85.398039,42.691553]}},{"type":"Feature","id":"5228ff0570d483a23804cfd7","properties":{"id":"5228ff0570d483a23804cfd7","incentives_received":{"year_2011":false,"year_2011_amt":null,"year_2012":true,"year_2012_amt":"3,268.32 ","year_2013":false,"year_2013_amt":null},"phone_number":"(248) 280-8550","address":{"address":"30575 Woodward Ave","city":"Royal Oak","state":"Michigan","zip":"48073"},"name":"Zaltz, Ira","npi":1992709406},"geometry":{"type":"Point","coordinates":[-83.183066,42.514438]}},{"type":"Feature","id":"5228ff0570d483a23804cf9b","properties":{"id":"5228ff0570d483a23804cf9b","incentives_received":{"year_2011":false,"year_2011_amt":null,"year_2012":true,"year_2012_amt":"18,000.00 ","year_2013":false,"year_2013_amt":null},"phone_number":"(734) 647-8901","address":{"address":"1500 E Medical Center Dr, B1 floor Cancer Recp B","city":"Ann Arbor","state":"Michigan","zip":"48109"},"name":"Chottiner, Elaine","npi":1992705701},"geometry":{"type":"Point","coordinates":[-83.726757,42.281478]}},{"type":"Feature","id":"5228ff0570d483a23804cf1d","properties":{"id":"5228ff0570d483a23804cf1d","incentives_received":{"year_2011":false,"year_2011_amt":null,"year_2012":true,"year_2012_amt":"2,867.96 ","year_2013":false,"year_2013_amt":null},"phone_number":"(616) 457-9900","address":{"address":"7646 20th Ave","city":"Jenison","state":"Michigan","zip":"49428"},"name":"Zuidema, Lance","npi":1982963161},"geometry":{"type":"Point","coordinates":[-85.831854,42.907952]}},{"type":"Feature","id":"5228ff0570d483a23804cecf","properties":{"id":"5228ff0570d483a23804cecf","incentives_received":{"year_2011":false,"year_2011_amt":null,"year_2012":true,"year_2012_amt":"18,000.00 ","year_2013":false,"year_2013_amt":null},"phone_number":"(734) 878-1000","address":{"address":"1255 East M-36","city":"Pinckney","state":"Michigan","zip":"48169"},"name":"Koberlein, Junell","npi":1982868865},"geometry":{"type":"Point","coordinates":[-83.93277,42.457791]}},{"type":"Feature","id":"5228ff0570d483a23804ceb2","properties":{"id":"5228ff0570d483a23804ceb2","incentives_received":{"year_2011":false,"year_2011_amt":null,"year_2012":true,"year_2012_amt":"6,633.81 ","year_2013":false,"year_2013_amt":null},"phone_number":"(734) 936-6000","address":{"address":"1500 E Medical Center Dr, B1 floor Cancer Recp B","city":"Ann Arbor","state":"Michigan","zip":"48109"},"name":"Khoriaty, Rami","npi":1982861977},"geometry":{"type":"Point","coordinates":[-83.726757,42.281478]}},{"type":"Feature","id":"5228ff0570d483a23804ce87","properties":{"id":"5228ff0570d483a23804ce87","incentives_received":{"year_2011":false,"year_2011_amt":null,"year_2012":true,"year_2012_amt":"10,279.69 ","year_2013":false,"year_2013_amt":null},"phone_number":"(248) 853-6300","address":{"address":"1701 South Blvd E, Suite 150","city":"Rochester Hills","state":"Michigan","zip":"48307"},"name":"Ricketts, Robert","npi":1982834198},"geometry":{"type":"Point","coordinates":[-83.133817,42.682049]}},{"type":"Feature","id":"5228ff0570d483a23804ce77","properties":{"id":"5228ff0570d483a23804ce77","incentives_received":{"year_2011":false,"year_2011_amt":null,"year_2012":true,"year_2012_amt":"18,000.00 ","year_2013":false,"year_2013_amt":null},"phone_number":"(248) 478-1500","address":{"address":"18302 Middlebelt Rd","city":"Livonia","state":"Michigan","zip":"48152"},"name":"Misuraca, Michael","npi":1982826699},"geometry":{"type":"Point","coordinates":[-83.335467,42.41992]}},{"type":"Feature","id":"5228ff0570d483a23804ce2d","properties":{"id":"5228ff0570d483a23804ce2d","incentives_received":{"year_2011":false,"year_2011_amt":null,"year_2012":true,"year_2012_amt":"18,000.00 ","year_2013":false,"year_2013_amt":null},"phone_number":"(248) 855-3366","address":{"address":"6330 Orchard Lake Rd., Suite 120","city":"West Bloomfield","state":"Michigan","zip":"48322"},"name":"Cetner, Aaron","npi":1982802245},"geometry":{"type":"Point","coordinates":[-83.342552,42.547205]}},{"type":"Feature","id":"5228ff0570d483a23804ce1d","properties":{"id":"5228ff0570d483a23804ce1d","incentives_received":{"year_2011":true,"year_2011_amt":"18,000.00 ","year_2012":true,"year_2012_amt":"12,000.00 ","year_2013":false,"year_2013_amt":null},"phone_number":"(517) 324-3700","address":{"address":"1625 Ramblewood Dr","city":"East Lansing","state":"Michigan","zip":"48823"},"name":"Johnson, David","npi":1982799011},"geometry":{"type":"Point","coordinates":[-84.503057,42.75761]}},{"type":"Feature","id":"5228ff0570d483a23804cdf9","properties":{"id":"5228ff0570d483a23804cdf9","incentives_received":{"year_2011":false,"year_2011_amt":null,"year_2012":true,"year_2012_amt":"18,000.00 ","year_2013":false,"year_2013_amt":null},"phone_number":"(734) 429-2302","address":{"address":"700 East Woodland Dr","city":"Saline","state":"Michigan","zip":"48176"},"name":"Crump, John","npi":1982793840},"geometry":{"type":"Point","coordinates":[-83.7648,42.191092]}},{"type":"Feature","id":"5228ff0570d483a23804cdd6","properties":{"id":"5228ff0570d483a23804cdd6","incentives_received":{"year_2011":false,"year_2011_amt":null,"year_2012":true,"year_2012_amt":"3,102.63 ","year_2013":false,"year_2013_amt":null},"phone_number":"(734) 763-4876","address":{"address":"1500 East Medical Center Dr, 1st floor Cancer","city":"Ann Arbor","state":"Michigan","zip":"48109"},"name":"Koenig, Ronald","npi":1982787818},"geometry":{"type":"Point","coordinates":[-83.726757,42.281478]}},{"type":"Feature","id":"5228ff0570d483a23804cdd2","properties":{"id":"5228ff0570d483a23804cdd2","incentives_received":{"year_2011":false,"year_2011_amt":null,"year_2012":true,"year_2012_amt":"18,000.00 ","year_2013":false,"year_2013_amt":null},"phone_number":"(734) 936-7175","address":{"address":"325 East Eisenhower Pkwy, Suite 100","city":"Ann Arbor","state":"Michigan","zip":"48108"},"name":"Laidlaw, Ann","npi":1982786869},"geometry":{"type":"Point","coordinates":[-83.750785,42.243458]}},{"type":"Feature","id":"5228ff0570d483a23804cdc2","properties":{"id":"5228ff0570d483a23804cdc2","incentives_received":{"year_2011":false,"year_2011_amt":null,"year_2012":true,"year_2012_amt":"18,000.00 ","year_2013":false,"year_2013_amt":null},"phone_number":"(734) 240-4522","address":{"address":"718 N Macomb St","city":"Monroe","state":"Michigan","zip":"48162"},"name":"Olenchak, Daniel","npi":1982784336},"geometry":{"type":"Point","coordinates":[-83.38899,41.925478]}},{"type":"Feature","id":"5228ff0570d483a23804cd52","properties":{"id":"5228ff0570d483a23804cd52","incentives_received":{"year_2011":false,"year_2011_amt":null,"year_2012":true,"year_2012_amt":"18,000.00 ","year_2013":false,"year_2013_amt":null},"phone_number":"(989) 631-8200","address":{"address":"4911 Hedgewood Dr","city":"Midland","state":"Michigan","zip":"48640"},"name":"Laughner, Todd","npi":1982750170},"geometry":{"type":"Point","coordinates":[-84.28517,43.641384]}},{"type":"Feature","id":"5228ff0570d483a23804cd1f","properties":{"id":"5228ff0570d483a23804cd1f","incentives_received":{"year_2011":false,"year_2011_amt":null,"year_2012":true,"year_2012_amt":"18,000.00 ","year_2013":false,"year_2013_amt":null},"phone_number":"(616) 355-3897","address":{"address":"175 S. Waverly Rd.","city":"Holland","state":"Michigan","zip":"49423"},"name":"Dishinger, Brian","npi":1982727426},"geometry":{"type":"Point","coordinates":[-86.077594,42.791172]}},{"type":"Feature","id":"5228ff0570d483a23804cd0e","properties":{"id":"5228ff0570d483a23804cd0e","incentives_received":{"year_2011":false,"year_2011_amt":null,"year_2012":true,"year_2012_amt":"5,031.31 ","year_2013":false,"year_2013_amt":null},"phone_number":"(734) 398-7880","address":{"address":"49650 Cherry Hill Rd, Ste 240","city":"Canton","state":"Michigan","zip":"48187"},"name":"Schloesser, Christine","npi":1982720066},"geometry":{"type":"Point","coordinates":[-83.52782,42.306382]}},{"type":"Feature","id":"5228ff0570d483a23804ccbf","properties":{"id":"5228ff0570d483a23804ccbf","incentives_received":{"year_2011":false,"year_2011_amt":null,"year_2012":true,"year_2012_amt":"18,000.00 ","year_2013":false,"year_2013_amt":null},"phone_number":"(248) 888-9000","address":{"address":"20321 Farmington Rd","city":"Livonia","state":"Michigan","zip":"48152"},"name":"Dayana, Asha","npi":1982711016},"geometry":{"type":"Point","coordinates":[-83.3753,42.437182]}},{"type":"Feature","id":"5228ff0570d483a23804cc16","properties":{"id":"5228ff0570d483a23804cc16","incentives_received":{"year_2011":false,"year_2011_amt":null,"year_2012":true,"year_2012_amt":"18,000.00 ","year_2013":false,"year_2013_amt":null},"phone_number":"(248) 273-9930","address":{"address":"264 W Maple Rd, #200","city":"Troy","state":"Michigan","zip":"48084"},"name":"Duffy, Michael","npi":1982693677},"geometry":{"type":"Point","coordinates":[-83.158319,42.548169]}},{"type":"Feature","id":"5228ff0570d483a23804cbf9","properties":{"id":"5228ff0570d483a23804cbf9","incentives_received":{"year_2011":true,"year_2011_amt":"18,000.00 ","year_2012":true,"year_2012_amt":"12,000.00 ","year_2013":false,"year_2013_amt":null},"phone_number":"(248) 681-1880","address":{"address":"1012 W Huron St","city":"Waterford","state":"Michigan","zip":"48328"},"name":"Zazaian, Andrew","npi":1982692273},"geometry":{"type":"Point","coordinates":[-83.329581,42.635146]}},{"type":"Feature","id":"5228ff0570d483a23804cbcb","properties":{"id":"5228ff0570d483a23804cbcb","incentives_received":{"year_2011":true,"year_2011_amt":"18,000.00 ","year_2012":true,"year_2012_amt":"12,000.00 ","year_2013":false,"year_2013_amt":null},"phone_number":"(989) 356-9096","address":{"address":"2368 US 23 S","city":"Alpena","state":"Michigan","zip":"49707"},"name":"Skiba, Gerald","npi":1982689022},"geometry":{"type":"Point","coordinates":[-83.457271,45.093663]}},{"type":"Feature","id":"5228ff0570d483a23804cb88","properties":{"id":"5228ff0570d483a23804cb88","incentives_received":{"year_2011":false,"year_2011_amt":null,"year_2012":true,"year_2012_amt":"18,000.00 ","year_2013":false,"year_2013_amt":null},"phone_number":"(734) 434-6262","address":{"address":"5300 Elliott Dr","city":"Ypsilanti","state":"Michigan","zip":"48197"},"name":"Walsh, John","npi":1982684643},"geometry":{"type":"Point","coordinates":[-83.658681,42.26612]}},{"type":"Feature","id":"5228ff0570d483a23804cb85","properties":{"id":"5228ff0570d483a23804cb85","incentives_received":{"year_2011":false,"year_2011_amt":null,"year_2012":true,"year_2012_amt":"18,000.00 ","year_2013":false,"year_2013_amt":null},"phone_number":"(989) 754-3000","address":{"address":"1015 S Washington Ave","city":"Saginaw","state":"Michigan","zip":"48601"},"name":"Chen, David","npi":1982684551},"geometry":{"type":"Point","coordinates":[-83.944189,43.422544]}},{"type":"Feature","id":"5228ff0570d483a23804cb7d","properties":{"id":"5228ff0570d483a23804cb7d","incentives_received":{"year_2011":false,"year_2011_amt":null,"year_2012":true,"year_2012_amt":"18,000.00 ","year_2013":false,"year_2013_amt":null},"phone_number":"(248) 799-2600","address":{"address":"29877 Telegraph Rd, Suite 400","city":"Southfield","state":"Michigan","zip":"48034"},"name":"Qureshi, Mohammad","npi":1982684254},"geometry":{"type":"Point","coordinates":[-83.284668,42.487518]}},{"type":"Feature","id":"5228ff0570d483a23804cb2d","properties":{"id":"5228ff0570d483a23804cb2d","incentives_received":{"year_2011":false,"year_2011_amt":null,"year_2012":true,"year_2012_amt":"18,000.00 ","year_2013":false,"year_2013_amt":null},"phone_number":"(734) 240-4522","address":{"address":"718 N Macomb St","city":"Monroe","state":"Michigan","zip":"48162"},"name":"Doyle, James","npi":1982679262},"geometry":{"type":"Point","coordinates":[-83.38899,41.925478]}},{"type":"Feature","id":"5228ff0570d483a23804cb02","properties":{"id":"5228ff0570d483a23804cb02","incentives_received":{"year_2011":true,"year_2011_amt":"18,000.00 ","year_2012":false,"year_2012_amt":null,"year_2013":false,"year_2013_amt":null},"phone_number":"(734) 464-3251","address":{"address":"37799 Professional Center Dr, Suite 105","city":"Livonia","state":"Michigan","zip":"48154"},"name":"Anton, Salwan","npi":1982676433},"geometry":{"type":"Point","coordinates":[-83.41688,42.40963]}},{"type":"Feature","id":"5228ff0570d483a23804cab4","properties":{"id":"5228ff0570d483a23804cab4","incentives_received":{"year_2011":false,"year_2011_amt":null,"year_2012":true,"year_2012_amt":"18,000.00 ","year_2013":false,"year_2013_amt":null},"phone_number":"(269) 343-8170","address":{"address":"315 Turwill Ln","city":"Kalamazoo","state":"Michigan","zip":"49006"},"name":"BURNETT, QUINTER","npi":1982672127},"geometry":{"type":"Point","coordinates":[-85.637804,42.294083]}},{"type":"Feature","id":"5228ff0570d483a23804ca74","properties":{"id":"5228ff0570d483a23804ca74","incentives_received":{"year_2011":false,"year_2011_amt":null,"year_2012":true,"year_2012_amt":"18,000.00 ","year_2013":false,"year_2013_amt":null},"phone_number":"(248) 336-0123","address":{"address":"31157 Woodward Ave","city":"Royal Oak","state":"Michigan","zip":"48302"},"name":"Reaume, Darryl","npi":1982668448},"geometry":{"type":"Point","coordinates":[-83.267823,42.607233]}},{"type":"Feature","id":"5228ff0570d483a23804ca60","properties":{"id":"5228ff0570d483a23804ca60","incentives_received":{"year_2011":false,"year_2011_amt":null,"year_2012":true,"year_2012_amt":"18,000.00 ","year_2013":false,"year_2013_amt":null},"phone_number":"(248) 476-6400","address":{"address":"33466 W 8 Mile Rd, Suite 444","city":"Farmington Hills","state":"Michigan","zip":"48335"},"name":"Mastropaolo, Marc","npi":1982667002},"geometry":{"type":"Point","coordinates":[-83.38172,42.440447]}},{"type":"Feature","id":"5228ff0570d483a23804c9f0","properties":{"id":"5228ff0570d483a23804c9f0","incentives_received":{"year_2011":false,"year_2011_amt":null,"year_2012":true,"year_2012_amt":"18,000.00 ","year_2013":false,"year_2013_amt":null},"phone_number":"(989) 633-1350","address":{"address":"3009 N Saginaw Rd","city":"Midland","state":"Michigan","zip":"48640"},"name":"Poliskey, Jamie","npi":1982658787},"geometry":{"type":"Point","coordinates":[-84.262091,43.6412]}},{"type":"Feature","id":"5228ff0570d483a23804c990","properties":{"id":"5228ff0570d483a23804c990","incentives_received":{"year_2011":true,"year_2011_amt":"18,000.00 ","year_2012":false,"year_2012_amt":null,"year_2013":false,"year_2013_amt":null},"phone_number":"(810) 953-8700","address":{"address":"8203 S Saginaw St, suite d","city":"Grand Blanc","state":"Michigan","zip":"48439"},"name":"mcintosh-moore, barbara","npi":1982652103},"geometry":{"type":"Point","coordinates":[-83.609563,42.912532]}},{"type":"Feature","id":"5228ff0570d483a23804c92e","properties":{"id":"5228ff0570d483a23804c92e","incentives_received":{"year_2011":false,"year_2011_amt":null,"year_2012":true,"year_2012_amt":"18,000.00 ","year_2013":false,"year_2013_amt":null},"phone_number":"(616) 486-5299","address":{"address":"6105 Wilson Ave SW, Suite 202","city":"Grandville","state":"Michigan","zip":"49418"},"name":"Samuelson, James","npi":1982643466},"geometry":{"type":"Point","coordinates":[-85.762351,42.85474]}},{"type":"Feature","id":"5228ff0570d483a23804c912","properties":{"id":"5228ff0570d483a23804c912","incentives_received":{"year_2011":false,"year_2011_amt":null,"year_2012":false,"year_2012_amt":null,"year_2013":true,"year_2013_amt":"15,000.00 "},"phone_number":"(989) 832-6400","address":{"address":"5912 Eastman Ave","city":"Midland","state":"Michigan","zip":"48640"},"name":"Nadolski, David","npi":1982641098},"geometry":{"type":"Point","coordinates":[-84.24687,43.652116]}},{"type":"Feature","id":"5228ff0570d483a23804c8bd","properties":{"id":"5228ff0570d483a23804c8bd","incentives_received":{"year_2011":false,"year_2011_amt":null,"year_2012":true,"year_2012_amt":"18,000.00 ","year_2013":false,"year_2013_amt":null},"phone_number":"(517) 353-8122","address":{"address":"804 Service Road, Room @17","city":"East Lansing","state":"Michigan","zip":"48824"},"name":"Eggenberger, Eric","npi":1982632113},"geometry":{"type":"Point","coordinates":[-84.443806,42.531366]}},{"type":"Feature","id":"5228ff0570d483a23804c899","properties":{"id":"5228ff0570d483a23804c899","incentives_received":{"year_2011":false,"year_2011_amt":null,"year_2012":true,"year_2012_amt":"18,000.00 ","year_2013":false,"year_2013_amt":null},"phone_number":"(231) 935-0900","address":{"address":"4045 W Royal Dr","city":"Traverse City","state":"Michigan","zip":"49684"},"name":"Peters, Michael","npi":1982628848},"geometry":{"type":"Point","coordinates":[-85.6538,44.760529]}},{"type":"Feature","id":"5228ff0570d483a23804c818","properties":{"id":"5228ff0570d483a23804c818","incentives_received":{"year_2011":false,"year_2011_amt":null,"year_2012":true,"year_2012_amt":"18,000.00 ","year_2013":false,"year_2013_amt":null},"phone_number":"(989) 356-5241","address":{"address":"346 Long Rapids Plz","city":"Alpena","state":"Michigan","zip":"49707"},"name":"Rinke, Allan","npi":1982613642},"geometry":{"type":"Point","coordinates":[-83.464693,45.078565]}},{"type":"Feature","id":"5228ff0570d483a23804c7b5","properties":{"id":"5228ff0570d483a23804c7b5","incentives_received":{"year_2011":false,"year_2011_amt":null,"year_2012":true,"year_2012_amt":"18,000.00 ","year_2013":false,"year_2013_amt":null},"phone_number":"(586) 574-0500","address":{"address":"29433 Ryan Rd","city":"Warren","state":"Michigan","zip":"48092"},"name":"Kissel, Charles","npi":1982606414},"geometry":{"type":"Point","coordinates":[-83.067637,42.50901]}},{"type":"Feature","id":"5228ff0570d483a23804c79f","properties":{"id":"5228ff0570d483a23804c79f","incentives_received":{"year_2011":false,"year_2011_amt":null,"year_2012":true,"year_2012_amt":"18,000.00 ","year_2013":false,"year_2013_amt":null},"phone_number":"(586) 447-9060","address":{"address":"24900 Little Mack Ave","city":"Saint Clair Shores","state":"Michigan","zip":"48080"},"name":"Parcells, Jeffrey","npi":1982605275},"geometry":{"type":"Point","coordinates":[-82.907136,42.478938]}},{"type":"Feature","id":"5228ff0570d483a23804c793","properties":{"id":"5228ff0570d483a23804c793","incentives_received":{"year_2011":false,"year_2011_amt":null,"year_2012":true,"year_2012_amt":"18,000.00 ","year_2013":false,"year_2013_amt":null},"phone_number":"(231) 845-7380","address":{"address":"922 Lawndale St","city":"Ludington","state":"Michigan","zip":"49431"},"name":"O Callaghan, Timothy","npi":1982604617},"geometry":{"type":"Point","coordinates":[-86.433757,43.959594]}},{"type":"Feature","id":"5228ff0570d483a23804c6e7","properties":{"id":"5228ff0570d483a23804c6e7","incentives_received":{"year_2011":false,"year_2011_amt":null,"year_2012":true,"year_2012_amt":"18,000.00 ","year_2013":false,"year_2013_amt":null},"phone_number":"(989) 463-1139","address":{"address":"1321 Pine Ave","city":"Alma","state":"Michigan","zip":"48801"},"name":"SEALS, JAMES","npi":1972771046},"geometry":{"type":"Point","coordinates":[-84.65692,43.389436]}},{"type":"Feature","id":"5228ff0570d483a23804c6df","properties":{"id":"5228ff0570d483a23804c6df","incentives_received":{"year_2011":false,"year_2011_amt":null,"year_2012":true,"year_2012_amt":"18,000.00 ","year_2013":false,"year_2013_amt":null},"phone_number":"(989) 802-8867","address":{"address":"602 Beech St","city":"Clare","state":"Michigan","zip":"48617"},"name":"Nguyen, Trung","npi":1972768711},"geometry":{"type":"Point","coordinates":[-84.770392,43.819671]}},{"type":"Feature","id":"5228ff0570d483a23804c6de","properties":{"id":"5228ff0570d483a23804c6de","incentives_received":{"year_2011":false,"year_2011_amt":null,"year_2012":true,"year_2012_amt":"18,000.00 ","year_2013":false,"year_2013_amt":null},"phone_number":"(616) 355-3897","address":{"address":"175 S. Waverly Rd.","city":"Holland","state":"Michigan","zip":"49423"},"name":"Johnson, Derick","npi":1972768232},"geometry":{"type":"Point","coordinates":[-86.077594,42.791172]}},{"type":"Feature","id":"5228ff0570d483a23804c6dc","properties":{"id":"5228ff0570d483a23804c6dc","incentives_received":{"year_2011":false,"year_2011_amt":null,"year_2012":true,"year_2012_amt":"18,000.00 ","year_2013":false,"year_2013_amt":null},"phone_number":"(517) 278-6303","address":{"address":"350 Marshall St","city":"Coldwater","state":"Michigan","zip":"49036"},"name":"Swanson, John","npi":1972767689},"geometry":{"type":"Point","coordinates":[-85.000425,41.951522]}},{"type":"Feature","id":"5228ff0570d483a23804c6b7","properties":{"id":"5228ff0570d483a23804c6b7","incentives_received":{"year_2011":false,"year_2011_amt":null,"year_2012":true,"year_2012_amt":"18,000.00 ","year_2013":false,"year_2013_amt":null},"phone_number":"(734) 994-9119","address":{"address":"1928 West Stadium","city":"Ann Arbor","state":"Michigan","zip":"48103"},"name":"Rautio, Jeffrey","npi":1972754182},"geometry":{"type":"Point","coordinates":[-83.77172,42.268585]}},{"type":"Feature","id":"5228ff0570d483a23804c6c0","properties":{"id":"5228ff0570d483a23804c6c0","incentives_received":{"year_2011":false,"year_2011_amt":null,"year_2012":true,"year_2012_amt":"18,000.00 ","year_2013":false,"year_2013_amt":null},"phone_number":"(586) 777-2050","address":{"address":"24911 Little Mack Ave, Suite C","city":"Saint Clair Shores","state":"Michigan","zip":"48080"},"name":"Reynolds, Jenese","npi":1972760817},"geometry":{"type":"Point","coordinates":[-82.907064,42.479035]}},{"type":"Feature","id":"5228ff0570d483a23804c660","properties":{"id":"5228ff0570d483a23804c660","incentives_received":{"year_2011":false,"year_2011_amt":null,"year_2012":true,"year_2012_amt":"18,000.00 ","year_2013":false,"year_2013_amt":null},"phone_number":"(269) 373-7442","address":{"address":"200 N Park St","city":"Kalamazoo","state":"Michigan","zip":"49007"},"name":"Chandana, Sreenivasa","npi":1972705838},"geometry":{"type":"Point","coordinates":[-85.587323,42.29254]}},{"type":"Feature","id":"5228ff0570d483a23804c648","properties":{"id":"5228ff0570d483a23804c648","incentives_received":{"year_2011":false,"year_2011_amt":null,"year_2012":true,"year_2012_amt":"18,000.00 ","year_2013":false,"year_2013_amt":null},"phone_number":"(734) 764-6831","address":{"address":"4260 Plymouth Rd","city":"Ann Arbor","state":"Michigan","zip":"48109"},"name":"VITALE, CAROLINE","npi":1972699122},"geometry":{"type":"Point","coordinates":[-83.67663,42.309427]}},{"type":"Feature","id":"5228ff0570d483a23804c5f1","properties":{"id":"5228ff0570d483a23804c5f1","incentives_received":{"year_2011":false,"year_2011_amt":null,"year_2012":true,"year_2012_amt":"11,568.48 ","year_2013":false,"year_2013_amt":null},"phone_number":"(734) 647-5650","address":{"address":"4260 Plymouth Rd","city":"Ann Arbor","state":"Michigan","zip":"48109"},"name":"Krieger, Kristen","npi":1972685741},"geometry":{"type":"Point","coordinates":[-83.67663,42.309427]}},{"type":"Feature","id":"5228ff0570d483a23804c5d4","properties":{"id":"5228ff0570d483a23804c5d4","incentives_received":{"year_2011":true,"year_2011_amt":"18,000.00 ","year_2012":true,"year_2012_amt":"12,000.00 ","year_2013":false,"year_2013_amt":null},"phone_number":"(248) 967-3200","address":{"address":"22100 Greenfield Rd","city":"Oak Park","state":"Michigan","zip":"48237"},"name":"Calhoun, Michelle","npi":1972678548},"geometry":{"type":"Point","coordinates":[-83.200847,42.455096]}},{"type":"Feature","id":"5228ff0570d483a23804c5c3","properties":{"id":"5228ff0570d483a23804c5c3","incentives_received":{"year_2011":false,"year_2011_amt":null,"year_2012":true,"year_2012_amt":"18,000.00 ","year_2013":false,"year_2013_amt":null},"phone_number":"(248) 674-8530","address":{"address":"3145 Dixie Hwy","city":"Waterford","state":"Michigan","zip":"48328"},"name":"McDevitt, William","npi":1972672228},"geometry":{"type":"Point","coordinates":[-83.34985,42.67532]}},{"type":"Feature","id":"5228ff0570d483a23804c551","properties":{"id":"5228ff0570d483a23804c551","incentives_received":{"year_2011":true,"year_2011_amt":"18,000.00 ","year_2012":true,"year_2012_amt":"12,000.00 ","year_2013":false,"year_2013_amt":null},"phone_number":"(313) 561-4540","address":{"address":"8623 N Telegraph Rd, Suite # 1","city":"Dearborn Heights","state":"Michigan","zip":"48127"},"name":"Ruettinger, Harold","npi":1972622884},"geometry":{"type":"Point","coordinates":[-83.274069,42.355295]}},{"type":"Feature","id":"5228ff0570d483a23804c558","properties":{"id":"5228ff0570d483a23804c558","incentives_received":{"year_2011":false,"year_2011_amt":null,"year_2012":true,"year_2012_amt":"9,291.44 ","year_2013":false,"year_2013_amt":null},"phone_number":"(734) 764-6443","address":{"address":"4250 Plymouth Rd","city":"Ann Arbor","state":"Michigan","zip":"48109"},"name":"Jouney, Edward","npi":1972626059},"geometry":{"type":"Point","coordinates":[-83.676968,42.309367]}},{"type":"Feature","id":"5228ff0570d483a23804c532","properties":{"id":"5228ff0570d483a23804c532","incentives_received":{"year_2011":false,"year_2011_amt":null,"year_2012":true,"year_2012_amt":"12,534.66 ","year_2013":false,"year_2013_amt":null},"phone_number":"(989) 792-8686","address":{"address":"1885 N Center Rd","city":"Saginaw","state":"Michigan","zip":"48638"},"name":"Suppes, Kenneth","npi":1972617355},"geometry":{"type":"Point","coordinates":[-84.01463,43.434915]}},{"type":"Feature","id":"5228ff0570d483a23804c51d","properties":{"id":"5228ff0570d483a23804c51d","incentives_received":{"year_2011":true,"year_2011_amt":"18,000.00 ","year_2012":true,"year_2012_amt":"12,000.00 ","year_2013":false,"year_2013_amt":null},"phone_number":"(248) 543-0600","address":{"address":"1200 W 12 Mile Rd","city":"Madison Heights","state":"Michigan","zip":"48071"},"name":"Talbert, Jason","npi":1972614659},"geometry":{"type":"Point","coordinates":[-83.118057,42.504425]}},{"type":"Feature","id":"5228ff0570d483a23804c507","properties":{"id":"5228ff0570d483a23804c507","incentives_received":{"year_2011":true,"year_2011_amt":"18,000.00 ","year_2012":true,"year_2012_amt":"12,000.00 ","year_2013":false,"year_2013_amt":null},"phone_number":"(616) 374-7660","address":{"address":"4294 Laurel Dr","city":"Lake Odessa","state":"Michigan","zip":"48849"},"name":"Swanton, Brian","npi":1972612547},"geometry":{"type":"Point","coordinates":[-85.157747,42.783025]}},{"type":"Feature","id":"5228ff0570d483a23804c505","properties":{"id":"5228ff0570d483a23804c505","incentives_received":{"year_2011":false,"year_2011_amt":null,"year_2012":true,"year_2012_amt":"14,720.90 ","year_2013":false,"year_2013_amt":null},"phone_number":"(269) 659-6747","address":{"address":"1717 E Chicago Road","city":"Sturgis","state":"Michigan","zip":"49091"},"name":"Sanders, Kellie","npi":1972612174},"geometry":{"type":"Point","coordinates":[-85.399421,41.801557]}},{"type":"Feature","id":"5228ff0570d483a23804c4ed","properties":{"id":"5228ff0570d483a23804c4ed","incentives_received":{"year_2011":true,"year_2011_amt":"18,000.00 ","year_2012":false,"year_2012_amt":null,"year_2013":false,"year_2013_amt":null},"phone_number":"(269) 388-5864","address":{"address":"601 John St, M401","city":"Kalamazoo","state":"Michigan","zip":"49007"},"name":"Abraham, Thomas","npi":1972607422},"geometry":{"type":"Point","coordinates":[-85.581372,42.286175]}},{"type":"Feature","id":"5228ff0570d483a23804c4c3","properties":{"id":"5228ff0570d483a23804c4c3","incentives_received":{"year_2011":false,"year_2011_amt":null,"year_2012":true,"year_2012_amt":"18,000.00 ","year_2013":false,"year_2013_amt":null},"phone_number":"(269) 781-4700","address":{"address":"1170 W Mich Ave","city":"Marshall","state":"Michigan","zip":"49068"},"name":"Gray, William","npi":1972602936},"geometry":{"type":"Point","coordinates":[-84.948946,42.265016]}},{"type":"Feature","id":"5228ff0570d483a23804c48d","properties":{"id":"5228ff0570d483a23804c48d","incentives_received":{"year_2011":true,"year_2011_amt":"18,000.00 ","year_2012":true,"year_2012_amt":"12,000.00 ","year_2013":false,"year_2013_amt":null},"phone_number":"(989) 845-3835","address":{"address":"1180 W Broad St","city":"Chesaning","state":"Michigan","zip":"48616"},"name":"Hass, William","npi":1972598258},"geometry":{"type":"Point","coordinates":[-84.128588,43.18666]}},{"type":"Feature","id":"5228ff0570d483a23804c461","properties":{"id":"5228ff0570d483a23804c461","incentives_received":{"year_2011":false,"year_2011_amt":null,"year_2012":true,"year_2012_amt":"18,000.00 ","year_2013":false,"year_2013_amt":null},"phone_number":"(269) 273-6712","address":{"address":"1107 W Broadway St","city":"Three Rivers","state":"Michigan","zip":"49093"},"name":"McLeod, Gary","npi":1972595213},"geometry":{"type":"Point","coordinates":[-85.647735,41.932691]}},{"type":"Feature","id":"5228ff0570d483a23804c3c3","properties":{"id":"5228ff0570d483a23804c3c3","incentives_received":{"year_2011":false,"year_2011_amt":null,"year_2012":true,"year_2012_amt":"18,000.00 ","year_2013":false,"year_2013_amt":null},"phone_number":"(586) 447-0700","address":{"address":"28963 Little Mack Ave, Suite 101","city":"St Clair Shores","state":"Michigan","zip":"48081"},"name":"Barawi, Mohammed","npi":1972584191},"geometry":{"type":"Point","coordinates":[-82.908366,42.508934]}},{"type":"Feature","id":"5228ff0570d483a23804c3b3","properties":{"id":"5228ff0570d483a23804c3b3","incentives_received":{"year_2011":false,"year_2011_amt":null,"year_2012":true,"year_2012_amt":"18,000.00 ","year_2013":false,"year_2013_amt":null},"phone_number":"(248) 799-2600","address":{"address":"29877 Telegraph Rd, Suite 400","city":"Southfield","state":"Michigan","zip":"48034"},"name":"Siddiqui, Mukarram","npi":1972583177},"geometry":{"type":"Point","coordinates":[-83.284668,42.487518]}},{"type":"Feature","id":"5228ff0570d483a23804c30a","properties":{"id":"5228ff0570d483a23804c30a","incentives_received":{"year_2011":false,"year_2011_amt":null,"year_2012":true,"year_2012_amt":"18,000.00 ","year_2013":false,"year_2013_amt":null},"phone_number":"(313) 928-4444","address":{"address":"16000 Southfield Road","city":"Allen Park","state":"Michigan","zip":"48101"},"name":"Thamer, Jawad","npi":1972573731},"geometry":{"type":"Point","coordinates":[-83.206532,42.258969]}},{"type":"Feature","id":"5228ff0570d483a23804c2d1","properties":{"id":"5228ff0570d483a23804c2d1","incentives_received":{"year_2011":true,"year_2011_amt":"18,000.00 ","year_2012":true,"year_2012_amt":"12,000.00 ","year_2013":false,"year_2013_amt":null},"phone_number":"(989) 345-9774","address":{"address":"111 S. Third St","city":"West Branch","state":"Michigan","zip":"48661"},"name":"Miller, Amy","npi":1972569960},"geometry":{"type":"Point","coordinates":[-84.238613,44.276133]}},{"type":"Feature","id":"5228ff0570d483a23804c2a0","properties":{"id":"5228ff0570d483a23804c2a0","incentives_received":{"year_2011":false,"year_2011_amt":null,"year_2012":true,"year_2012_amt":"18,000.00 ","year_2013":false,"year_2013_amt":null},"phone_number":"(248) 598-5080","address":{"address":"1701 South Boulevard E., suite 160","city":"Rochester Hills","state":"Michigan","zip":"48307"},"name":"Calado, John","npi":1972567113},"geometry":{"type":"Point","coordinates":[-83.133817,42.682049]}},{"type":"Feature","id":"5228ff0570d483a23804c261","properties":{"id":"5228ff0570d483a23804c261","incentives_received":{"year_2011":false,"year_2011_amt":null,"year_2012":true,"year_2012_amt":"18,000.00 ","year_2013":false,"year_2013_amt":null},"phone_number":"(248) 543-6000","address":{"address":"26711 Woodward Ave, Ste 103","city":"Huntington Woods","state":"Michigan","zip":"48070"},"name":"Swanson, Karen","npi":1972562031},"geometry":{"type":"Point","coordinates":[-83.157072,42.487697]}},{"type":"Feature","id":"5228ff0570d483a23804c252","properties":{"id":"5228ff0570d483a23804c252","incentives_received":{"year_2011":false,"year_2011_amt":null,"year_2012":true,"year_2012_amt":"18,000.00 ","year_2013":false,"year_2013_amt":null},"phone_number":"(616) 459-4171","address":{"address":"25 Michigan St NE, Suite 3300","city":"Grand Rapids","state":"Michigan","zip":"49503"},"name":"Bigham, Diane","npi":1972561108},"geometry":{"type":"Point","coordinates":[-85.666471,42.970583]}},{"type":"Feature","id":"5228ff0570d483a23804c1e3","properties":{"id":"5228ff0570d483a23804c1e3","incentives_received":{"year_2011":false,"year_2011_amt":null,"year_2012":true,"year_2012_amt":"18,000.00 ","year_2013":false,"year_2013_amt":null},"phone_number":"(810) 299-8550","address":{"address":"2305 Genoa Business Park Dr, Suite 170","city":"Brighton","state":"Michigan","zip":"48114"},"name":"Mihalich, Robert","npi":1972551836},"geometry":{"type":"Point","coordinates":[-83.805752,42.568206]}},{"type":"Feature","id":"5228ff0570d483a23804c1ba","properties":{"id":"5228ff0570d483a23804c1ba","incentives_received":{"year_2011":false,"year_2011_amt":null,"year_2012":true,"year_2012_amt":"18,000.00 ","year_2013":false,"year_2013_amt":null},"phone_number":"(989) 732-3035","address":{"address":"529 S Wisconsin Ave","city":"Gaylord","state":"Michigan","zip":"49735"},"name":"Puroll, Kellie","npi":1972547917},"geometry":{"type":"Point","coordinates":[-84.682428,45.031047]}},{"type":"Feature","id":"5228ff0570d483a23804c191","properties":{"id":"5228ff0570d483a23804c191","incentives_received":{"year_2011":true,"year_2011_amt":"18,000.00 ","year_2012":true,"year_2012_amt":"12,000.00 ","year_2013":false,"year_2013_amt":null},"phone_number":"(810) 232-8888","address":{"address":"1121 W Hill Rd","city":"Flint","state":"Michigan","zip":"48507"},"name":"Murphy, Bradford","npi":1972544203},"geometry":{"type":"Point","coordinates":[-83.694855,42.944313]}},{"type":"Feature","id":"5228ff0570d483a23804c11b","properties":{"id":"5228ff0570d483a23804c11b","incentives_received":{"year_2011":false,"year_2011_amt":null,"year_2012":true,"year_2012_amt":"18,000.00 ","year_2013":false,"year_2013_amt":null},"phone_number":"(734) 697-4244","address":{"address":"125 W Columbia Ave","city":"Belleville","state":"Michigan","zip":"48111"},"name":"Loranger, Anna","npi":1972532307},"geometry":{"type":"Point","coordinates":[-83.486611,42.204563]}},{"type":"Feature","id":"5228ff0570d483a23804c0f6","properties":{"id":"5228ff0570d483a23804c0f6","incentives_received":{"year_2011":false,"year_2011_amt":null,"year_2012":true,"year_2012_amt":"18,000.00 ","year_2013":false,"year_2013_amt":null},"phone_number":"(734) 763-5459","address":{"address":"325 E Eisenhower, Suite 100","city":"Ann Arbor","state":"Michigan","zip":"48108"},"name":"Chiravuri, Srinivas","npi":1972529477},"geometry":{"type":"Point","coordinates":[-83.750785,42.243458]}},{"type":"Feature","id":"5228ff0570d483a23804c0fe","properties":{"id":"5228ff0570d483a23804c0fe","incentives_received":{"year_2011":true,"year_2011_amt":"15,603.66 ","year_2012":true,"year_2012_amt":"12,000.00 ","year_2013":false,"year_2013_amt":null},"phone_number":"(989) 729-4222","address":{"address":"300 HEALTH PARK DR., SUITE 304","city":"OWOSSO","state":"Michigan","zip":"48867"},"name":"SALMAN, REEM","npi":1972530046},"geometry":{"type":"Point","coordinates":[-84.169497,42.993755]}},{"type":"Feature","id":"5228ff0570d483a23804c0e1","properties":{"id":"5228ff0570d483a23804c0e1","incentives_received":{"year_2011":false,"year_2011_amt":null,"year_2012":true,"year_2012_amt":"18,000.00 ","year_2013":false,"year_2013_amt":null},"phone_number":"(248) 476-9250","address":{"address":"39500 W Ten Mile, Suite 101","city":"Novi","state":"Michigan","zip":"48375"},"name":"Murray, William","npi":1972526259},"geometry":{"type":"Point","coordinates":[-83.463343,42.46701]}},{"type":"Feature","id":"5228ff0570d483a23804c0ca","properties":{"id":"5228ff0570d483a23804c0ca","incentives_received":{"year_2011":true,"year_2011_amt":"18,000.00 ","year_2012":true,"year_2012_amt":"12,000.00 ","year_2013":false,"year_2013_amt":null},"phone_number":"(269) 373-1222","address":{"address":"601 John St, Ste 100","city":"Kalamazoo","state":"Michigan","zip":"49007"},"name":"Keller, Thomas","npi":1972523918},"geometry":{"type":"Point","coordinates":[-85.581372,42.286175]}},{"type":"Feature","id":"5228ff0470d483a23804c04c","properties":{"id":"5228ff0470d483a23804c04c","incentives_received":{"year_2011":false,"year_2011_amt":null,"year_2012":true,"year_2012_amt":"18,000.00 ","year_2013":false,"year_2013_amt":null},"phone_number":"(231) 398-9081","address":{"address":"315 Oakgrove St","city":"Manistee","state":"Michigan","zip":"49660"},"name":"Gates, James","npi":1972509487},"geometry":{"type":"Point","coordinates":[-86.30358,44.266925]}},{"type":"Feature","id":"5228ff0470d483a23804c02a","properties":{"id":"5228ff0470d483a23804c02a","incentives_received":{"year_2011":false,"year_2011_amt":null,"year_2012":true,"year_2012_amt":"905.74 ","year_2013":false,"year_2013_amt":null},"phone_number":"(616) 391-7800","address":{"address":"3271 Clear Vista Ct NE","city":"Grand Rapids","state":"Michigan","zip":"49525"},"name":"Fawcett, Kenneth","npi":1972507788},"geometry":{"type":"Point","coordinates":[-85.588515,43.039662]}},{"type":"Feature","id":"5228ff0470d483a23804c018","properties":{"id":"5228ff0470d483a23804c018","incentives_received":{"year_2011":false,"year_2011_amt":null,"year_2012":true,"year_2012_amt":"18,000.00 ","year_2013":false,"year_2013_amt":null},"phone_number":"(269) 651-2320","address":{"address":"102 S Lakeview Ave","city":"Sturgis","state":"Michigan","zip":"49091"},"name":"Wiseman, Frederick","npi":1972506558},"geometry":{"type":"Point","coordinates":[-85.409098,41.838567]}},{"type":"Feature","id":"5228ff0470d483a23804c005","properties":{"id":"5228ff0470d483a23804c005","incentives_received":{"year_2011":true,"year_2011_amt":"18,000.00 ","year_2012":true,"year_2012_amt":"12,000.00 ","year_2013":false,"year_2013_amt":null},"phone_number":"(313) 886-8787","address":{"address":"22201 Moross Rd, Ste 150","city":"Detroit","state":"Michigan","zip":"48236"},"name":"Topf, Joel","npi":1972505519},"geometry":{"type":"Point","coordinates":[-82.916829,42.419811]}},{"type":"Feature","id":"5228ff0470d483a23804c001","properties":{"id":"5228ff0470d483a23804c001","incentives_received":{"year_2011":false,"year_2011_amt":null,"year_2012":true,"year_2012_amt":"18,000.00 ","year_2013":false,"year_2013_amt":null},"phone_number":"(248) 932-2500","address":{"address":"28800 Orchard Lake Rd, Suite 250","city":"Farmington Hills","state":"Michigan","zip":"48334"},"name":"Sack, Bruce","npi":1972505303},"geometry":{"type":"Point","coordinates":[-83.32685,42.488002]}},{"type":"Feature","id":"5228ff0470d483a23804bfe9","properties":{"id":"5228ff0470d483a23804bfe9","incentives_received":{"year_2011":false,"year_2011_amt":null,"year_2012":true,"year_2012_amt":"18,000.00 ","year_2013":false,"year_2013_amt":null},"phone_number":"(734) 998-6541","address":{"address":"2098 S Main","city":"Ann Arbor","state":"Michigan","zip":"48103"},"name":"Holmes, James","npi":1972504223},"geometry":{"type":"Point","coordinates":[-83.751336,42.255022]}},{"type":"Feature","id":"5228ff0470d483a23804bfe1","properties":{"id":"5228ff0470d483a23804bfe1","incentives_received":{"year_2011":false,"year_2011_amt":null,"year_2012":true,"year_2012_amt":"3,514.38 ","year_2013":false,"year_2013_amt":null},"phone_number":"(248) 465-4340","address":{"address":"26850 Providence Pkwy, Suite 315","city":"Novi","state":"Michigan","zip":"48374"},"name":"Reinke-Young, Michelle","npi":1972503670},"geometry":{"type":"Point","coordinates":[-83.325674,42.488033]}},{"type":"Feature","id":"5228ff0470d483a23804bfd7","properties":{"id":"5228ff0470d483a23804bfd7","incentives_received":{"year_2011":false,"year_2011_amt":null,"year_2012":true,"year_2012_amt":"18,000.00 ","year_2013":false,"year_2013_amt":null},"phone_number":"(810) 230-0710","address":{"address":"G3252 Beecher Rd","city":"Flint","state":"Michigan","zip":"48532"},"name":"Vyskocil, James","npi":1972503274},"geometry":{"type":"Point","coordinates":[-83.747279,43.016696]}},{"type":"Feature","id":"5228ff0470d483a23804bf98","properties":{"id":"5228ff0470d483a23804bf98","incentives_received":{"year_2011":false,"year_2011_amt":null,"year_2012":true,"year_2012_amt":"18,000.00 ","year_2013":false,"year_2013_amt":null},"phone_number":"(734) 241-0560","address":{"address":"975 S Monroe St, Suite C","city":"Monroe","state":"Michigan","zip":"48161"},"name":"Evanoff-Jurkovic, Marguerite","npi":1962779447},"geometry":{"type":"Point","coordinates":[-83.404993,41.907608]}},{"type":"Feature","id":"5228ff0470d483a23804bf87","properties":{"id":"5228ff0470d483a23804bf87","incentives_received":{"year_2011":true,"year_2011_amt":"14,212.10 ","year_2012":false,"year_2012_amt":null,"year_2013":false,"year_2013_amt":null},"phone_number":"(989) 224-0646","address":{"address":"110 W Higham St","city":"Saint Johns","state":"Michigan","zip":"48879"},"name":"Metoyer, Alyce","npi":1962713982},"geometry":{"type":"Point","coordinates":[-84.55854,43.003526]}},{"type":"Feature","id":"5228ff0470d483a23804bf47","properties":{"id":"5228ff0470d483a23804bf47","incentives_received":{"year_2011":true,"year_2011_amt":"18,000.00 ","year_2012":true,"year_2012_amt":"12,000.00 ","year_2013":false,"year_2013_amt":null},"phone_number":"(313) 586-5006","address":{"address":"15500 Lundy Parkway","city":"Dearborn","state":"Michigan","zip":"48126"},"name":"Kane, Jeffrey","npi":1962674341},"geometry":{"type":"Point","coordinates":[-83.203336,42.332153]}},{"type":"Feature","id":"5228ff0470d483a23804bf18","properties":{"id":"5228ff0470d483a23804bf18","incentives_received":{"year_2011":false,"year_2011_amt":null,"year_2012":true,"year_2012_amt":"18,000.00 ","year_2013":false,"year_2013_amt":null},"phone_number":"(231) 935-8930","address":{"address":"3537 W. Front Street, Suite E","city":"Traverse City","state":"Michigan","zip":"49684"},"name":"Tamlyn, Renee","npi":1962654277},"geometry":{"type":"Point","coordinates":[-85.644308,44.763874]}},{"type":"Feature","id":"5228ff0470d483a23804befd","properties":{"id":"5228ff0470d483a23804befd","incentives_received":{"year_2011":false,"year_2011_amt":null,"year_2012":true,"year_2012_amt":"5,744.67 ","year_2013":false,"year_2013_amt":null},"phone_number":"(313) 586-5011","address":{"address":"15500 Lundy Parkway","city":"Dearborn","state":"Michigan","zip":"48126"},"name":"Raza, Mushahid","npi":1962631887},"geometry":{"type":"Point","coordinates":[-83.203336,42.332153]}},{"type":"Feature","id":"5228ff0470d483a23804be99","properties":{"id":"5228ff0470d483a23804be99","incentives_received":{"year_2011":true,"year_2011_amt":"18,000.00 ","year_2012":false,"year_2012_amt":null,"year_2013":false,"year_2013_amt":null},"phone_number":"(248) 435-6622","address":{"address":"30301 WOODWARD AVE, 120","city":"ROYAL OAK","state":"Michigan","zip":"48073"},"name":"KOGER, O'NEAL","npi":1962599530},"geometry":{"type":"Point","coordinates":[-83.181357,42.512559]}},{"type":"Feature","id":"5228ff0470d483a23804be97","properties":{"id":"5228ff0470d483a23804be97","incentives_received":{"year_2011":false,"year_2011_amt":null,"year_2012":true,"year_2012_amt":"9,121.70 ","year_2013":false,"year_2013_amt":null},"phone_number":"(517) 364-6200","address":{"address":"1215 East Michigan Ave","city":"Lansing","state":"Michigan","zip":"48912"},"name":"Doane, Cheryl","npi":1962599399},"geometry":{"type":"Point","coordinates":[-84.534776,42.733588]}},{"type":"Feature","id":"5228ff0470d483a23804be87","properties":{"id":"5228ff0470d483a23804be87","incentives_received":{"year_2011":true,"year_2011_amt":"18,000.00 ","year_2012":true,"year_2012_amt":"12,000.00 ","year_2013":false,"year_2013_amt":null},"phone_number":"(269) 343-8170","address":{"address":"315 Turwill Ln","city":"Kalamazoo","state":"Michigan","zip":"49006"},"name":"Sytsma, Mark","npi":1962597278},"geometry":{"type":"Point","coordinates":[-85.637804,42.294083]}},{"type":"Feature","id":"5228ff0470d483a23804be5d","properties":{"id":"5228ff0470d483a23804be5d","incentives_received":{"year_2011":false,"year_2011_amt":null,"year_2012":true,"year_2012_amt":"12,280.18 ","year_2013":false,"year_2013_amt":null},"phone_number":"(734) 998-7390","address":{"address":"1801 Briarwood Cir","city":"Ann Arbor","state":"Michigan","zip":"48108"},"name":"Serlin, David","npi":1962591826},"geometry":{"type":"Point","coordinates":[-83.741759,42.240972]}},{"type":"Feature","id":"5228ff0470d483a23804be35","properties":{"id":"5228ff0470d483a23804be35","incentives_received":{"year_2011":false,"year_2011_amt":null,"year_2012":true,"year_2012_amt":"18,000.00 ","year_2013":false,"year_2013_amt":null},"phone_number":"(989) 792-1375","address":{"address":"835 Midland Rd","city":"Saginaw","state":"Michigan","zip":"48638"},"name":"JOHNSON, JOHN","npi":1962585687},"geometry":{"type":"Point","coordinates":[-84.040467,43.423554]}},{"type":"Feature","id":"5228ff0470d483a23804be26","properties":{"id":"5228ff0470d483a23804be26","incentives_received":{"year_2011":true,"year_2011_amt":"8,603.08 ","year_2012":true,"year_2012_amt":"10,579.99 ","year_2013":false,"year_2013_amt":null},"phone_number":"(616) 281-9066","address":{"address":"5070 Cascade Rd SE, Suite 250","city":"Grand Rapids","state":"Michigan","zip":"49546"},"name":"Byington, David","npi":1962582155},"geometry":{"type":"Point","coordinates":[-85.542423,42.943069]}},{"type":"Feature","id":"5228ff0470d483a23804be1a","properties":{"id":"5228ff0470d483a23804be1a","incentives_received":{"year_2011":false,"year_2011_amt":null,"year_2012":true,"year_2012_amt":"18,000.00 ","year_2013":false,"year_2013_amt":null},"phone_number":"(248) 627-9595","address":{"address":"125 N. Ortonville Rd Ste A, Brandon Chiropractic Center","city":"Ortonville","state":"Michigan","zip":"48462"},"name":"Stark, Jay","npi":1962578575},"geometry":{"type":"Point","coordinates":[-83.452851,42.853556]}},{"type":"Feature","id":"5228ff0470d483a23804bdae","properties":{"id":"5228ff0470d483a23804bdae","incentives_received":{"year_2011":false,"year_2011_amt":null,"year_2012":true,"year_2012_amt":"18,000.00 ","year_2013":false,"year_2013_amt":null},"phone_number":"(586) 286-2350","address":{"address":"15945 19 mile Rd., Suite 103","city":"Clinton Township","state":"Michigan","zip":"48038"},"name":"Utarnachitt, Richard","npi":1962539619},"geometry":{"type":"Point","coordinates":[-82.527599,42.622415]}},{"type":"Feature","id":"5228ff0470d483a23804bdad","properties":{"id":"5228ff0470d483a23804bdad","incentives_received":{"year_2011":false,"year_2011_amt":null,"year_2012":true,"year_2012_amt":"18,000.00 ","year_2013":false,"year_2013_amt":null},"phone_number":"(269) 983-2020","address":{"address":"2904 Division St","city":"Saint Joseph","state":"Michigan","zip":"49085"},"name":"Dudley, Daniel","npi":1962539163},"geometry":{"type":"Point","coordinates":[-86.48679,42.083439]}},{"type":"Feature","id":"5228ff0470d483a23804bd8f","properties":{"id":"5228ff0470d483a23804bd8f","incentives_received":{"year_2011":false,"year_2011_amt":null,"year_2012":true,"year_2012_amt":"7,008.38 ","year_2013":false,"year_2013_amt":null},"phone_number":"(231) 591-2020","address":{"address":"1124 S State","city":"Big Rapids","state":"Michigan","zip":"49307"},"name":"Aris, Teresa","npi":1962519702},"geometry":{"type":"Point","coordinates":[-85.483786,43.685923]}},{"type":"Feature","id":"5228ff0470d483a23804bca6","properties":{"id":"5228ff0470d483a23804bca6","incentives_received":{"year_2011":true,"year_2011_amt":"18,000.00 ","year_2012":true,"year_2012_amt":"12,000.00 ","year_2013":false,"year_2013_amt":null},"phone_number":"(616) 241-2333","address":{"address":"5900 Byron Center Ave SW","city":"Wyoming","state":"Michigan","zip":"49519"},"name":"Walchak, Eric","npi":1962493395},"geometry":{"type":"Point","coordinates":[-85.721276,42.892361]}},{"type":"Feature","id":"5228ff0470d483a23804bc91","properties":{"id":"5228ff0470d483a23804bc91","incentives_received":{"year_2011":false,"year_2011_amt":null,"year_2012":true,"year_2012_amt":"18,000.00 ","year_2013":false,"year_2013_amt":null},"phone_number":"(989) 224-3937","address":{"address":"1002 N US 27","city":"Saint Johns","state":"Michigan","zip":"48879"},"name":"White, Mark","npi":1962491902},"geometry":{"type":"Point","coordinates":[-84.562996,43.019149]}},{"type":"Feature","id":"5228ff0470d483a23804bc27","properties":{"id":"5228ff0470d483a23804bc27","incentives_received":{"year_2011":false,"year_2011_amt":null,"year_2012":true,"year_2012_amt":"18,000.00 ","year_2013":false,"year_2013_amt":null},"phone_number":"(248) 544-2293","address":{"address":"28905 Woodward Ave","city":"Berkley","state":"Michigan","zip":"48072"},"name":"Pawlowski, David","npi":1962485318},"geometry":{"type":"Point","coordinates":[-83.171797,42.50282]}},{"type":"Feature","id":"5228ff0470d483a23804bbec","properties":{"id":"5228ff0470d483a23804bbec","incentives_received":{"year_2011":false,"year_2011_amt":null,"year_2012":true,"year_2012_amt":"18,000.00 ","year_2013":false,"year_2013_amt":null},"phone_number":"(989) 754-3000","address":{"address":"1015 S Washington Ave","city":"Saginaw","state":"Michigan","zip":"48601"},"name":"Fattal, Peter","npi":1962481085},"geometry":{"type":"Point","coordinates":[-83.944189,43.422544]}},{"type":"Feature","id":"5228ff0470d483a23804bbe9","properties":{"id":"5228ff0470d483a23804bbe9","incentives_received":{"year_2011":false,"year_2011_amt":null,"year_2012":true,"year_2012_amt":"18,000.00 ","year_2013":false,"year_2013_amt":null},"phone_number":"(248) 538-3020","address":{"address":"5641 W Maple Rd","city":"West Bloomfield","state":"Michigan","zip":"48322"},"name":"Sosa, Julio","npi":1962480731},"geometry":{"type":"Point","coordinates":[-83.357916,42.542932]}},{"type":"Feature","id":"5228ff0470d483a23804bb90","properties":{"id":"5228ff0470d483a23804bb90","incentives_received":{"year_2011":false,"year_2011_amt":null,"year_2012":true,"year_2012_amt":"16,527.16 ","year_2013":false,"year_2013_amt":null},"phone_number":"(248) 543-6000","address":{"address":"26711 Woodward Ave Ste 103","city":"Huntington Woods","state":"Michigan","zip":"48070"},"name":"Fulgenzi, Lisa","npi":1962475236},"geometry":{"type":"Point","coordinates":[-83.157072,42.487697]}},{"type":"Feature","id":"5228ff0470d483a23804bb5a","properties":{"id":"5228ff0470d483a23804bb5a","incentives_received":{"year_2011":false,"year_2011_amt":null,"year_2012":true,"year_2012_amt":"14,434.96 ","year_2013":false,"year_2013_amt":null},"phone_number":"(269) 343-8170","address":{"address":"315 Turwill Ln","city":"Kalamazoo","state":"Michigan","zip":"49006"},"name":"WILLMENG, THOMAS","npi":1962471730},"geometry":{"type":"Point","coordinates":[-85.637804,42.294083]}},{"type":"Feature","id":"5228ff0470d483a23804bb4a","properties":{"id":"5228ff0470d483a23804bb4a","incentives_received":{"year_2011":true,"year_2011_amt":"18,000.00 ","year_2012":false,"year_2012_amt":null,"year_2013":false,"year_2013_amt":null},"phone_number":"(734) 432-7591","address":{"address":"37595 7 Mile Rd, Suite 210","city":"Livonia","state":"Michigan","zip":"48152"},"name":"White, William","npi":1962470682},"geometry":{"type":"Point","coordinates":[-83.465826,42.407289]}},{"type":"Feature","id":"5228ff0470d483a23804bb42","properties":{"id":"5228ff0470d483a23804bb42","incentives_received":{"year_2011":true,"year_2011_amt":"18,000.00 ","year_2012":false,"year_2012_amt":null,"year_2013":false,"year_2013_amt":null},"phone_number":"(213) 843-4117","address":{"address":"409 W Ludington Ave","city":"Ludington","state":"Michigan","zip":"49431"},"name":"Branning, Jennifer","npi":1962470070},"geometry":{"type":"Point","coordinates":[-86.452042,43.955558]}},{"type":"Feature","id":"5228ff0470d483a23804bae1","properties":{"id":"5228ff0470d483a23804bae1","incentives_received":{"year_2011":false,"year_2011_amt":null,"year_2012":true,"year_2012_amt":"18,000.00 ","year_2013":false,"year_2013_amt":null},"phone_number":"(269) 375-0400","address":{"address":"6565 W Main St","city":"Kalamazoo","state":"Michigan","zip":"49009"},"name":"Winkler, Jill","npi":1962463141},"geometry":{"type":"Point","coordinates":[-85.678312,42.295713]}},{"type":"Feature","id":"5228ff0470d483a23804bab2","properties":{"id":"5228ff0470d483a23804bab2","incentives_received":{"year_2011":false,"year_2011_amt":null,"year_2012":true,"year_2012_amt":"18,000.00 ","year_2013":false,"year_2013_amt":null},"phone_number":"(616) 355-3897","address":{"address":"175 S. Waverly Rd.","city":"Holland","state":"Michigan","zip":"49423"},"name":"Mathur, Sanjeev","npi":1962459826},"geometry":{"type":"Point","coordinates":[-86.077594,42.791172]}},{"type":"Feature","id":"5228ff0470d483a23804ba8d","properties":{"id":"5228ff0470d483a23804ba8d","incentives_received":{"year_2011":false,"year_2011_amt":null,"year_2012":true,"year_2012_amt":"7,819.85 ","year_2013":false,"year_2013_amt":null},"phone_number":"(517) 647-7585","address":{"address":"912 E Grand River Ave","city":"Portland","state":"Michigan","zip":"48875"},"name":"Culp, Jennifer","npi":1962456350},"geometry":{"type":"Point","coordinates":[-84.8937,42.867619]}},{"type":"Feature","id":"5228ff0470d483a23804ba56","properties":{"id":"5228ff0470d483a23804ba56","incentives_received":{"year_2011":false,"year_2011_amt":null,"year_2012":true,"year_2012_amt":"18,000.00 ","year_2013":false,"year_2013_amt":null},"phone_number":"(586) 779-7870","address":{"address":"24715 Little Mack Ave, Suite 100","city":"Saint Clair Shores","state":"Michigan","zip":"48080"},"name":"Bishai, Shariff","npi":1962452524},"geometry":{"type":"Point","coordinates":[-82.907186,42.478124]}},{"type":"Feature","id":"5228ff0470d483a23804ba38","properties":{"id":"5228ff0470d483a23804ba38","incentives_received":{"year_2011":true,"year_2011_amt":"16,068.19 ","year_2012":true,"year_2012_amt":"12,000.00 ","year_2013":false,"year_2013_amt":null},"phone_number":"(517) 676-9066","address":{"address":"230 Temple St","city":"Mason","state":"Michigan","zip":"48854"},"name":"Kaneshiro, Kenneth","npi":1962450296},"geometry":{"type":"Point","coordinates":[-84.426789,42.580061]}},{"type":"Feature","id":"5228ff0470d483a23804b9f5","properties":{"id":"5228ff0470d483a23804b9f5","incentives_received":{"year_2011":false,"year_2011_amt":null,"year_2012":true,"year_2012_amt":"18,000.00 ","year_2013":false,"year_2013_amt":null},"phone_number":"(517) 353-4941","address":{"address":"804 Service Rd, Room A225","city":"East Lansing","state":"Michigan","zip":"48824"},"name":"Bouknight, Reynard","npi":1962444307},"geometry":{"type":"Point","coordinates":[-84.443806,42.531366]}},{"type":"Feature","id":"5228ff0470d483a23804ba25","properties":{"id":"5228ff0470d483a23804ba25","incentives_received":{"year_2011":true,"year_2011_amt":"18,000.00 ","year_2012":true,"year_2012_amt":"12,000.00 ","year_2013":false,"year_2013_amt":null},"phone_number":"(248) 669-2000","address":{"address":"2300 Haggerty Rd, Ste 1110","city":"West Bloomfield","state":"Michigan","zip":"48323"},"name":"Kwartowitz, Mark","npi":1962448803},"geometry":{"type":"Point","coordinates":[-83.438981,42.555405]}},{"type":"Feature","id":"5228ff0470d483a23804b9a7","properties":{"id":"5228ff0470d483a23804b9a7","incentives_received":{"year_2011":false,"year_2011_amt":null,"year_2012":true,"year_2012_amt":"18,000.00 ","year_2013":false,"year_2013_amt":null},"phone_number":"(989) 583-0100","address":{"address":"5570 State","city":"Saginaw","state":"Michigan","zip":"48638"},"name":"Squanda-Murphy, Lynn","npi":1962437400},"geometry":{"type":"Point","coordinates":[-84.041581,43.437081]}},{"type":"Feature","id":"5228ff0470d483a23804b937","properties":{"id":"5228ff0470d483a23804b937","incentives_received":{"year_2011":true,"year_2011_amt":"18,000.00 ","year_2012":true,"year_2012_amt":"12,000.00 ","year_2013":false,"year_2013_amt":null},"phone_number":"(989) 723-8281","address":{"address":"802 W King St Ste H","city":"Owosso","state":"Michigan","zip":"48867"},"name":"Wegman, Patrick","npi":1962426205},"geometry":{"type":"Point","coordinates":[-84.180259,43.005107]}},{"type":"Feature","id":"5228ff0470d483a23804b917","properties":{"id":"5228ff0470d483a23804b917","incentives_received":{"year_2011":false,"year_2011_amt":null,"year_2012":true,"year_2012_amt":"18,000.00 ","year_2013":false,"year_2013_amt":null},"phone_number":"(313) 832-8008","address":{"address":"3800 Woodward Ave. Suite 1100","city":"Detroit","state":"Michigan","zip":"48201"},"name":"Haq, Abdul","npi":1962422329},"geometry":{"type":"Point","coordinates":[-83.058245,42.348243]}},{"type":"Feature","id":"5228ff0470d483a23804b8c6","properties":{"id":"5228ff0470d483a23804b8c6","incentives_received":{"year_2011":false,"year_2011_amt":null,"year_2012":true,"year_2012_amt":"18,000.00 ","year_2013":false,"year_2013_amt":null},"phone_number":"(734) 764-4190","address":{"address":"1000 Wall St","city":"Ann Arbor","state":"Michigan","zip":"48105"},"name":"Demirci, Hakan","npi":1962412593},"geometry":{"type":"Point","coordinates":[-83.733817,42.287286]}},{"type":"Feature","id":"5228ff0470d483a23804b8ac","properties":{"id":"5228ff0470d483a23804b8ac","incentives_received":{"year_2011":false,"year_2011_amt":null,"year_2012":true,"year_2012_amt":"18,000.00 ","year_2013":false,"year_2013_amt":null},"phone_number":"(586) 468-1600","address":{"address":"133 S Main St","city":"Mount Clemens","state":"Michigan","zip":"48043"},"name":"Smith, Kenneth","npi":1962409961},"geometry":{"type":"Point","coordinates":[-82.880187,42.592125]}},{"type":"Feature","id":"5228ff0470d483a23804b891","properties":{"id":"5228ff0470d483a23804b891","incentives_received":{"year_2011":true,"year_2011_amt":"18,000.00 ","year_2012":true,"year_2012_amt":"12,000.00 ","year_2013":false,"year_2013_amt":null},"phone_number":"(231) 929-1234","address":{"address":"3074 N US 31 S","city":"Traverse City","state":"Michigan","zip":"49684"},"name":"Vlach, Jan","npi":1962408393},"geometry":{"type":"Point","coordinates":[-85.662533,44.672051]}},{"type":"Feature","id":"5228ff0470d483a23804b87e","properties":{"id":"5228ff0470d483a23804b87e","incentives_received":{"year_2011":true,"year_2011_amt":"18,000.00 ","year_2012":true,"year_2012_amt":"12,000.00 ","year_2013":false,"year_2013_amt":null},"phone_number":"(248) 363-7500","address":{"address":"8800 Commerce Road","city":"Commerce","state":"Michigan","zip":"48382"},"name":"Jain, Alka","npi":1962407544},"geometry":{"type":"Point","coordinates":[-83.457054,42.591907]}},{"type":"Feature","id":"5228ff0470d483a23804b83e","properties":{"id":"5228ff0470d483a23804b83e","incentives_received":{"year_2011":false,"year_2011_amt":null,"year_2012":true,"year_2012_amt":"6,430.77 ","year_2013":false,"year_2013_amt":null},"phone_number":"(231) 726-3635","address":{"address":"896 Jefferson St, Kent Optical","city":"Muskegon","state":"Michigan","zip":"49440"},"name":"Burmeister, Steven","npi":1962402883},"geometry":{"type":"Point","coordinates":[-86.24822,43.235954]}},{"type":"Feature","id":"5228ff0470d483a23804b7b7","properties":{"id":"5228ff0470d483a23804b7b7","incentives_received":{"year_2011":false,"year_2011_amt":null,"year_2012":true,"year_2012_amt":"18,000.00 ","year_2013":false,"year_2013_amt":null},"phone_number":"(989) 624-1500","address":{"address":"9900 Birch Run Rd","city":"Birch Run","state":"Michigan","zip":"48415"},"name":"Patel, Satya","npi":1952571341},"geometry":{"type":"Point","coordinates":[-83.757349,43.250117]}},{"type":"Feature","id":"5228ff0470d483a23804b767","properties":{"id":"5228ff0470d483a23804b767","incentives_received":{"year_2011":false,"year_2011_amt":null,"year_2012":true,"year_2012_amt":"3,664.21 ","year_2013":false,"year_2013_amt":null},"phone_number":"(313) 274-3320","address":{"address":"27031   Warren","city":"Dearborn Heighs","state":"Michigan","zip":"48127"},"name":"Skoures, Mary Ann","npi":1952531477},"geometry":{"type":"Point","coordinates":[-83.263185,42.341713]}},{"type":"Feature","id":"5228ff0470d483a23804b75d","properties":{"id":"5228ff0470d483a23804b75d","incentives_received":{"year_2011":false,"year_2011_amt":null,"year_2012":true,"year_2012_amt":"18,000.00 ","year_2013":false,"year_2013_amt":null},"phone_number":"(248) 865-9898","address":{"address":"30055 Northwestern Hwy, Suite 220","city":"Farmington Hills","state":"Michigan","zip":"48334"},"name":"Maynard, Robert","npi":1952525917},"geometry":{"type":"Point","coordinates":[-83.32685,42.488002]}},{"type":"Feature","id":"5228ff0470d483a23804b732","properties":{"id":"5228ff0470d483a23804b732","incentives_received":{"year_2011":false,"year_2011_amt":null,"year_2012":true,"year_2012_amt":"14,143.81 ","year_2013":false,"year_2013_amt":null},"phone_number":"(248) 437-5613","address":{"address":"26006 Pontiac Trl","city":"South Lyon","state":"Michigan","zip":"48178"},"name":"Scharer, Micah","npi":1952513210},"geometry":{"type":"Point","coordinates":[-83.650712,42.451632]}},{"type":"Feature","id":"5228ff0470d483a23804b6f4","properties":{"id":"5228ff0470d483a23804b6f4","incentives_received":{"year_2011":false,"year_2011_amt":null,"year_2012":true,"year_2012_amt":"4,268.43 ","year_2013":false,"year_2013_amt":null},"phone_number":"(810) 227-9510","address":{"address":"8001 Challis Rd","city":"Brighton","state":"Michigan","zip":"48116"},"name":"Young, Stephanie","npi":1952498743},"geometry":{"type":"Point","coordinates":[-83.79333,42.543882]}},{"type":"Feature","id":"5228ff0470d483a23804b5e5","properties":{"id":"5228ff0470d483a23804b5e5","incentives_received":{"year_2011":false,"year_2011_amt":null,"year_2012":true,"year_2012_amt":"6,219.16 ","year_2013":false,"year_2013_amt":null},"phone_number":"(734) 647-5944","address":{"address":"1500 E. Medical Center Drive, 3 rd floor Taubman Center Recp D","city":"Ann Arbor","state":"Michigan","zip":"48109"},"name":"Punglia, Darashana","npi":1952423170},"geometry":{"type":"Point","coordinates":[-83.726757,42.281478]}},{"type":"Feature","id":"5228ff0470d483a23804b5e6","properties":{"id":"5228ff0470d483a23804b5e6","incentives_received":{"year_2011":false,"year_2011_amt":null,"year_2012":true,"year_2012_amt":"18,000.00 ","year_2013":false,"year_2013_amt":null},"phone_number":"(734) 647-8901","address":{"address":"1500 E. Medical Center Dr., B1 floor Cancer Recp B","city":"Ann Arbor","state":"Michigan","zip":"48109"},"name":"Bixby, Dale","npi":1952423816},"geometry":{"type":"Point","coordinates":[-83.726757,42.281478]}},{"type":"Feature","id":"5228ff0470d483a23804b54e","properties":{"id":"5228ff0470d483a23804b54e","incentives_received":{"year_2011":false,"year_2011_amt":null,"year_2012":true,"year_2012_amt":"18,000.00 ","year_2013":false,"year_2013_amt":null},"phone_number":"(517) 841-2008","address":{"address":"850 W. North Street, Suite 104","city":"Jackson","state":"Michigan","zip":"49202"},"name":"Gordon, Carmelina","npi":1952399297},"geometry":{"type":"Point","coordinates":[-84.423834,42.25906]}},{"type":"Feature","id":"5228ff0470d483a23804b4fc","properties":{"id":"5228ff0470d483a23804b4fc","incentives_received":{"year_2011":false,"year_2011_amt":null,"year_2012":true,"year_2012_amt":"18,000.00 ","year_2013":false,"year_2013_amt":null},"phone_number":"(810) 329-6100","address":{"address":"1605 Fred Moore Hwy","city":"St Clair","state":"Michigan","zip":"48079"},"name":"Marshall, Eric","npi":1952394637},"geometry":{"type":"Point","coordinates":[-82.505354,42.817046]}},{"type":"Feature","id":"5228ff0470d483a23804b4ec","properties":{"id":"5228ff0470d483a23804b4ec","incentives_received":{"year_2011":false,"year_2011_amt":null,"year_2012":true,"year_2012_amt":"18,000.00 ","year_2013":false,"year_2013_amt":null},"phone_number":"(248) 478-1500","address":{"address":"18302 Middlebelt Rd","city":"Livonia","state":"Michigan","zip":"48152"},"name":"Keefe, Michael","npi":1952393985},"geometry":{"type":"Point","coordinates":[-83.335467,42.41992]}},{"type":"Feature","id":"5228ff0470d483a23804b4b2","properties":{"id":"5228ff0470d483a23804b4b2","incentives_received":{"year_2011":true,"year_2011_amt":"18,000.00 ","year_2012":true,"year_2012_amt":"12,000.00 ","year_2013":false,"year_2013_amt":null},"phone_number":"(313) 565-6566","address":{"address":"3133 S Telegraph Rd","city":"Dearborn","state":"Michigan","zip":"48124"},"name":"WRIGHT, HOWARD","npi":1952390957},"geometry":{"type":"Point","coordinates":[-83.271444,42.288662]}},{"type":"Feature","id":"5228ff0470d483a23804b445","properties":{"id":"5228ff0470d483a23804b445","incentives_received":{"year_2011":false,"year_2011_amt":null,"year_2012":true,"year_2012_amt":"18,000.00 ","year_2013":false,"year_2013_amt":null},"phone_number":"(248) 332-0111","address":{"address":"1044 Joslyn Ave","city":"Pontiac","state":"Michigan","zip":"48340"},"name":"Elceser, Leigh","npi":1952383549},"geometry":{"type":"Point","coordinates":[-83.280296,42.666663]}},{"type":"Feature","id":"5228ff0470d483a23804b41b","properties":{"id":"5228ff0470d483a23804b41b","incentives_received":{"year_2011":false,"year_2011_amt":null,"year_2012":true,"year_2012_amt":"18,000.00 ","year_2013":false,"year_2013_amt":null},"phone_number":"(586) 286-0050","address":{"address":"42645 Garfield Rd, Suite 103","city":"Clinton Twp","state":"Michigan","zip":"48038"},"name":"Winder, Christina","npi":1952381113},"geometry":{"type":"Point","coordinates":[-82.962077,42.612717]}},{"type":"Feature","id":"5228ff0470d483a23804b40f","properties":{"id":"5228ff0470d483a23804b40f","incentives_received":{"year_2011":false,"year_2011_amt":null,"year_2012":true,"year_2012_amt":"18,000.00 ","year_2013":false,"year_2013_amt":null},"phone_number":"(734) 434-6262","address":{"address":"5300 Elliott Dr","city":"Ypsilanti","state":"Michigan","zip":"48197"},"name":"Stoler, Robert","npi":1952380081},"geometry":{"type":"Point","coordinates":[-83.658681,42.26612]}},{"type":"Feature","id":"5228ff0470d483a23804b406","properties":{"id":"5228ff0470d483a23804b406","incentives_received":{"year_2011":true,"year_2011_amt":"18,000.00 ","year_2012":false,"year_2012_amt":null,"year_2013":false,"year_2013_amt":null},"phone_number":"(313) 864-4452","address":{"address":"7441 W 7 Mile Rd","city":"Detroit","state":"Michigan","zip":"48221"},"name":"MAITLAND, CONRAD","npi":1952379430},"geometry":{"type":"Point","coordinates":[-83.146168,42.43143]}},{"type":"Feature","id":"5228ff0470d483a23804b3ba","properties":{"id":"5228ff0470d483a23804b3ba","incentives_received":{"year_2011":false,"year_2011_amt":null,"year_2012":true,"year_2012_amt":"18,000.00 ","year_2013":false,"year_2013_amt":null},"phone_number":"(313) 277-6700","address":{"address":"21031 Michigan Ave","city":"Dearborn","state":"Michigan","zip":"48124"},"name":"PATEL, NILESH","npi":1952374282},"geometry":{"type":"Point","coordinates":[-83.226138,42.309165]}},{"type":"Feature","id":"5228ff0470d483a23804b39c","properties":{"id":"5228ff0470d483a23804b39c","incentives_received":{"year_2011":true,"year_2011_amt":"18,000.00 ","year_2012":true,"year_2012_amt":"12,000.00 ","year_2013":false,"year_2013_amt":null},"phone_number":"(734) 374-0500","address":{"address":"12701 Telegraph Rd","city":"Taylor","state":"Michigan","zip":"48180"},"name":"Goswami, Raj","npi":1952372799},"geometry":{"type":"Point","coordinates":[-83.268433,42.212225]}},{"type":"Feature","id":"5228ff0470d483a23804b394","properties":{"id":"5228ff0470d483a23804b394","incentives_received":{"year_2011":true,"year_2011_amt":"18,000.00 ","year_2012":true,"year_2012_amt":"12,000.00 ","year_2013":false,"year_2013_amt":null},"phone_number":"(231) 946-1120","address":{"address":"3601 W Front St","city":"Traverse City","state":"Michigan","zip":"49684"},"name":"Bohrer, Raymond","npi":1952372369},"geometry":{"type":"Point","coordinates":[-85.64449,44.763805]}},{"type":"Feature","id":"5228ff0470d483a23804b388","properties":{"id":"5228ff0470d483a23804b388","incentives_received":{"year_2011":false,"year_2011_amt":null,"year_2012":false,"year_2012_amt":null,"year_2013":true,"year_2013_amt":"14,700.00 "},"phone_number":"(269) 245-8662","address":{"address":"300 North Avenue","city":"Battle Creek","state":"Michigan","zip":"49016"},"name":"Smiley, Stephen","npi":1952371742},"geometry":{"type":"Point","coordinates":[-85.530876,42.244931]}},{"type":"Feature","id":"5228ff0470d483a23804b34e","properties":{"id":"5228ff0470d483a23804b34e","incentives_received":{"year_2011":false,"year_2011_amt":null,"year_2012":true,"year_2012_amt":"14,801.73 ","year_2013":false,"year_2013_amt":null},"phone_number":"(616) 396-4400","address":{"address":"509 Michigan Ave","city":"Holland","state":"Michigan","zip":"49423"},"name":"Van Kints, Ronald","npi":1952368375},"geometry":{"type":"Point","coordinates":[-86.110166,42.778294]}},{"type":"Feature","id":"5228ff0470d483a23804b314","properties":{"id":"5228ff0470d483a23804b314","incentives_received":{"year_2011":false,"year_2011_amt":null,"year_2012":true,"year_2012_amt":"18,000.00 ","year_2013":false,"year_2013_amt":null},"phone_number":"(734) 434-6000","address":{"address":"5477 W Clark Rd","city":"Ypsilanti","state":"Michigan","zip":"48197"},"name":"Katz, Gregory","npi":1952364994},"geometry":{"type":"Point","coordinates":[-83.66124,42.259388]}},{"type":"Feature","id":"5228ff0470d483a23804b2a1","properties":{"id":"5228ff0470d483a23804b2a1","incentives_received":{"year_2011":true,"year_2011_amt":"3,156.65 ","year_2012":true,"year_2012_amt":"4,550.00 ","year_2013":false,"year_2013_amt":null},"phone_number":"(586) 247-5910","address":{"address":"43910 Schoenherr","city":"Sterling Heights","state":"Michigan","zip":"48313"},"name":"Spadafora, Ann","npi":1952357147},"geometry":{"type":"Point","coordinates":[-82.992307,42.617708]}},{"type":"Feature","id":"5228ff0470d483a23804b265","properties":{"id":"5228ff0470d483a23804b265","incentives_received":{"year_2011":false,"year_2011_amt":null,"year_2012":true,"year_2012_amt":"12,759.09 ","year_2013":false,"year_2013_amt":null},"phone_number":"(616) 897-2020","address":{"address":"2186 W Main St, Suite 2","city":"Lowell","state":"Michigan","zip":"49331"},"name":"Durkee, David","npi":1952351926},"geometry":{"type":"Point","coordinates":[-85.441051,43.001591]}},{"type":"Feature","id":"5228ff0470d483a23804b23d","properties":{"id":"5228ff0470d483a23804b23d","incentives_received":{"year_2011":true,"year_2011_amt":"18,000.00 ","year_2012":true,"year_2012_amt":"12,000.00 ","year_2013":false,"year_2013_amt":null},"phone_number":"(248) 855-7555","address":{"address":"6900 Orchard Lake Rd, Suite 204","city":"W. Bloomfield","state":"Michigan","zip":"48322"},"name":"Taylor, Charles","npi":1952348948},"geometry":{"type":"Point","coordinates":[-83.342552,42.547205]}},{"type":"Feature","id":"5228ff0470d483a23804b251","properties":{"id":"5228ff0470d483a23804b251","incentives_received":{"year_2011":false,"year_2011_amt":null,"year_2012":true,"year_2012_amt":"18,000.00 ","year_2013":false,"year_2013_amt":null},"phone_number":"(517) 694-1466","address":{"address":"4378 W Holt Rd","city":"Holt","state":"Michigan","zip":"48842"},"name":"Annis, Roger","npi":1952350480},"geometry":{"type":"Point","coordinates":[-84.518124,42.64033]}},{"type":"Feature","id":"5228ff0470d483a23804b213","properties":{"id":"5228ff0470d483a23804b213","incentives_received":{"year_2011":false,"year_2011_amt":null,"year_2012":true,"year_2012_amt":"18,000.00 ","year_2013":false,"year_2013_amt":null},"phone_number":"(248) 426-0110","address":{"address":"33466 W 8 Mile Road, Suite 168","city":"Farmington Hills","state":"Michigan","zip":"48335"},"name":"Aquiler, Rosemary","npi":1952345225},"geometry":{"type":"Point","coordinates":[-83.38172,42.440447]}},{"type":"Feature","id":"5228ff0470d483a23804b207","properties":{"id":"5228ff0470d483a23804b207","incentives_received":{"year_2011":false,"year_2011_amt":null,"year_2012":true,"year_2012_amt":"18,000.00 ","year_2013":false,"year_2013_amt":null},"phone_number":"(616) 267-8700","address":{"address":"4069 Lake Dr SE, S-312","city":"Grand Rapids","state":"Michigan","zip":"49546"},"name":"Wong, Peter","npi":1952344509},"geometry":{"type":"Point","coordinates":[-85.569305,42.937882]}},{"type":"Feature","id":"5228ff0470d483a23804b1ed","properties":{"id":"5228ff0470d483a23804b1ed","incentives_received":{"year_2011":false,"year_2011_amt":null,"year_2012":true,"year_2012_amt":"18,000.00 ","year_2013":false,"year_2013_amt":null},"phone_number":"(989) 583-0100","address":{"address":"5570 State St","city":"Saginaw","state":"Michigan","zip":"48603"},"name":"szyperski, gregory","npi":1952342230},"geometry":{"type":"Point","coordinates":[-84.024653,43.436916]}},{"type":"Feature","id":"5228ff0470d483a23804b13c","properties":{"id":"5228ff0470d483a23804b13c","incentives_received":{"year_2011":false,"year_2011_amt":null,"year_2012":true,"year_2012_amt":"18,000.00 ","year_2013":false,"year_2013_amt":null},"phone_number":"(248) 549-0777","address":{"address":"3600 W 13 Mile Rd","city":"Royal Oak","state":"Michigan","zip":"48073"},"name":"PATEL, AMRISH","npi":1952326225},"geometry":{"type":"Point","coordinates":[-83.192038,42.517731]}},{"type":"Feature","id":"5228ff0470d483a23804b12b","properties":{"id":"5228ff0470d483a23804b12b","incentives_received":{"year_2011":false,"year_2011_amt":null,"year_2012":true,"year_2012_amt":"18,000.00 ","year_2013":false,"year_2013_amt":null},"phone_number":"(586) 757-9707","address":{"address":"13801 15 Mile Road","city":"Sterling Heights","state":"Michigan","zip":"48312"},"name":"PEASE, JOANNA","npi":1952324642},"geometry":{"type":"Point","coordinates":[-83.483355,42.641017]}},{"type":"Feature","id":"5228ff0470d483a23804b02b","properties":{"id":"5228ff0470d483a23804b02b","incentives_received":{"year_2011":true,"year_2011_amt":"18,000.00 ","year_2012":true,"year_2012_amt":"12,000.00 ","year_2013":false,"year_2013_amt":null},"phone_number":"(616) 241-2333","address":{"address":"5900 Byron Center Ave SW","city":"Wyoming","state":"Michigan","zip":"49519"},"name":"Diaz, Larry","npi":1952301038},"geometry":{"type":"Point","coordinates":[-85.721276,42.892361]}},{"type":"Feature","id":"5228ff0470d483a23804aff4","properties":{"id":"5228ff0470d483a23804aff4","incentives_received":{"year_2011":false,"year_2011_amt":null,"year_2012":true,"year_2012_amt":"18,000.00 ","year_2013":false,"year_2013_amt":null},"phone_number":"(231) 348-5900","address":{"address":"2611 Charlevoix Ave","city":"Petoskey","state":"Michigan","zip":"49770"},"name":"slater, james","npi":1942497466},"geometry":{"type":"Point","coordinates":[-84.995406,45.366943]}},{"type":"Feature","id":"5228ff0470d483a23804afd6","properties":{"id":"5228ff0470d483a23804afd6","incentives_received":{"year_2011":false,"year_2011_amt":null,"year_2012":true,"year_2012_amt":"18,000.00 ","year_2013":false,"year_2013_amt":null},"phone_number":"(989) 893-5541","address":{"address":"714 S Trumbull St","city":"Bay City","state":"Michigan","zip":"48708"},"name":"Dandamudi, Rajesh","npi":1942490941},"geometry":{"type":"Point","coordinates":[-83.867041,43.587166]}},{"type":"Feature","id":"5228ff0470d483a23804afb7","properties":{"id":"5228ff0470d483a23804afb7","incentives_received":{"year_2011":false,"year_2011_amt":null,"year_2012":true,"year_2012_amt":"18,000.00 ","year_2013":false,"year_2013_amt":null},"phone_number":"(989) 894-9000","address":{"address":"901 S Henry St","city":"Bay City","state":"Michigan","zip":"48706"},"name":"MALIK, ADNAN","npi":1942470042},"geometry":{"type":"Point","coordinates":[-83.902217,43.59191]}},{"type":"Feature","id":"5228ff0470d483a23804af4b","properties":{"id":"5228ff0470d483a23804af4b","incentives_received":{"year_2011":true,"year_2011_amt":"18,000.00 ","year_2012":true,"year_2012_amt":"12,000.00 ","year_2013":false,"year_2013_amt":null},"phone_number":"(616) 956-6100","address":{"address":"2060 East Paris Ave SE, Suite 100","city":"Grand Rapids","state":"Michigan","zip":"49546"},"name":"Nagle, Derek","npi":1942413844},"geometry":{"type":"Point","coordinates":[-85.569448,42.925814]}},{"type":"Feature","id":"5228ff0470d483a23804af15","properties":{"id":"5228ff0470d483a23804af15","incentives_received":{"year_2011":false,"year_2011_amt":null,"year_2012":true,"year_2012_amt":"18,000.00 ","year_2013":false,"year_2013_amt":null},"phone_number":"(734) 475-1321","address":{"address":"14700 East Old US 12","city":"Chelsea","state":"Michigan","zip":"48118"},"name":"Cooke, James","npi":1942398458},"geometry":{"type":"Point","coordinates":[-84.013773,42.304928]}},{"type":"Feature","id":"5228ff0470d483a23804af52","properties":{"id":"5228ff0470d483a23804af52","incentives_received":{"year_2011":false,"year_2011_amt":null,"year_2012":true,"year_2012_amt":"5,644.23 ","year_2013":false,"year_2013_amt":null},"phone_number":"(248) 964-1170","address":{"address":"44199 Dequindre, Ste. 315, Beaumont Multi-Disciplinary Office Ste. 315 Troy POB","city":"Troy","state":"Michigan","zip":"48085"},"name":"PERAKIS, PETER","npi":1942415849},"geometry":{"type":"Point","coordinates":[-83.127884,42.610378]}},{"type":"Feature","id":"5228ff0470d483a23804aefb","properties":{"id":"5228ff0470d483a23804aefb","incentives_received":{"year_2011":false,"year_2011_amt":null,"year_2012":true,"year_2012_amt":"18,000.00 ","year_2013":false,"year_2013_amt":null},"phone_number":"(810) 732-6780","address":{"address":"5065 Miller Rd","city":"Flint","state":"Michigan","zip":"48507"},"name":"Blossom, Aaron","npi":1942394242},"geometry":{"type":"Point","coordinates":[-83.774322,42.975321]}},{"type":"Feature","id":"5228ff0470d483a23804aee2","properties":{"id":"5228ff0470d483a23804aee2","incentives_received":{"year_2011":false,"year_2011_amt":null,"year_2012":true,"year_2012_amt":"18,000.00 ","year_2013":false,"year_2013_amt":null},"phone_number":"(248) 646-1965","address":{"address":"32270 Telegraph Rd, SUITE 120","city":"Bingham Farms","state":"Michigan","zip":"48025"},"name":"PEVZNER, MARTIN","npi":1942390976},"geometry":{"type":"Point","coordinates":[-82.925109,42.579451]}},{"type":"Feature","id":"5228ff0470d483a23804ae9f","properties":{"id":"5228ff0470d483a23804ae9f","incentives_received":{"year_2011":true,"year_2011_amt":"18,000.00 ","year_2012":true,"year_2012_amt":"12,000.00 ","year_2013":false,"year_2013_amt":null},"phone_number":"(517) 244-8900","address":{"address":"800 East Columbia","city":"Mason","state":"Michigan","zip":"48854"},"name":"Yu, Song","npi":1942373089},"geometry":{"type":"Point","coordinates":[-84.430508,42.582257]}},{"type":"Feature","id":"5228ff0470d483a23804ae1f","properties":{"id":"5228ff0470d483a23804ae1f","incentives_received":{"year_2011":false,"year_2011_amt":null,"year_2012":true,"year_2012_amt":"1,171.47 ","year_2013":false,"year_2013_amt":null},"phone_number":"(734) 232-2600","address":{"address":"400 E Eisenhower Pkwy, Suite B","city":"Ann Arbor","state":"Michigan","zip":"48108"},"name":"Pasque, Katherine","npi":1942326913},"geometry":{"type":"Point","coordinates":[-83.729731,42.244343]}},{"type":"Feature","id":"5228ff0370d483a23804ac68","properties":{"id":"5228ff0370d483a23804ac68","incentives_received":{"year_2011":false,"year_2011_amt":null,"year_2012":true,"year_2012_amt":"18,000.00 ","year_2013":false,"year_2013_amt":null},"phone_number":"(616) 885-5000","address":{"address":"2900 Bradford St NE","city":"Grand Rapids","state":"Michigan","zip":"49525"},"name":"Grove, James","npi":1942281852},"geometry":{"type":"Point","coordinates":[-85.598723,42.977064]}},{"type":"Feature","id":"5228ff0370d483a23804ac52","properties":{"id":"5228ff0370d483a23804ac52","incentives_received":{"year_2011":false,"year_2011_amt":null,"year_2012":true,"year_2012_amt":"18,000.00 ","year_2013":false,"year_2013_amt":null},"phone_number":"(248) 435-2028","address":{"address":"909 W Maple Rd, Ste 100","city":"Clawson","state":"Michigan","zip":"48017"},"name":"Shishu, Nidhi","npi":1942280177},"geometry":{"type":"Point","coordinates":[-83.158682,42.548157]}},{"type":"Feature","id":"5228ff0370d483a23804ac50","properties":{"id":"5228ff0370d483a23804ac50","incentives_received":{"year_2011":false,"year_2011_amt":null,"year_2012":true,"year_2012_amt":"18,000.00 ","year_2013":false,"year_2013_amt":null},"phone_number":"(989) 754-3000","address":{"address":"1015 S Washington Ave","city":"Saginaw","state":"Michigan","zip":"48601"},"name":"Shariff, Shiraz","npi":1942280003},"geometry":{"type":"Point","coordinates":[-83.944189,43.422544]}},{"type":"Feature","id":"5228ff0370d483a23804ac2e","properties":{"id":"5228ff0370d483a23804ac2e","incentives_received":{"year_2011":true,"year_2011_amt":"1,977.52 ","year_2012":true,"year_2012_amt":"1,603.27 ","year_2013":false,"year_2013_amt":null},"phone_number":"(248) 964-0400","address":{"address":"44300 Dequindre Rd, Family Medicine Center","city":"Sterling Heights","state":"Michigan","zip":"48314"},"name":"Misch, Paul","npi":1942277876},"geometry":{"type":"Point","coordinates":[-83.091063,42.617915]}},{"type":"Feature","id":"5228ff0370d483a23804ac22","properties":{"id":"5228ff0370d483a23804ac22","incentives_received":{"year_2011":false,"year_2011_amt":null,"year_2012":true,"year_2012_amt":"18,000.00 ","year_2013":false,"year_2013_amt":null},"phone_number":"(616) 391-3777","address":{"address":"25 Michigan St NE, Suite 2100","city":"Grand Rapids","state":"Michigan","zip":"49503"},"name":"TAVERA, CARLOS","npi":1942277348},"geometry":{"type":"Point","coordinates":[-85.666471,42.970583]}},{"type":"Feature","id":"5228ff0370d483a23804ab1f","properties":{"id":"5228ff0370d483a23804ab1f","incentives_received":{"year_2011":true,"year_2011_amt":"18,000.00 ","year_2012":true,"year_2012_amt":"12,000.00 ","year_2013":false,"year_2013_amt":null},"phone_number":"(248) 267-5000","address":{"address":"4600 Investment Dr, Ste 300","city":"Troy","state":"Michigan","zip":"48098"},"name":"Nurmi, Kevin","npi":1942261938},"geometry":{"type":"Point","coordinates":[-83.169892,42.588215]}},